provider_num,npi,name,address,city,state,zip,fips_county,lat,lon,phone,provider_type_code,category,emergency,upin,pin,region_code,bed_count,clia_lab_number
,"1891889945","DIGESTIVE CARE MEDICAL CENTER INC","1000A LAUREL STREET","SAN CARLOS",CA,"940703955",,37.5019986,-122.2556983,"6505968800","12-49",,,,"ZZZ25478Z",,,
,"1184607061","PACIFIC RIM OUTPATIENT SURGERY CENTER LIMITED LIABILITY COMPANY","3009 SQUALICUM PKWY","BELLINGHAM",WA,"982251939",,48.77236569151056,-122.47162825219984,"3607887740","12-49",,,,,,,
,"1316924632","CAROLINA BONE & JOINT SURGERY CENTER","101 SURGEONS DR","MYRTLE BEACH",SC,"295799999",,33.6956461,-78.8900409,"8432366633","12-49",,,,,,,
,"1407947112","AMBULATORY SURGERY CENTER OF BETHESDA LLC","11210 OLD GEORGETOWN RD","NORTH BETHESDA",MD,"208523202",,39.03828826596827,-77.12288773921877,"3019848600","12-49",,,,,,,
,"1811947062","WACO GASTROENTEROLOGY ENDOSCOPY CENTER LLC","364 RICHLAND WEST CIR","WACO",TX,"767127919",,31.512404431073907,-97.19737512084615,"6156651283","12-49",,,,"ASC185",,,
,"1215002852","SANTA ROSA AMBULATORY SURGICAL CENTER MEDICAL GROUP INC","76 BROOKWOOD AVE STE B","SANTA ROSA",CA,"954044312",,38.4430045,-122.7063982,"7075234907","12-49",,,,,,,
,"1497801237","WOOSTER CLINIC LLC","721 E MILLTOWN RD","WOOSTER",OH,"446911331",,40.84140514782831,-81.93111488745299,"3302874500","12-49",,,,,,,
,"1144228883","RENEWALASC, LLC","900 MOHAWK ST","SAVANNAH",GA,"314191708",,31.98437,-81.156996,"9129202090","12-49",,,,"P00056413",,,
"050107","1740318153","MARIAN REGIONAL MEDICAL CENTER","1400 E CHURCH ST","SANTA MARIA",CA,"934546966","083",34.951438249999995,-120.41323589032642,"8057393100","12-49","01-01",false,,"S051620","09",227,
,"1346288032","ENDOSCOPY CENTER AT RIDGE PLAZA LP","1200 E SAVANNAH AVE","MCALLEN",TX,"785031728",,26.182552,-98.209394,"9566872673","12-49",,,,"ASC187",,,
,"1639224827","OAK SURGICAL INSTITUTE LLC","403 S KENNEDY DR","BRADLEY",IL,"609152152",,41.1457041,-87.875828,"8159289999","12-49",,,,,,,
,"1629111430","MONTEREY PARK OUTPATIENT SURGERY CENTER INC","201 W GARVEY AVE","MONTEREY PARK",CA,"917547421",,34.062493,-118.1120255,"6262803393","12-49",,,,,,,
,"1275515157","ROCKY MOUNTAIN SURGICAL CENTER, LLC","1450 ELLIS ST","BOZEMAN",MT,"597158813",,45.6712635,-111.0155375,"4065569000","12-49",,,,,,,
,"1033393012","MICHAEL E BLATNER MD PS","16259 SYLVESTER RD SW STE 302","SEATTLE",WA,"981663059",,47.6038321,-122.330062,"2062415400","12-49",,,,"GAB39898",,,
,"1386614832","CARROLL COUNTY DIGESTIVE DISEASE CENTER, LLC","216B WASHINGTON HEIGHTS MED CTR","WESTMINSTER",MD,"211575665",,39.5631697,-76.9870359,"4108575113","12-49",,,,"059Z",,,
,"1134183056","TOPEKA SURGERY CENTER","3630 SW FAIRLAWN RD","TOPEKA",KS,"666143966",,39.0019074,-95.7442348,"7852738080","12-49",,,,,,,
,"1831118892","FACIAL PLASTIC SURGICENTER","1838 GREENE TREE RD","BALTIMORE",MD,"212087102",,39.3906351,-76.7365845,"4104863400","12-49",,,,,,,
,"1265404115","WILLMAR MEDICAL SERVICES, LLP","1320 1ST ST S","WILLMAR",MN,"562014242",,45.11027686621351,-95.04252705382476,"3202356506","12-49",,,,,,,
,"1316949415","NEWPORT BEACH SURGERY CENTER LP","361 HOSPITAL ROAD","NEWPORT BEACH",CA,"926633521",,33.62620545,-117.93034170557402,"9496310988","12-49",,,,"S051243",,,
,"1417987595","ENDOSCOPY CENTER OF NORTH BALTIMORE","1220C E JOPPA RD","TOWSON",MD,"212865820",,39.4019007,-76.6014401,"4102964415","12-49",,,,,,,
,"1245340603","MOUNTAIN EMPIRE CATARACT & EYE SURGERY CENTER","3185 W STATE ST","BRISTOL",TN,"376201600",,36.59068911144538,-82.23551778762076,"4239684141","12-49",,,,"3288762",,,
,"1679687586","GASTROENTEROLOGY ASSOCIATES OF THE PIEDMONT PA","875 BETHESDA RD","WINSTON SALEM",NC,"271033914",,36.0787869,-80.2936408,"3364482427","12-49",,,,,,,
"08C0001003","1508839473","NEWARK ENDOSCOPY ASC LLC","1090 OLD CHURCHMANS RD","NEWARK",DE,"197132102",,39.6775927,-75.7630866,"3028922710","12-49",,,,"A00041",,,
,"1336142884","THE SURGICAL SUITES LLC","1100 WARD AVE","HONOLULU",HI,"968141617",,21.3034691,-157.85004386346048,"8085310127","12-49",,,,,,,
,"1376780916","HAMILTON SURGERY CENTER LLC","9700 E 146TH ST","NOBLESVILLE",IN,"460604303",,40.001162597461956,-85.99681515023386,"3176213500","12-49",,,,"15C0001094",,,
,"1447329990","SEMMES- MURPHEY CLINIC","6325 HUMPHREYS BLVD","MEMPHIS",TN,"381202300",,35.12528044897959,-89.85118308163266,"9015227700","12-49",,,,"3288735",,,
,"1205872108","THE SURGERY & ENDOSCOPY CENTER LLC","3201 PHYSICIANS WAY","SEBRING",FL,"338705447",,27.4678002,-81.4343047,"8634710786","12-49",,,,,,,
"10C0001229","1114907920","MIAMI ASC LP","5101 SW 8TH ST","CORAL GABLES",FL,"331342442",,25.764174250000003,-80.27730632462116,"3054611881","12-49",,,,"490003064",,,
,"1457306888","PMTC SURGERY CENTER INC","8901 N 76TH ST","MILWAUKEE",WI,"532231901",,43.181415650000005,-88.00558614530645,"4143540772","12-49",,,,,,,
,"1245233220","NORTHRIDGE SURGERY CENTER, LP","647 MYATT DR","MADISON",TN,"371152125",,36.2926886,-86.6943881,"6158688942","12-49",,,,"3288670",,,
,"1871538140","INLAND EYE SPECIALISTS A MEDICAL CORP","25395 HANCOCK AVE","MURRIETA",CA,"925629054",,33.55885618282702,-117.18523891850906,"9516965388","12-49",,,,"ZZZ26813Z",,,
,"1679577167","WHITEHALL SURGERY CENTER","1030 REFUGEE ROAD","WHITEHALL",OH,"432133162",,39.9667308,-82.8854559,"6146047444","12-49",,,,,,,
,"1639158645","BIG SKY SURGERY CENTER, LLC","2833 FORT MISSOULA RD","MISSOULA",MT,"598047408",,46.84665430882353,-114.04397597058824,"4065426559","12-49",,,,"M000005700",,,
,"1265486849","FEATHERSTONE PARTNERSHIP LP","1016 FEATHERSTONE RD","ROCKFORD",IL,"611075902",,42.279942906901525,-88.99689064196376,"8152263300","12-49",,,,,,,
,"1649215765","BROUSSARD SURGERY INSTITUTE, INC.","1250 PECANLAND RD","MONROE",LA,"712037011",,32.497457279006866,-92.06526331697421,"3183872015","12-49",,,,,,,
,"1619965324","ADVANCED SURGERY CENTER LLC","12607 OLIVE BLVD","SAINT LOUIS",MO,"631416313",,38.67705699298771,-90.46608975281062,"3142051610","12-49",,,,,,,
,"1316025760","TRI STATE SURGICAL CENTER LLC","1006 TAVERN RD","MARTINSBURG",WV,"254012864",,39.47731714980403,-77.97777479006558,"3042670556","12-49",,,,,,,
,"1265442537","BRIGHTON SURGERY CENTER, LLC","980 WESTFALL RD","ROCHESTER",NY,"146182637",,43.115744,-77.59454809034287,"5852958500","12-49",,,"2701237R",,,,
,"1790724862","PROLIANCE SURGEONS INC PS","12911 120TH AVE NE STE H110","KIRKLAND",WA,"980343061",,47.7158958,-122.1819866,"4252167000","12-49",,,,"GAB39171",,,
,"1336170596","THE UROLOGIC SURGICAL CENTER LLC","2110 HARRISBURG PIKE","LANCASTER",PA,"176012644",,40.0651421,-76.3556689,"7173974254","12-49",,,,"074311",,,
,"1902877509","CULPEPER SURGERY CENTER LLC","541 SUNSET LANE","CULPEPER",VA,"227013979",,38.45521486604196,-78.011799063445,"5408290700","12-49",,,,,,,
,"1467470930","33RD STREET SURGERY CENTER LLC","200 E. 33RD ST.","BALTIMORE",MD,"212183322",,39.328448,-76.614912,"4105544455","12-49",,,,"163Z",,,
,"1588746333","TALLAHASSEE ORTHPAEDIC SURGERY PARTNERS LTD","3334 CAPITAL MEDICAL BLVD","TALLAHASSEE",FL,"323084674",,30.4769882,-84.2240985874472,"8508774688","12-49",,,,"F1163",,,
,"1033135314","MED ATLANTIC INC","9101 STONY POINT PKWY","RICHMOND",VA,"232351979",,37.55443475,-77.57352296943711,"8042876100","12-49",,,,,,,
,"1639203888","VALLEY MEDICAL GROUP PC","31 HALL DR","AMHERST",MA,"010022751",,42.35623185,-72.48624011623806,"4132568561","12-49",,,,"221044",,,
,"1710985445","HERSHEY ENDOSCOPY CENTER LLC","905 W GOVERNOR RD","HERSHEY",PA,"170332307",,40.268512344076875,-76.67239128821706,"7175311318","12-49",,,,,,,
"03C0001266","1851516728","PHOENIX ENDOSCOPY, LLC","349 EAST CORONADO ROAD","PHOENIX",AZ,"850041525","013",33.467159300000006,-112.06688955,"6022665678","12-49","15-01",true,,"Z76901","09",,
,"1679544290","KEYSTONE SURGERY CENTER, LTD","575 E NORWEGIAN ST","POTTSVILLE",PA,"179013711",,40.68909381813785,-76.18879915011145,"5706221200","12-49",,,,"074442",,,
,"1912174996","PACIFIC CATARACT AND LASER INSTITUTE INC PC","1621 MARKET PLACE DR","GREAT FALLS",MT,"594043480",,47.4825295,-111.3417256,"4064542202","12-49",,,"M000082435","M000082435",,,
,"1891759569","ST JOSEPH CENTER FOR OUTPATIENT SURGERY LLC","4510 FREDERICK AVE","SAINT JOSEPH",MO,"645063238",,39.778004269418105,-94.78794357467234,"8163649992","12-49",,,,,,,
,"1629107545","LANIER EYE ASSOCIATES, LLC","625 S ENOTA DR NE","GAINESVILLE",GA,"305012437",,34.3131713729579,-83.81484489593572,"7705320292","12-49",,,,,,,
"10C0001190","1992785232","NORTHWEST FLORIDA GASTROENTEROLOGY CENTER","204B E 19TH ST","PANAMA CITY",FL,"324054707","005",30.181058,-85.6530024,"8507697599","12-49","15-01",true,,"F1190","04",,
"03C0001265","1306843222","ST. JOSEPH'S OUTPATIENT SURGERY CENTER, LLC","240 WEST THOMAS ROAD, SUITE A","PHOENIX",AZ,"850134407","013",33.48152195,-112.07781778631144,"6024063552","12-49","15-01",true,,"Z76921","09",,
,"1538167978","VALLEY SURGICAL CENTER LTD","2323 SUNSET BLVD","STEUBENVILLE",OH,"439522433",,40.37033728408041,-80.64438262477927,"7402640145","12-49",,,,,,,
,"1265574768","ENDOSCOPY CENTER OF LONG ISLAND LLC","711 STEWART AVENUE","GARDEN CITY",NY,"115304719",,40.7332965,-73.6090531,"5162272354","12-49",,,,"A100001128",,,
,"1114078342","RODEO DRIVE PLASTIC SURGERY INC","421 N RODEO DR","BEVERLY HILLS",CA,"902104500",,34.06959617671348,-118.40345126824228,"3105506300","12-49",,,,,,,
"05C0001368","1114922192","REDDING ENDOSCOPY CENTER","2179 COURT STREET","REDDING",CA,"960012531","089",40.57702270619309,-122.39291295766996,"5302467000","12-49","15-01",true,,"ZZZ13409Z","09",,
,"1538166053","SOUTHERN OB GYN AMBULATORY SURGERY CENTER, INC","341 CONNELL RD","VALDOSTA",GA,"31602",,30.873512,-83.282285,"2292412800","12-49",,,,,,,
"45C0001047","1679644017","SURGERY CENTER OF DUNCANVILLE","70 HEALTH PARK DRIVE","LOUISVILLE",CO,"800279583",,39.952069333333334,-105.14955102083334,"7208902721","12-49",,,,"C514798",,,
"06C0001079","1275682627","SUMMIT VIEW SURGERY CENTER LLC","7730 S BROADWAY","LITTLETON",CO,"801222602","005",39.57729671621621,-104.98827631081082,"3037302376","12-49","15-01",true,,"C514788","08",,
,"1629045133","MONTICELLO COMMUNITY SURGERY CENTER LLC","2331 SEMINOLE LANE","CHARLOTTESVILLE",VA,"229018319",,38.029306,-78.4766781,"4342934995","12-49",,,,,,,
,"1497727093","JAMES A TAMMARO MD PC","40 CAPRI BLVD","LAKE HAVASU CITY",AZ,"864035661",,34.477521,-114.3410279,"9288559477","12-49",,,,"Z3C0001024",,,
,"1366498115","VALLEY PAIN CENTER L.L.C.","1800 BYBERRY RD","HUNTINGDON VALLEY",PA,"190063523",,40.1226101,-75.0635049,"2159477992","12-49",,,,,,,
,"1588603351","PHYSICIANS DAY SURGERY CENTER","17200 CHENAL PKWY STE 440","LITTLE ROCK",AR,"722235970",,34.8099297,-92.4893544,"8705364100","12-49",,,,,,,
,"1255345229","BEACON ORTHOPAEDICS SURGERY CENTER, LLC","501 E-BUSINESS WAY","CINCINNATI",OH,"452477961",,39.1014537,-84.5124602,"5133543737","12-49",,,,,,,
,"1447231287","GASTROENTEROLOGY SPECIALISTS INC","2726 FULTON DR NW","CANTON",OH,"447183506",,40.7985464,-81.3749508,"3304555011","12-49",,,,,,,
,"1134259179","GROSSNICKLE EYE CENTER INC","2251 DUBOIS DR","WARSAW",IN,"465803212",,41.24655238682564,-85.82476272720177,"5742692777","12-49",,,,"ZR0190",,,
,"1023006079","THE ENDOSCOPY CENTER LLC","817 LAWN AVE","SELLERSVILLE",PA,"189601579",,40.3645266824402,-75.3271856949586,"2154533050","12-49",,,,,,,
,"1538178256","MED-LASER SURGICAL CENTER LLC","2445 W WHITTIER BLVD","MONTEBELLO",CA,"906403068",,34.014162224936946,-118.12833138684721,"3237272550","12-49",,,,,,,
,"1992709851","NOVAMED SURGERY CENTER OF CHICAGO-NORTHSHORE LLC","3034 W PETERSON AVE","CHICAGO",IL,"606593729",,41.99064775,-87.70570959200532,"7739737432","12-49",,,,"205634",,,
,"1538242649","SOUTHWESTERN ENDOSCOPY CENTER, LLC","300 SPRING CREEK LANE","UNIONTOWN",PA,"154019069",,39.900076,-79.7164326,"7244378840","12-49",,,"2087",,,,
,"1871586149","DISCOVER VISION SURGERY & LASER CENTER LLC","11500 GRANADA ST","LEAWOOD",KS,"662111453",,38.91976075,-94.63915304856869,"8163506902","12-49",,,,"9004214",,,
,"1346205176","CORAL DESERT SURGERY CENTER LLC","1490 E FOREMASTER DR","ST GEORGE",UT,"847904550",,37.104153,-113.5841313,"4356745230","12-49",,,,,,,
,"1437289535","BI CITY SURGICAL CENTRE INC","1900 10TH AVE","COLUMBUS",GA,"319013600",,32.480459,-84.979408,"7063275300","12-49",,,,,,,
,"1497752745","ORTHOPEDIC SOUTH SURGICAL PARTNERS, LLC","156 FOSTER DR STE A","MORROW",GA,"302602354",,33.5831662,-84.3393683,"6784224230","12-49",,,,"111234ASCA",,,
"39C0001094","1922071315","SURGERY & LASER CENTER","3744 STATE ROUTE 257","SENECA",PA,"163463318","121",41.378671,-79.7039405,"8146776700","12-49","15-01",true,,"043555","03",,
,"1902876212","SCAC LLC","105 BRANDT DRIVE","CRANBERRY TOWNSHIP",PA,"160666414",,40.692898115388736,-80.10427220241004,"7247721766","12-49",,,,"074942",,,
,"1437202249","PACMED CLINICS","1101 MADISON ST STE 400","SEATTLE",WA,"981043599",,47.6091718,-122.324216,"2065051300","12-49",,,,,,,
,"1669577524","SKIN & MOHS SURGERY CENTER LLC","11550 GRANADA ST","LEAWOOD",KS,"662111453",,38.9190289,-94.63910248051074,"9134517546","12-49",,,,"9004215",,,
,"1225184153","JEAN CHENG, M.D. INC.","8990 GARFIELD ST STE 1","RIVERSIDE",CA,"925033922",,33.928806404841886,-117.43963019144225,"9517855421","12-49",,,,,,,
,"1538153887","KANSAS ENDOSCOPY LLC","3121 N WEBB RD","WICHITA",KS,"672268119",,37.73953844116988,-97.22639542943995,"3162613130","12-49",,,"112217",,,,
"39C0001066","1780664185","SPRINGFIELD AMBULATORY SURGERY CENTER","1528 BETHLEHEM PIKE","FLOURTOWN",PA,"190312025","091",40.105446970222076,-75.21319999804275,"6156651283","12-49","15-01",true,,"300696","03",,
,"1235240813","NORTH MISSISSIPPI AMBULATORY SURGERY CENTER LLC","589 GARFIELD ST","TUPELO",MS,"388016301",,34.24015044444444,-88.71592822222222,"6623774700","12-49",,,,,,,
,"1639242506","RENAL INTERVENTION CENTER, LLC","430 MAXINE DR","MORTON",IL,"615502495",,40.6041154,-89.4747565,"3094955420","12-49",,,,,,,
,"1689679680","TOSC LLC","6505 MARKET STREET","YOUNGSTOWN",OH,"445144382",,41.0744341,-80.6572744,"3307581065","12-49",,,,,,,
,"1306829866","SOUTHWEST SURGICAL CENTER LLC","8100 W 78TH ST","EDINA",MN,"554392568",,44.861216,-93.3928863343327,"9529148400","12-49",,,,,,,
,"1821055690","FLORIDA MEDICAL CLINIC LLC","38135 MARKET SQUARE","TAMPA",FL,"336132709",,27.9477595,-82.458444,"8137808440","12-49",,,,"39715",,,
,"1184600736","MERIDIAN SURGERY CENTER, LLC","2100 13TH ST","MERIDIAN",MS,"39301",,32.369954,-88.699531,"6014854443","12-49",,,,,,,
,"1124022595","THE OUTPATIENT SURGERY CENTER OF CEDAR RAPIDS, LLC","1075 1ST AVENUE SE","CEDAR RAPIDS",IA,"524025003",,41.98420330612245,-91.65898706122448,"3195584800","12-49",,,,,,,
,"1538159728","TENAYA SURGICAL CENTER LLC","2800 N TENAYA WAY","LAS VEGAS",NV,"891281100",,36.210939,-115.249327,"7028387755","12-49",,,,,,,
,"1689608697","ADVANCED COLON CARE INC","929 BOSTON POST RD","OLD SAYBROOK",CT,"064752143",,41.3000455,-72.3752327,"8603950554","12-49",,,"G57911",,,,
,"1255394771","DOCTORS HOSPITAL SURGERY CENTER, L.P.","635 RONALD REAGAN DR","EVANS",GA,"308097602",,33.54375086297648,-82.13425522496337,"7068683110","12-49",,,,"111052ASCB",,,
,"1184752305","SEASHORE SURGICAL INSTITUTE, LLC","495 JACK MARTIN BLVD","BRICK",NJ,"087247778",,40.081124581207895,-74.13562343310876,"7328369800","12-49",,,,"075233",,,
,"1093726796","ROCKY MOUNTAIN EYE SURGERY CENTER INC","700 WEST KENT","MISSOULA",MT,"598016772",,46.851648,-114.007989,"4065413883","12-49",,,,,,,
,"1588636278","AESTHETIC PLASTIC SURGERY CENTER LP","1200 BINZ ST","HOUSTON",TX,"770046935",,29.7231213,-95.3868115,"7135289100","12-49",,,,,,,
,"1245471788","PACIFIC CATARACT AND LASER INSTITUTE INC PC","1331 NW LOVEJOY STREET","PORTLAND",OR,"972093281",,45.5304786,-122.6851614,"5035352883","12-49",,,"R147241","R0000WFBNK",,,
,"1114921541","SACRAMENTO SURGERY CENTER ASSOC., LP","1800 TRIBUTE RD","SACRAMENTO",CA,"958154326",,38.598605953362565,-121.44659049912131,"9169252700","12-49",,,,,,,
"08C0001008","1396718318","DOVER OPHTHALMOLOGY ASC LLC","655 S BAY RD","DOVER",DE,"199014660",,39.152440297842595,-75.50610845052216,"3026784688","12-49",,,,"490005092",,,
,"1427028919","CASCADE ENDOSCOPY CENTER LLC","1007 HARLOW ROAD","SPRINGFIELD",OR,"974777125",,44.07057786337779,-123.04222698757721,"5417268882","12-49",,,,"R117323",,,
,"1669465209","FOUNDATION SURGERY AFFILIATE OF HUNTINGDON VALLEY, LP","1800 BYBERRY ROAD","HUNTINGDON VALLEY",PA,"190063522",,40.1226101,-75.0635049,"2159144600","12-49",,,,,,,
,"1598809758","CALIFORNIA EYE CLINIC","3747 SUNSET LN","ANTIOCH",CA,"945096101",,37.9842904214782,-121.80412313461224,"9257542300","12-49",,,,,,,
,"1497782833","CARMEL AMBULATORY SURGERY CENTER LLC","13421 OLD MERIDIAN ST","CARMEL",IN,"460321472",,39.9807454,-86.1422308,"3177061600","12-49",,,,,,,
,"1720012701","JOHNSON CITY EYE SURGERY CENTER","110 MED TECH PKWY","JOHNSON CITY",TN,"376042256",,36.336065710718124,-82.39804711194559,"4237220371","12-49",,,,,,,
,"1265438303","EYE SURGERY CENTER OF CHATTANOOGA, LLC","7268 JARNIGAN RD","CHATTANOOGA",TN,"374213096",,35.029721253638954,-85.16004820335186,"4236433937","12-49",,,,"3288846",,,
,"1174607303","SOUTHWEST MEDICAL ASSOCIATES INC","2450 W CHARLESTON BLVD","LAS VEGAS",NV,"891022179",,36.1587505,-115.174487,"7028778660","12-49",,,,"490002673",,,
,"1962455428","VALLEY EYE INSTITUTE ASC","1118 FAIRINGTON DRIVE","SIDNEY",OH,"453658913",,40.2698726,-84.17538010906941,"9374923755","12-49",,,,,,,
,"1992738751","PSI SURGERY CENTER, LLC.","9985 DAYTON LEBANON PIKE","CENTERVILLE",OH,"454584231",,39.6068184,-84.160804,"9378862985","12-49",,,,,,,
"29C0001004","1982677191","SHEPHERD EYE SURGICENTER INC","3575 PECOS MCLEOD","LAS VEGAS",NV,"891213803","003",36.1672559,-115.148516,"7027312088","12-49","15-01",true,,"32911","09",,
,"1336180173","BELTWAY SURGERY CENTERS LLC","151 PENNSYLVANIA PKWY","INDIANAPOLIS",IN,"462901001",,39.7683331,-86.1583502,"3178171126","12-49",,,,,,,
,"1962506618","THE POLYCLINIC","1145 BROADWAY","SEATTLE",WA,"981224201",,47.6126616,-122.3209134,"2068604522","12-49",,,,,,,
,"1053664136","BEVERLY A FISCHER MD P A.","12205 TULLAMORE RD","TIMONIUM",MD,"210937816",,39.4475075,-76.5974223220619,"4103084700","12-49",,,,,,,
,"1699702050","VIRGINIA MASON MEDICAL CENTER","11695 NE 4TH ST","LYNNWOOD",WA,"980364706",,47.8278656,-122.3053932,"4256371855","12-49",,,,"8861182",,,
,"1821019738","SANTA BARBARA ENDOSCOPY CENTER LLC","25 W MICHELTORENA ST","SANTA BARBARA",CA,"93010",,34.42529695,-119.70892326271277,"8059661600","12-49",,,,"S051636",,,
,"1073578126","SAN LUIS OBISPO SURGERY CENTER A CALIFORNIA LIMITED PARTNERSHIP","1304 ELLA ST","SAN LUIS OBISPO",CA,"934014167",,35.27686108163265,-120.64998432653061,"8055447874","12-49",,,,"S551057",,,
,"1427029396","MAYO CLINIC ARIZONA","13400 E SHEA BLVD","SCOTTSDALE",AZ,"852595499",,33.58561,-111.79438351039818,"4803018000","12-49",,,,"Z360001087",,,
,"1154318103","THE EVERETT CLINIC, PLLC","3927 RUCKER AVE","EVERETT",WA,"982014833",,47.9649649,-122.21045027374814,"4253173950","12-49",,,,"001259300",,,
,"1619149960","THE VANCOUVER CLINIC INC PS","700 NE 87TH AVE","VANCOUVER",WA,"986641913",,45.62735481523769,-122.58376661979696,"3608822778","12-49",,,,"GAB03565",,,
,"1700882271","GAB ENDOSCOPY CENTER, LTD.","621 CAMDEN ST STE 102","SAN ANTONIO",TX,"782151644",,29.43685765,-98.48899235651466,"2102533430","12-49",,,,"ASC196",,,
,"1588797807","SPOKANE DIGESTIVE DISEASE CENTER PS","105 W 8TH AVE","SPOKANE",WA,"992042318",,47.647814100000005,-117.4137853079558,"5098385950","12-49",,,"A07517",,,,
"0N81740","1407954365","ASC TCG LLC","37399 GARFIELD ROAD","CLINTON TOWNSHIP",MI,"480363672",,42.5716963,-82.9518304,"5862285300","12-49",,,,,,,
,"1902831225","ENDOSCOPY CENTER LLC","13421 OLD MERIDIAN ST","CARMEL",IN,"460321411",,39.9807454,-86.1422308,"3177061600","12-49",,,,,,,
,"1053319053","EYE SURGERY CENTER OF NEW ALBANY LLC","520 W 1ST ST","NEW ALBANY",IN,"471503603",,38.28664283917765,-85.82568952626394,"8129493442","12-49",,,,"ZM0720",,,
,"1396727418","ENDOSCOPY CENTER OF LITTLE ROCK LLC","4200 N RODNEY PARHAM RD","LITTLE ROCK",AR,"722122460",,34.79032361630433,-92.3977979503435,"5012284445","12-49",,,,,,,
,"1699732131","ANTELOPE VALLEY SURGERY CENTER LP","44301 N LORIMER AVE","LANCASTER",CA,"935343700",,34.6981064,-118.1366153,"6619401112","12-49",,,,"051233",,,
,"1558538231","PACIFIC CATARACT AND LASER INSTITUTE INC PC","9598 MICKELBERRY RD NW","SILVERDALE",WA,"983838339",,47.650426,-122.682105,"3606985062","12-49",,,,"G000985500",,,
,"1144287665","CHANNEL ISLANDS SURGICENTER LP","2300 WANKEL WAY","OXNARD",CA,"930302665",,34.216739,-119.146275,"8054851908","12-49",,,,"S051229",,,
,"1619933264","SALEM SURGERY CENTER, LLC","2525 12ST SE","SALEM",OR,"973022153",,44.9391565,-123.033121,"5033643704","12-49",,,,"490000398",,,
"29C0001026","1740254572","DIGESTIVE HEALTH CENTER","5250 KIETZKE LANE","RENO",NV,"895112037","031",39.472906571428574,-119.79251048979592,"7758297600","12-49","15-01",true,,"38337","09",,
,"1184689408","EYE ASSOCIATES NORTHWEST, PC","1455 NW LEARY WAY","SEATTLE",WA,"98107",,47.6634274,-122.375804,"2063426041","12-49",,,,"GAB09665",,,
,"1881697522","RIVERSIDE PARK SURGICENTER INC","2001 COLLEGE ST","JACKSONVILLE",FL,"322043703",,30.3166465,-81.682826,"9043559800","12-49",,,,"F1167",,,
,"1083785398","OLYMPIA ORTHOPAEDIC ASSOCIATES, PLLC","3901 CAPITAL MALL DR SW STE B","OLYMPIA",WA,"985028654",,47.0451022,-122.8950075,"3604918439","12-49",,,"X12214","GAB26664",,,
,"1831125962","APAC SURGICAL CENTER II LLC","11460 S. BROADWAY ST.","CROWN POINT",IN,"463077106",,41.4169806,-87.3653136,"2194880155","12-49",,,,"ZH1070",,,
,"1649270075","NORTHEAST REGIONAL SURGERY CENTER LLC","11 GALLAGHER DR","PLAINS",PA,"187051146",,41.2721921,-75.8614737,"5709701030","12-49",,,,,,,
,"1881684538","MCPEAK SURGERY CENTER LLC","108 BRAVO BLVD","GLASGOW",KY,"421413412",,37.0150477107668,-85.9078760082108,"2706512181","12-49",,,,"ASC1010",,,
,"1144220096","SIGHT PARTNERS PHYSICIANS PC","16404 SMOKEY POINT BLVD","SEQUIM",WA,"983823080",,48.0849312,-123.1096706,"3606586224","12-49",,,,,,,
,"1417937756","CLEVELAND ASC LLC","5106 WILSON MILLS RD","RICHMOND HEIGHTS",OH,"44143",,41.5386487,-81.4963128,"4404612570","12-49",,,,"3610941",,,
,"1396733945","EYE LASER & SURGERY CENTER OF COLUMBUS, LLC","634 LEIGH DR","COLUMBUS",MS,"397053014",,33.529276794563614,-88.42559876292164,"6623273773","12-49",,,,,,,
,"1164584066","NAPERVILLE SURGICAL CENTRE LLC","1263 RICKERT DR","NAPERVILLE",IL,"605400954",,41.75016177282547,-88.18443169715567,"6303053300","12-49",,,,,,,
,"1639176183","BERKS CENTER FOR DIGESTIVE HEALTH LP","1011 REED AVE","WYOMISSING",PA,"196102002",,40.329537,-75.9652117,"6102883229","12-49",,,,"052996",,,
,"1053303826","NEW ENGLAND LASER AND COSMETIC SURGERY CENTER LLC","1072 TROY SCHENECTADY RD","LATHAM",NY,"121101019",,42.7647546,-73.8112076,"5187830035","12-49",,,,"BA0044",,,
,"1023104825","VISION CARE OF MAINE-AROOSTOOK LLC","173 ACADEMY ST","PRESQUE ISLE",ME,"047693103",,46.67646495,-67.9944513598843,"2077640376","12-49",,,,,,,
,"1548213077","PACIFIC CATARACT AND LASER INSTITUTE OF ALASKA INC PC","1600 A ST","ANCHORAGE",AK,"995015147",,61.206013,-149.88339,"9072722423","12-49",,,"K150069","K150069",,,
,"1396738936","WARREN GASTRO ENDOSCOPY CTR INC","1622 E MARKET ST","WARREN",OH,"444836613",,41.236416500000004,-80.796325,"3303997215","12-49",,,,"3610931",,,
,"1154400471","ST LOUIS WOMENS SURGERY CENTER LLC","884 WOODS MILL RD","BALLWIN",MO,"630113657",,38.6195596,-90.5110826,"6367790079","12-49",,,,,,,
,"1740288679","GULF COAST SURGICAL PARTNERS LLC","3610 SPRINGHILL MEMORIAL DR N","MOBILE",AL,"366081162",,30.6867339,-88.0848929,"2514103800","12-49",,,,"051554502",,,
,"1427094945","TRI-STATE SURGERY CENTER LLC","80 LANDINGS DR","WASHINGTON",PA,"153019408",,40.2015912,-80.207284,"7242258800","12-49",,,,"084963TD6",,,
,"1265536270","CIGNA HEALTHCARE OF ARIZONA INC","755 E MCDOWELL RD","PHOENIX",AZ,"850123031",,33.465629675080436,-112.06277765885692,"6022713020","12-49",,,,"ZWCKHL",,,
,"1649287269","BAPTIST PLAZA SURGICARE LP","2004 HAYES STREET","NASHVILLE",TN,"372032654",,36.152351714285714,-86.80032565306122,"6155154000","12-49",,,,"3288827",,,
,"1700057254","NORTH STATE SURGERY CENTERS LP","2175 ROSALINE AVE","REDDING",CA,"960012549",,40.571750249999994,-122.39588280195213,"5302257400","12-49",,,,"ZZZ27456Z",,,
,"1962402503","NORTH KITSAP AMBULATORY SURGERY CENTER, INC.","20669 BOND RD NE","POULSBO",WA,"983706525",,47.75071546750279,-122.64906312924856,"3607796527","12-49",,,,,,,
,"1306973235","DIGESTIVE DISEASE & ENDOSCOPY CENTER, LLC","3261 NW MOUNT VINTAGE WAY STE 221","SILVERDALE",WA,"983836039",,47.65895734693878,-122.69716171428571,"(360) 479-1952","12-49",,,,,,,
,"1942261599","SDOSC LP","3939 RUFFIN RD STE 101","SAN DIEGO",CA,"921231804",,32.81405975,-117.12081353284033,"6192999530","12-49",,,,"S051012A",,,
,"1982626974","PHYSICIANS EYE SURGERY CENTER INC","3930 HOYT AVE","EVERETT",WA,"982014919",,47.9649573,-122.20986735520803,"4252592020","12-49",,,,"GAB02122",,,
,"1831165331","SPOKANE EYE CLINIC INC, PS","427 S BERNARD ST","SPOKANE",WA,"992042509",,47.652280629958355,-117.41632012963363,"5094568150","12-49",,,,,,,
,"1013914985","ROANOKE AMBULATORY SURGERY CENTER LLC","1102 S JEFFERSON ST","ROANOKE",VA,"240164704",,37.263206592886746,-79.94129961981008,"5403425800","12-49",,,,"ASC197",,,
,"1467474585","NORTH SHORE ENDOSCOPY CENTER LTD","850 COLUMBIA RD","WESTLAKE",OH,"441457215",,41.47504645,-81.90303877812104,"4408081212","12-49",,,,"3611831",,,
,"1003944125","VAIL VALLEY SURGERY CENTER, LLC","181 W MEADOW DR # 3R","VAIL",CO,"816575242",,39.6440207,-106.3801669,"9704768200","12-49",,,,,,,
,"1689632051","ROSS SURGERY CENTER INC","50 NORTH PLAZA BLVD","CHILLICOTHE",OH,"45601",,39.3331197,-82.9824019,"8665878790","12-49",,,,,,,
,"1053418137","TRI-CITY REGIONAL SURGERY CENTER LLC","1096 GOETHALS DR","RICHLAND",WA,"993523303",,46.28184901088497,-119.27999028563843,"5099439700","12-49",,,"GAB03177",,,,
,"1144370784","BELLINGHAM EAR NOSE THROAT AND FACIAL SURGERY INC.","2940 SQUALICUM PKWY STE 203","BELLINGHAM",WA,"982251892",,48.77211586833967,-122.47458965794821,"3607330640","12-49",,,"A09528",,,,
,"1255472841","LYNN EYE SURGICENTER","2230 LYNN RD STE 106","THOUSAND OAKS",CA,"91360",,34.20860391421721,-118.8850885012106,"8053703137","12-49",,,,,,,
,"1699817346","CASCADE EYE & SKIN CENTERS P.C.","1703 S MERIDIAN","PUYALLUP",WA,"983717516",,47.175187791666666,-122.29336351388889,"2537707708","12-49",,,,,,,
,"1033246459","COTTON-ONEIL CLINIC ENDOSCOPY CENTER RVOC TR","720 SW LANE ST","TOPEKA",KS,"666061539",,39.0542696,-95.6923122,"7852704884","12-49",,,,,,,
,"1457309312","NORTHWEST NASAL SINUS CENTER","3100 CARILLON PT","KIRKLAND",WA,"980337306",,47.6572106,-122.2064575,"4255761700","12-49",,,,"G217111400",,,
,"1629130521","MIDWEST SURGERY CENTER","2080 WOODWINDS DR","WOODBURY",MN,"551252524",,44.91938675,-92.9812211582666,"6516421106","12-49",,,,,,,
,"1548390081","ADVANCED AMBULATORY SURGICAL CENTER INC","2333 N HARLEM AVE","CHICAGO",IL,"607072718",,41.921968050000004,-87.80575419706219,"7736371700","12-49",,,,,,,
,"1992702443","THE EASTSIDE ENDOSCOPY CENTER LLC","1135 116TH AVE NE","BELLEVUE",WA,"980044632",,47.621201666666664,-122.18577707070706,"4254517335","12-49",,,,"217000375",,,
,"1821167479","EVERGREEN EYE CENTER INC PS","34719 6TH AVE S","FEDERAL WAY",WA,"980038714",,47.29022445,-122.32697251495009,"2062122100","12-49",,,,,,,
"35C0001025","1598185597","SANFORD HEALTH DICKINSON AMBULATORY SURGERY CENTER","2615 FAIRWAY ST","DICKINSON",ND,"586015521","089",46.88714931578947,-102.82157957894736,"7014566000","12-49","15-01",true,,,"08",,
,"1720127483","FRONT RANGE ORTHOPEDIC SURGERY CENTER LLC","1610 DRY CREEK DR.","LONGMONT",CO,"805036405",,40.13789,-105.1396787,"7204943222","12-49",,,"C466078",,,,
,"1689605826","LAUREL SURGERY & ENDOSCOPY CENTER, LLC","1710 W 12TH ST","LAUREL",MS,"39440",,31.70423,-89.141449,"6013692021","12-49",,,,,,,
"500156","1134218167","WASHINGTON ORTHOPAEDIC CENTER INC PS","1900 COOKS HILL RD","CENTRALIA",WA,"985319073",,46.713661,-122.985777,"3607362889","12-49",,,,"G115000248",,,
,"1386650778","NORTH BEND MEDICAL CENTER INC","1900 WOODLAND DR","COOS BAY",OR,"974202045",,43.38091115,-124.23801661297516,"5412675151","12-49",,,,,,,
,"1407813181","DE DIEGO AMBULATORY CLINIC CORP","150 AVE DE DIEGO","SAN JUAN",PR,"009072300",,18.465299,-66.116666,"7879777575","12-49",,,,"0018031",,,
,"1376558965","SPECIALTY SURGICAL CENTER OF BEVERLY HILLS LP","8670 WILSHIRE BLVD STE 300","BEVERLY HILLS",CA,"902112930",,34.0661138,-118.3806937,"3102751646","12-49",,,,,,,
,"1760568273","WALLA WALLA CLINIC, INC.","55 W TIETAN ST","WALLA WALLA",WA,"993624445",,46.04937324787445,-118.33170732962294,"5095253720","12-49",,,,,,,
,"1780807081","ST. MARK'S MICROSURGICAL CENTER","502 S M ST","TACOMA",WA,"984053728",,47.257728,-122.45607840816326,"2533014953","12-49",,,"A06023",,,,
,"1902864879","SPOKANE SURGERY CENTER LTD PS","1120 N PINES ROAD","SPOKANE VALLEY",WA,"992064942",,47.66735644224626,-117.23959056736176,"5099281990","12-49",,,,,,,
,"1982745568","NORTHWEST SURGERY CENTER INC","123 W FRANCIS AVE","SPOKANE",WA,"992056348",,47.71472305,-117.41351368801449,"5094839363","12-49",,,,"G000302095",,,
,"1083780662","PLASTIC SURGICENTRE, INC.","535 S PINE ST","SPOKANE",WA,"992021347",,47.651196,-117.40980916666666,"5096232160","12-49",,,"69010","G000304216",,,
,"1679656714","LITTLETON DAY SURGERY CENTER LLC","8381 SOUTHPARK LN","LITTLETON",CO,"801204508",,39.56632847810437,-105.00165460523279,"3037952244","12-49",,,,"CA61012",,,
,"1639134505","PUEBLO AMBULATORY SURGERY CENTER LLC","25 MONTEBELLO RD","PUEBLO",CO,"810011236",,38.30570789473684,-104.59971815789474,"7195441600","12-49",,,,"CA61029",,,
,"1477516961","CENTRUM SURGERY CENTER LTD","8200 E BELLEVIEW AVE STE 300","GREENWOOD VILLAGE",CO,"801112884",,39.6234533,-104.8935449,"3032900600","12-49",,,,"CA61034",,,
,"1710940218","DENVER MID-TOWN SURGERY CENTER LTD","1919 E 18TH AVE","DENVER",CO,"802061107",,39.7448844906948,-104.96391008219821,"3033223993","12-49",,,,"CA61035",,,
,"1326045014","GROVE PLACE SURGERY CENTER ,LLC","1325 36TH ST","VERO BEACH",FL,"329606599",,27.658511,-80.39949596644296,"7727783113","12-49",,,,,,,
,"1245534239","WAYNE LARRABEE JR MD","600 BROADWAY","SEATTLE",WA,"981225371",,47.6077763,-122.320471,"2063863550","12-49",,,,,,,
,"1023065919","WESTERN WASHINGTON MEDICAL GROUP INC PS","1728 W MARINE VIEW DR","EVERETT",WA,"982086642",,47.994468,-122.213877,"4252594041","12-49",,,,,,,
,"1437145794","ORTHOPAEDIC & SPINE CENTER OF THE ROCKIES PC","2500 E PROSPECT RD","FORT COLLINS",CO,"805259718",,40.5682372,-105.0316542749975,"9704930112","12-49",,,,"CA61022",,,
,"1952366874","HONOLULU SURGERY CENTER LP","500 ALA MOANA BLVD","HONOLULU",HI,"968134920",,21.3016756,-157.862806,"8085282511","12-49",,,,"H54342",,,
,"1114985611","ALOHA SURGICAL CENTER LLC","239 HOOHANA ST","KAHULUI",HI,"967322452",,20.886614160714288,-156.46311035714285,"8088930578","12-49",,,,,,,
,"1477645711","PROGRESSIVE SURGERY CENTER LLC","340 BROADHOLLOW RD","FARMINGDALE",NY,"117354807",,40.7328811,-73.4458564,"6316940000","12-49",,,,,,,
,"1396700944","WATTS PLASTIC SURGERY ASSOCIATION PC","1051 W SHERMAN AVE","VINELAND",NJ,"083606931",,39.446986878611845,-75.04978255154815,"8566910200","12-49",,,,,,,
,"1376501064","SOUTH CENTRAL SURGICAL CENTER, LLC","717 S STATE ST","FAIRMONT",MN,"560314469",,43.64708926530612,-94.44740430612245,"5072353939","12-49",,,,"490004783",,,
,"1255338000","GUAM SURGICENTER, LLC","633 CAROLS CAMACHO RD","TAMUNING",GU,"969113143",,13.4937451,144.7773816703125,"6716463855","12-49",,,,"54135",,,
,"1649393695","COLUMBIA MD ORTHOPAEDIC ASC LLC","10700 CHARTER DR #301","COLUMBIA",MD,"210443695",,39.211144,-76.882835,"4109102301","12-49",,,,"164Z",,,
,"1629075106","MICHIGAN ENDOSCOPY CENTER LLC","30055 NORTHWESTERN HWY","FARMINGTON HILLS",MI,"483343274",,42.4853125,-83.3771553,"2488656555","12-49",,,,,,,
,"1801890173","NOVAMED SURGERY CENTER OF CHATTANOOGA, LLC","7305 JARNIGAN RD STE 200","CHATTANOOGA",TN,"374214876",,35.03044059321909,-85.16153014923177,"8666317890","12-49",,,,"3288891",,,
,"1811950298","SOUTH HILL AMBULATORY SURGICAL CENTER PS","3707 S GRAND BLVD","SPOKANE",WA,"992032712",,47.62066605250561,-117.40183577300147,"5097470279","12-49",,,,,,,
,"1467637116","INLAND NORTHWEST SURGERY CENTER PLLC","526 N MULLAN RD","SPOKANE VALLEY",WA,"992062407",,47.661827811252806,-117.28135136293868,"5099242600","12-49",,,,"319000308",,,
,"1891759601","PUNAHELE ASSOCIATES, LLC","82 PUUHONU PLACE","HILO",HI,"967202010",,19.7163106,-155.097616,"8089699669","12-49",,,,,,,
,"1952405284","CHILDRENS HEALTH CARE SERVICES INC","6050 CLEARWATER DRIVE","MINNETONKA",MN,"553436600",,44.89405161385964,-93.44076407118892,"9529308600","12-49",,,,,,,
,"1346396082","PARKWAY SURGICAL CENTER LLC","2940 SQUALICUM PKWY","BELLINGHAM",WA,"982251892",,48.77211586833967,-122.47458965794821,"3607330070","12-49",,,,"001400529",,,
,"1881651453","MEDICAL PLAZA ENDOSCOPY UNIT LLC","1125 N PORTER AVE","NORMAN",OK,"730716443",,35.23217645,-97.44018067162604,"4053602799","12-49",,,,"731377191",,,
,"1922005610","WILLIAM G SELF JR MD PC","8403 BRYANT ST","WESTMINSTER",CO,"800313809",,39.849198306122446,-105.01951040816326,"3034264810","12-49",,,,"CA61011",,,
,"1043271604","NORTH FULLERTON SURGERY CENTER, LLC","37 N FULLERTON AVE","MONTCLAIR",NJ,"070423426",,40.8153669,-74.2163344,"9732330433","12-49",,,,,,,
,"1366536880","SOUTHWEST WASHINGTON REGIONAL SURGERY CENTER LLC","200 NE MOTHER JOSEPH PLACE","VANCOUVER",WA,"986643294",,45.6249039,-122.5819033,"3604496300","12-49",,,,,,,
,"1487612024","QUAD CITY AMBULATORY SURGERY CENTER LLC","520 VALLEY VIEW DRIVE","MOLINE",IL,"612656152",,41.472723423486954,-90.53021686830171,"3097621952","12-49",,,,,,,
,"1376556514","EYE CARE SPECIALISTS PS","500 PORT DR","CLARKSTON",WA,"994031835",,46.423073,-117.044357,"5097588811","12-49",,,,"GAB23635",,,
,"1104877976","VICTOR R MICHALAK","295 NE GILMAN BLVD","ISSAQUAH",WA,"980272906",,47.53557087272728,-122.03280316363636,"4253912500","12-49",,,,,,,
,"1073578019","BLUE RIDGE DAY SURGERY CENTER, L.P.","2308 WESVILL CT","RALEIGH",NC,"276072949",,35.8151528,-78.6950962,"9197814311","12-49",,,,"2380456",,,
,"1023036688","BAYSIDE AMBULATORY CENTER, LLC","3641 S MIAMI AVE","MIAMI",FL,"331334204",,25.7413155,-80.2142109,"3058543636","12-49",,,,,,,
,"1912080672","HAWAIIAN EYE CENTER INC","606 KILANI AVE","WAHIAWA",HI,"967861904",,21.49828765015846,-158.02912732412463,"8086218448","12-49",,,"W19788","0000WDCBB",,,
,"1881627578","SUNCOAST ENDOSCOPY OF SARASOTA, LLC","2089 HAWTHORNE ST","SARASOTA",FL,"342392301",,27.318344591836734,-82.52803820408162,"9419521145","12-49",,,,,,,
,"1740228790","CAPITAL SURGERY CENTER LLC","4000 MITCHELLVILLE RD","BOWIE",MD,"20706",,38.94567505,-76.72312339730442,"3015991000","12-49",,,,"A00040",,,
,"1750386322","NOVAMED SURGERY CENTER OF COLORADO SPRINGS, LLC","320 E FONTANERO ST","COLORADO SPRINGS",CO,"809074920",,38.8609618,-104.817292,"7192279711","12-49",,,,"463348",,,
,"1740408293","GLEN A CURDA","2950 NORTHUP WAY","BELLEVUE",WA,"980041406",,47.63698645,-122.19027587546226,"4258938100","12-49",,,,,,,
,"1235466863","AESTHETIC ASSOCIATES INC PS","1101 MADISON ST","SEATTLE",WA,"981043510",,47.6091718,-122.324216,"2066246200","12-49",,,,"GAB04698",,,
,"1174502561","YANKTON MEDICAL CLINIC PC","1104 W 8TH ST","YANKTON",SD,"570783306",,42.87625887755102,-97.41013699999999,"6056657841","12-49",,,,"S43005",,,
,"1053416818","DESERT REGIONAL MEDICAL CENTER, INC.","1180 N INDIAN CANYON DR","PALM SPRINGS",CA,"922624879",,33.83891426693325,-116.54548392977938,"7604164607","12-49",,,,"ZZZ00674Z",,,
,"1457335077","DENVER EYE SURGERY CENTER LLC","13772 DENVER WEST PKWY","LAKEWOOD",CO,"804013139",,39.74418602509281,-105.15599534307755,"3032796600","12-49",,,,"458078",,,
,"1205804697","GOLDSBORO ENDOSCOPY CENTER INC","2705 MEDICAL OFFICE PL","GOLDSBORO",NC,"275349458",,35.40160131865396,-77.95271988300782,"9195809111","12-49",,,,,,,
,"1588765739","NORTHWEST ENDOSCOPY CENTER, LLC","2930 SQUALICUM PKWY","BELLINGHAM",WA,"982251854",,48.77232735806857,-122.47523268337305,"3607341420","12-49",,,"X33561",,,,
,"1013021682","PHOENIX EYE SURGICAL CENTER PLC","5133 N CENTRAL AVE","PHOENIX",AZ,"850121438",,33.51237075,-112.07336135623372,"6022790044","12-49",,,,,,,
,"1013964063","BRISTOL SURGERY CENTER, LLC","350 BLOUNTVILLE HWY","BRISTOL",TN,"376201676",,36.5715432,-82.2540739,"4238446120","12-49",,,,,,,
,"1851371611","TRI-CITY ORTHOPAEDIC CENTER LLC","985 GOETHALS DR","RICHLAND",WA,"993523527",,46.28005132309872,-119.27994358071562,"5099469375","12-49",,,,,,,
,"1316992761","ATLANTIC COASTAL SURGERY CENTER LLC","301 CENTRAL AVE STE A","EGG HARBOR TWP",NJ,"082348347",,39.361867,-74.579459,"6096539000","12-49",,,"032135",,,,
,"1346308954","DAY SURGERY OF GRAND JUNCTION LLC","1000 WELLINGTON AVE","GRAND JUNCTION",CO,"815018180",,39.09051375,-108.55574065943823,"9702455989","12-49",,,,"CA61019",,,
,"1205871050","KLAMATH SURGEONS LLC","2640 BIEHN ST","KLAMATH FALLS",OR,"976011181",,42.24543125623291,-121.7916890795934,"5418845559","12-49",,,"R102828",,,,
,"1871536037","SSM ST JOSEPH ENDOSCOPY CENTER LLC","4203 S CLOVER LEAF","SAINT PETERS",MO,"633766452",,38.791612,-90.5958468,"6364987400","12-49",,,,"000040066",,,
,"1962668319","BOULDER MEDICAL CENTER, PC","2750 BROADWAY ST","BOULDER",CO,"803043573",,40.0178955,-105.2799878,"3034403000","12-49",,,,"CA61015",,,
,"1447254172","SURGICENTER OF BALTIMORE LLC","23 CROSSROADS DRIVE","OWINGS MILLS",MD,"211175476",,39.3981011,-76.7510957,"4103560300","12-49",,,,"ZZ67",,,
,"1811955883","THOUSAND OAKS ENDOSCOPY CENTER LLC","227 W JANSS RD","THOUSAND OAKS",CA,"913601848",,34.206339,-118.883518,"8053710455","12-49",,,,"051328",,,
,"1932275054","SAN VICENTE SURGERY CENTER LLC","11645 WILSHIRE BLVD STE 987","LOS ANGELES",CA,"900256814",,34.0494158,-118.46077001666666,"3102898600","12-49",,,"A92809","G48327",,,
,"1841378056","FULL SPECTRUM EYE CARE PS","475 BRADLEY BLVD","RICHLAND",WA,"993524419",,46.27090222677604,-119.26998559686106,"5099432240","12-49",,,"X11503","GAB29145",,,
,"1386861615","FOOT & ANKLE CENTER OF WENATCHEE, P.S.","616 N CHELAN AVE","WENATCHEE",WA,"988012025",,47.43099692027889,-120.31999908475984,"5096622970","12-49",,,,,,,
,"1679544050","TUSCALOOSA SURGICAL CENTER LP","1400 MCFARLAND BLVD NORTH","TUSCALOOSA",AL,"354062209",,33.2303953,-87.5359679,"2053455500","12-49",,,,"000055045",,,
,"1316946106","CHARLESTON ENDOSCOPY CENTER","1962 CHARLIE HALL BLVD","CHARLESTON",SC,"294145837",,32.8158677541285,-80.04248798532439,"8437228000","12-49",,,"Y03489",,,,
,"1174571970","DCR SURGERY CENTER LLC","245 W ELMWOOD DR","DAYTON",OH,"45459",,39.7589478,-84.1916069,"9373129693","12-49",,,,"3611841",,,
,"1013116938","FOOT SURGERY CENTER OF NORTHERN COLORADO LLC","1355 RIVERSIDE AVE","FORT COLLINS",CO,"805244336",,40.5736039,-105.0508676,"9704844620","12-49",,,,"CA61043",,,
,"1033292214","PIKES PEAK ENDOSCOPY AND SURGERY CENTER, LLC","1699 MEDICAL CENTER PT","COLORADO SPRINGS",CO,"809075700",,38.876056,-104.795446,"7196327101","12-49",,,,,,,
,"1477559839","SURGERY CENTER OF NORTHERN COLORADO","1725 E PROSPECT RD","FORT COLLINS",CO,"805284601",,40.566779600000004,-105.04573037145352,"9702212222","12-49",,,,"CA61042",,,
,"1750386231","DOCTORS SURGERY CENTER INC","4100 JERRY MURPHY RD","PUEBLO",CO,"810011046",,38.318963955791475,-104.59982158059552,"7195456013","12-49",,,,"CA61045",,,
,"1275519373","PROGRESSIVE LASER SURGICAL INSTITUTE LTD","1300 BROADCASTING RD","WYOMISSING",PA,"196103220",,40.3352025,-75.9928172,"6103969999","12-49",,,,"076278",,,
,"1376507780","MIDVALLEY AMBULATORY SURGERY CENTER LLC","1450 E VALLEY RD","BASALT",CO,"816218352",,39.37560512252276,-107.07718537550588,"9705441360","12-49",,,,,,,
,"1689735250","VISION CORRECTION CENTER, LLC","1406 MCFARLAND BLVD N","TUSCALOOSA",AL,"354062209",,33.23264622631199,-87.53759263508266,"2052480095","12-49",,,"Y03750","051554568",,,
,"1174590434","HARMONY SURGERY CENTER, LLC","2127 E HARMONY RD","FORT COLLINS",CO,"805283407",,40.5215861,-105.036182,"9702976350","12-49",,,"A61061",,,,
,"1437319027","FLORENCE SURGERY & LASER CENTER LLC","400 N CASHUA DR","FLORENCE",SC,"295012098",,34.20049268931898,-79.80066148001757,"8436649393","12-49",,,,"Q331270001",,,
"05C0001514","1013980317","LOS ANGELES-INGLEWOOD ENDOSCOPY ASC LP","8110 AIRPORT BLVD","LOS ANGELES",CA,"900453119",,33.96461950602281,-118.38519622789073,"3108464150","12-49",,,,"S051514",,,
"CA61057","1174592844","AUDUBON AMBULATORY SURGERY CENTER LLC","3030 N CIRCLE DR","COLORADO SPRINGS",CO,"809091178",,38.8732735957779,-104.79148466705823,"7198677500","12-49",,,,,,,
,"1194751784","ABERDEEN SURGERY CENTER LLC","650 DITTMER AVENUE","PUEBLO",CO,"810051212",,38.26476053712926,-104.6502538234099,"7195652000","12-49",,,,"CA61053",,,
,"1124093588","UROLOGY SURGERY CENTER OF SAVANNAH, LLLP","230 E DERENNE AVE","SAVANNAH",GA,"31405",,32.024976,-81.0963655,"9127904068","12-49",,,,"111237ASCA",,,
,"1326132291","MADISON STREET SURGERY CENTER LLC","55 MADISON ST","DENVER",CO,"802065420",,39.7175753,-104.9465796,"3033880599","12-49",,,,"490004830",,,
"06C0001054","1942207196","GRAND VALLEY SURGICAL CENTER, LLC","710 WELLINGTON AVE STE 21","GRAND VALLEY",CO,"515016102","077",43.8991217,-80.3152465,"9702987800","12-49","15-01",true,,,"08",,
,"1922090844","NATURAL EYES LASER AND SURGERY CENTER, LLLP","2485 E. PIKES PEAK AVE","COLORADO SPRINGS",CO,"809096004",,38.83255,-104.78444,"7196342001","12-49",,,"X52379",,,,
,"1720042427","NORTH JERSEY CENTER FOR SURGERY PA","39 NEWTON SPARTA ROAD","NEWTON",NJ,"078602773",,41.0582103,-74.7530943,"9733830153","12-49",,,,,,,
,"1104993799","SURGERY CENTER OF FORT COLLINS LLC","1100 E PROSPECT RD","FORT COLLINS",CO,"805255304",,40.567415,-105.05748101575091,"9704944800","12-49",,,,,,,
,"1790842037","SOUTHWEST ENDOSCOPY CENTER LIMITED PARTNERSHIP RLLLP","2 BURNETT CT STE 200","DURANGO",CO,"813013647",,37.2729116,-107.891597,"9702599369","12-49",,,,"A61064",,,
,"1700807617","ENDOSCOPY CENTER OF THE ROCKIES LLC","1000 W SOUTH BOULDER RD","LONGMONT",CO,"805016970",,40.1672117,-105.1019287,"3036045000","12-49",,,,"CA61065",,,
,"1629078043","NOVAMED EYE SURGERY CENTER OF OVERLAND PARK LLC","5520 COLLEGE BLVD","OVERLAND PARK",KS,"662111658",,38.92838385,-94.64988591100786,"9134913040","12-49",,,,"9004013",,,
,"1619971082","KU MEDWEST AMBULATORY SURGERY CENTER, LLC","7405 RENNER RD","SHAWNEE",KS,"662179414",,38.9946,-94.7762,"9135888411","12-49",,,,,,,
,"1275598302","WAUWATOSA SURGERY CENTER, LLC","10900 W POTTER RD","WAUWATOSA",WI,"532263424",,43.0402178,-88.0572008,"4147749227","12-49",,,,"000085989",,,
,"1407812498","LOYOLA AMBULATORY SURGERY CENTER AT OAKBROOK LP","ONE SOUTH 224 SUMMIT AVE.","OAKBROOK TERRACE",IL,"601813943",,41.8500302,-87.9645077,"6309167088","12-49",,,,"141049",,,
,"1699875450","GENEVA WOODS SURGICAL CENTER INC","3730 RHONE CIR","ANCHORAGE",AK,"995085054",,61.18726841344437,-149.8616704933288,"9075624764","12-49",,,,,,,
,"1205821097","ADOBE SURGERY CENTER, PC","2585 N WYATT DR","TUCSON",AZ,"857126104",,32.25427510555445,-110.88214872391275,"5207212728","12-49",,,,,,,
,"1003802950","MINNESOTA EYE INSTITUTE SURGERY CENTER, LLC","3401 S BROADWAY","ALEXANDRIA",MN,"563083477",,45.8835101,-95.3745015,"3207592020","12-49",,,,"C05220",,,
,"1053385856","JACKSON OPHTHALMOLOGY ASC LLC","207 STONEBRIDGE BLVD","JACKSON",TN,"383052040",,35.680497253395345,-88.85356749015418,"7316616340","12-49",,,,"3288377",,,
,"1023015989","TUCSON GASTROENTEROLOGY INSTITUTE, LLC","3040 N. SWAN ROAD","TUCSON",AZ,"857121206",,32.26317036285434,-110.89231966748666,"5203273454","12-49",,,,,,,
,"1750356085","YORK ADAMS PAIN SPECIALISTS PC","250 FAME AVE","HANOVER",PA,"173311587",,39.824660354898924,-76.9696182430153,"7176370943","12-49",,,,"076416",,,
,"1467456442","PROFESSIONAL EYE ASSOCIATES, INC.","1111 PROFESSIONAL BLVD","DALTON",GA,"307202588",,34.792970636424556,-84.98622750442418,"7062262020","12-49",,,,,,,
"36C0001073","1063492437","VALLEY REGIONAL SURGERY CENTER","283 LOONEY DRIVE","PIQUA",OH,"453564147","109",40.1447732,-84.2424449,"9377783848","12-49","15-01",true,,"3610731","05",,
,"1861497380","NORTHEAST NEBRASKA SURGERY CENTER LLC","2701 W NORFOLK AVE","NORFOLK",NE,"687014408",,42.03239,-97.451075,"4026447262","12-49",,,,"098872",,,
,"1750383295","EYE SURGERY CENTER OF SAINT AUGUSTINE INC","1400 US HIGHWAY 1 S","ST AUGUSTINE",FL,"320844211",,29.8946952,-81.3145395,"9048292344","12-49",,,,"F1416",,,
,"1023088473","PANAMA CITY SURGERY CENTER,LLC","1800 JENKS AVE","PANAMA CITY",FL,"324054642",,30.181010399999998,-85.66158382223821,"8507693191","12-49",,,,,,,
"05C0001481","1780689802","PAIN DIAGNOSTIC AND TREATMENT CENTER","2805 J STREET, SUITE 200","SACRAMENTO",CA,"958164307","067",38.573868653061226,-121.46898551020408,"9169999999","12-49","15-01",true,,"ZZZ19013Z","09",,
,"1588743009","VALLEY GASTROENTEROLOGY PS","12401 E SINTO AVE","SPOKANE VALLEY",WA,"992161081",,47.669858969696975,-117.2383251010101,"5099222055","12-49",,,,"GAB13143",,,
,"1477617751","COLUMBIA SURGICAL SPECIALISTS, PS","217 W CATALDO","SPOKANE",WA,"992012217",,47.6665214,-117.382698,"5096242326","12-49",,,,"G14297",,,
,"1003909789","OREGON TRAIL EYE SURGERY CENTER, INC","329 WEST 40TH STREET","SCOTTSBLUFF",NE,"693614634",,41.88651863636363,-103.668027,"3086353911","12-49",,,,,,,
,"1467451096","SOUTH PLACER SURGERY CENTER L P","8 MEDICAL PLAZA DRIVE","ROSEVILLE",CA,"956613107",,38.764380349999996,-121.24509454993682,"9166775070","12-49",,,,,,,
,"1902204654","DENVER SURGICENTER LLC","8155 E 1ST AVE","DENVER",CO,"802307163",,39.722868958904755,-104.89252020249283,"3033444844","12-49",,,,,,,
,"1770605214","ANCHORAGE ENDOSCOPY CENTER LLC","2841 DEBARR RD STE 51","ANCHORAGE",AK,"995082968",,61.209796604838516,-149.8287759967438,"9072223636","12-49",,,,"490004596",,,
,"1063477198","GRANDVIEW SURGERY CENTER LTD","205 GRANDVIEW AVE","CAMP HILL",PA,"170111708",,40.2398118,-76.9199742,"7177315444","12-49",,,,"391030",,,
,"1598700841","SOUTHWEST SURGERY CENTER LLC","19110 DARVIN DRIVE","MOKENA",IL,"604488683",,41.5261437,-87.8892189,"7084788889","12-49",,,,,,,
,"1225070527","LIBERTY CATARACT CENTER LLC","1100 W COLLEGE ST","LIBERTY",MO,"640681119",,39.24639425640548,-94.43700032196651,"8164153003","12-49",,,,"9004216",,,
,"1740260926","STARK AMBULATORY SURGERY CENTER LLC","4360 FULTON DR NW","CANTON",OH,"447182878",,40.7985464,-81.3749508,"3303052020","12-49",,,,,,,
,"1588629604","GREENVILLE SURGERY CENTER LLC","7150 GREENVILLE AVE STE 200","DALLAS",TX,"752315198",,32.87691915,-96.76075446302085,"(214) 891-0466","12-49",,,,"45-1063",,,
,"1427144336","PORTLAND CLINIC","800 SW 13TH AVE","PORTLAND",OR,"972051902",,45.51977455,-122.68539007713744,"5032210161","12-49",,,,"R0000DBBBK",,,
,"1992735286","CASTLEMAN SURGERY CENTER LLC","14050 DIX TOLEDO RD","SOUTHGATE",MI,"481952501",,42.2037103,-83.2067556,"7342810100","12-49",,,,,,,
,"1447285382","EYE SURGICAL CENTER LP","1809 VERDUGO BLVD","GLENDALE",CA,"912081402",,34.20572112438017,-118.21518567231655,"8187907874","12-49",,,"S051094A",,,,
,"1285912600","THE EMORY CLINIC INC","1805 VERNON RD","LAGRANGE",GA,"302403871",,33.0313875,-85.0695742,"7068129902","12-49",,,,,,,
,"1427183664","LAGRECA EYE CLINIC PC","1150 MAIN ST","LANDER",WY,"825202620",,42.83745634444197,-108.74468419378938,"3073325272","12-49",,,,,,,
,"1992708929","NOVAMED MANAGEMENT SERVICES LLC","3200 DOWNWOOD CIR NW","ATLANTA",GA,"303271610",,33.84148845,-84.42683905,"4043511990","12-49",,,"111017ASCB","111017ASCB",,,
,"1841255718","PAOLI SURGERY CENTER LLC","1 INDUSTRIAL BLVD","PAOLI",PA,"193011601",,40.0417847,-75.4838685,"6104080822","12-49",,,,"391053",,,
,"1437191731","EL DORADO SURGERY CENTER LP","1398 N WILMOT RD","TUCSON",AZ,"857125132",,32.239675,-110.857786,"5208774254","12-49",,,,"Z65166",,,
"36C0001117","1427020213","TOLEDO ENDOSCOPY ASC LLC","4841 MONROE ST","TOLEDO",OH,"436234390",,41.69520297368421,-83.63458568421053,"4194743949","12-49",,,,"490004048",,,
,"1962557124","AFFILIATED AMBULATORY SURGERY, PC","182 SOUTH ST","MORRISTOWN",NJ,"079605350",,40.791451,-74.475178,"9732670300","12-49",,,,"311044",,,
,"1871581876","OPHTHALMOLOGY LTD EYE SURGERY CENTER LLC","6601 S. MINNESOTA AVENUE","SIOUX FALLS",SD,"571082563",,43.5366908,-96.7312968,"6053366294","12-49",,,,"S5645",,,
,"1871658658","PARKWEST SURGERY CENTER, LLC","3676 PARKER BLVD","PUEBLO",CO,"810082214",,38.311002794695234,-104.65990900685361,"7192537032","12-49",,,,"C452798",,,
,"1538214689","TRINITY HEALTH","1102 MAIN ST","WILLISTON",ND,"588013807",,48.15453780686676,-103.62289965757216,"7015727711","12-49",,,,,,,
,"1518057546","LONG ISLAND AMBULATORY SURGERY CENTER LLC","601 SUFFOLK AVE","BRENTWOOD",NY,"117174309",,40.78024345,-73.25168919590611,"6312314949","12-49",,,"Z62381",,,,
,"1801869847","AESCULAPIAN SURGERY CENTER, LLC","3333 CATTLEMEN RD","SARASOTA",FL,"342326057",,27.303109642741283,-82.4514541800392,"9413795884","12-49",,,,"F1406",,,
,"1316947609","AMARILLO ENDOSCOPY CENTER, LP","6833 PLUM CREEK DR","AMARILLO",TX,"791241602",,35.2094029,-101.91197720619519,"8064679820","12-49",,,,"ASC132",,,
,"1538125422","BAKERSFIELD PHYSICIANS PLAZA SURGICAL CENTER LP","6000 PHYSICIANS BLVD","BAKERSFIELD",CA,"933015840",,35.39635283666638,-119.00951593310515,"6613224744","12-49",,,,"P00197772",,,
,"1134182546","JACKSONVILLE SURGERY CENTER, LTD","7021 A C SKINNER PKWY","JACKSONVILLE",FL,"322566932",,30.2496965,-81.5780766,"9042810021","12-49",,,,"F1041",,,
,"1336103001","PERKINS PLAZA AMBULATORY SURGERY CENTER LLC","7145 PERKINS RD","BATON ROUGE",LA,"708084322",,30.3986011,-91.11351077995896,"2257653111","12-49",,,,,,,
,"1265538151","SUFFOLK SURGERY CENTER LLC","1500 WILLIAM FLOYD PKWY","SHIRLEY",NY,"119671800",,40.841042,-72.888146,"6312059090","12-49",,,,,,,
,"1952355851","ADVANCED DIAGNOSTIC AND SURGICAL CENTER INC.","1668 S. GARFIELD AVE. #100","ALHAMBRA",CA,"918015474",,34.075334171717174,-118.12287150505051,"6263089000","12-49",,,,"05-C0001618",,,
,"1164414447","EAST VALLEY ENDOSCOPY LLC","6020 E ARBOR AVE","MESA",AZ,"852066102",,33.41418975,-111.70140460607126,"4808302005","12-49",,,,,,,
,"1124098512","WESMARK AMBULATORY SURGERY CENTER","420 W WESMARK BLVD","SUMTER",SC,"291501983",,33.95099123315082,-80.39156919897964,"8039055590","12-49",,,,,,,
,"1093772840","THE SURGERY CENTER AT JENSEN BEACH, LLC","3995 NW GOLDEN ROD ROAD","JENSEN BEACH",FL,"349573699",,27.22089615,-80.25567726584178,"7724970020","12-49",,,,"F1418",,,
,"1881658524","CUMBERLAND VALLEY SURGERY CENTER","1110 PROFESSIONAL COURT","HAGERSTOWN",MD,"217405944",,39.636075953020836,-77.69204726672066,"2404205559","12-49",,,,,,,
"44C0001044","1073593109","MARYVILLE ASC","1706 E LAMAR ALEXANDER PKWY","MARYVILLE",TN,"378046204",,35.75523530350813,-83.94786491390624,"8659830073","12-49",,,,"3287662",,,
,"1184784209","AMERICAN SURGICAL CENTERS II LLC","7091 ORCHARD LAKE RD.","WEST BLOOMFIELD",MI,"483223651",,42.591539,-83.351684,"2485387095","12-49",,,,"ON34710",,,
,"1508835299","ALASKA DIGESTIVE CENTER LLC","4048 LAUREL ST","ANCHORAGE",AK,"995085389",,61.18400137766764,-149.83464038229118,"9075631750","12-49",,,,"153005",,,
,"1528261195","ORCHARD CREEK SURGERY CENTER","525 SOUTH DR STE 115","MOUNTAIN VIEW",CA,"940404211",,37.3668202,-122.0846571,"6509695600","12-49",,,"F80568","ZZZ27488Z",,,
,"1073545299","OREGON OUTPATIENT SURGERY CENTER LLC","7300 SW CHILDS ROAD","TIGARD",OR,"972247772",,45.4307473,-122.771933,"5036128452","12-49",,,"Y06258",,,,
,"1952312399","ZITELLI & BRODLAND PC","575 COAL VALLEY ROAD","PITTSBURGH",PA,"152321312",,40.4416941,-79.9900861,"4124669400","12-49",,,,"391063",,,
,"1497740617","LAKE COUNTY PAIN & DIAGNOSTIC","8401 MENTOR AVE","MENTOR",OH,"440605843",,41.66560984693878,-81.34294314285714,"4402059119","12-49",,,,,,,
,"1750362869","EYE HEALTH EASTSIDE SURGERY CENTER","12050 SE STEVENS RD","HAPPY VALLEY",OR,"970867667",,45.4354441,-122.54799257173515,"9712066100","12-49",,,,"R118263",,,
,"1144216847","RIVER PARK ASC LLC","107 FRONT ST","VIDALIA",LA,"713732834",,31.5640889,-91.4215656,"3183362218","12-49",,,,,,,
,"1619998648","PAIN CARE CENTER BOISE, LLC","301 W MYRTLE ST","BOISE",ID,"837027656",,43.609545,-116.20094600806124,"2083428200","12-49",,,,"1870556",,,
"24C0001032","1437123270","MCCANNEL EYE SURGERY","3124 WEST 70TH STREET","EDINA",MN,"554354227","053",44.87669635,-93.32008760915139,"6128488338","12-49","15-01",true,,"490000044","05",,
,"1497724942","PARK VENTURA ENDOSCOPY CENTER LLC","3500 PRESTON RD STE 200","PLANO",TX,"750938644",,33.044617,-96.794201,"9729852300","12-49",,,,"P00058802",,,
,"1104880723","WNC EYE SURGERY CENTERS INC","8B MEDICAL PARK DR","ASHEVILLE",NC,"288032493",,35.5534217,-82.5217398,"8282102020","12-49",,,,,,,
,"1891784955","PLATTSBURGH ASC LLC","450 MARGARET ST","PLATTSBURGH",NY,"129011755",,44.7161971,-73.4435339,"5185613144","12-49",,,,,,,
,"1437320017","OREGON EYE SURGERY CENTER INC","1550 OAK ST","EUGENE",OR,"974017704",,44.04276281632653,-123.091321,"5416838771","12-49",,,,"0000DBBBQ",,,
,"1205892197","ALASKA SURGERY CENTER LIMITED PARTNERSHIP","1230 NORTHWAY DR","ANCHORAGE",AK,"995082031",,61.2127118,-149.8121135,"9075506100","12-49",,,,"0000DBBBF",,,
,"1730252487","J C PITTS ENTERPRISES INC","251 SW 19TH STREET","ONTARIO",OR,"979141972",,44.02583829874208,-116.99253260221862,"5418893198","12-49",,,,"0000DBCBL",,,
,"1689674285","CENTRAL OHIO SURGICAL INSTITUTE LLC","6520 W CAMPUS OVAL","NEW ALBANY",OH,"430548726",,40.09947596081123,-82.81991262812268,"6144132233","12-49",,,,,,,
"45C0001178","1487628301","SAN ANTONIO TX ENDOSCOPY ASC LP","520 E EUCLID AVE","SAN ANTONIO",TX,"782584099",,29.43944465,-98.4893409360609,"2102710606","12-49",,,,"ASC327",,,
,"1376614826","GAINESVILLE FOOT AND ANKLE SURGERY CENTER PC","1975 BEVERLY RD","GAINESVILLE",GA,"305012034",,34.32083259133007,-83.80335071172424,"7705364702","12-49",,,"Y06541",,,,
,"1154360501","GULF SOUTH SURGERY CENTER LLC","1206 31ST AVE","GULFPORT",MS,"395011804",,30.36615151020408,-89.09885373469389,"2288640008","12-49",,,,,,,
,"1720161771","EYE CARE SURGERY CENTER OF OLIVE BRANCH,LLC","6947 CRUMPLER BLVD","OLIVE BRANCH",MS,"386541922",,34.96111245,-89.85975821395677,"6628933305","12-49",,,,,,,
"07C0001004","1265405203","BLOOMFIELD EYE SURGERY CENTER LLC","4 NORTHWESTERN DR","BLOOMFIELD",CT,"060023444",,41.826488,-72.7300945,"8602438440","12-49",,,,"490000224",,,
,"1447218433","LIBERTY EYE SURGICAL CENTER LLC","9122 BLUE GRASS RD","PHILADELPHIA",PA,"191143202",,40.07215522222222,-75.02954987301587,"2156739231","12-49",,,,,,,
,"1063419513","ENDOSCOPY CENTER OF WESTERN NEW YORK, LLC","60 MAPLE RD","WILLIAMSVILLE",NY,"142212917",,42.9911236,-78.7343949,"7163321000","12-49",,,,,,,
,"1437250248","GEORGIA SURGICAL CENTER ON PEACHTREE LLC","2061 PEACHTREE RD NE","ATLANTA",GA,"30309",,33.80935287755102,-84.39232028571428,"4043523522","12-49",,,"X42893",,,,
,"1649208679","AKRON SURGICAL ASSOCIATES, LLC","4127 MEDINA RD","AKRON",OH,"443332490",,41.083064,-81.518485,"3306658120","12-49",,,,"3611671",,,
,"1922148733","SOUTH RIVER AMBULATORY SURGERY","3168 BRAVERTON ST","EDGEWATER",MD,"210372680",,38.931962049999996,-76.56672301067442,"4109567777","12-49",,,,"1654Z",,,
,"1538168471","ATLANTA CENTER FOR RECONSTRUCTIVE FOOT & ANKLE SURGERY, LLC","218 SANDY SPRINGS PL NE","SANDY SPRINGS",GA,"303283812",,33.92043135,-84.3799172,"4042570611","12-49",,,,,,,
,"1073505616","THIBODAUX LASER AND SURGERY CENTER, LLC","1101 AUDUBON AVE","THIBODAUX",LA,"703014957",,29.784405,-90.807094,"9854477246","12-49",,,,"11059",,,
,"1518957729","NORTHWEST MICHIGAN SURGERY CENTER LLC","4100 PARK FOREST DRIVE","TRAVERSE CITY",MI,"496847331",,44.7606441,-85.6165301,"2313928900","12-49",,,"00953","0N88430",,,
,"1346403854","THE EMORY CLINIC INC","21 ORTHO LN","ATLANTA",GA,"303292315",,33.7489924,-84.3902644,"4047785294","12-49",,,,,,,
,"1043297872","CENTRAL JERSEY AMBULATORY SURGICAL CENTER, LLC","511 COURTYARD DR","HILLSBOROUGH",NJ,"088444255",,40.54955144931637,-74.61247343404861,"9088950001","12-49",,,,"058186",,,
,"1306924170","DELMAR SURGICAL CENTER LLC","103 CHESAPEAKE BLVD STE C","ELKTON",MD,"219216391",,39.6036879,-75.7875103,"4103926133","12-49",,,,,,,
,"1629041157","WESTLAKE OPHTHALMOLOGY ASC LP","2900 TOWNSGATE RD","WESTLAKE VILLAGE",CA,"913613001",,34.151832269291646,-118.82210132259291,"8054966789","12-49",,,,"S551006A",,,
,"1922093293","LEWIS & CLARK ORTHOPAEDIC INSTITUTE LLC","318 WARNER DR","LEWISTON",ID,"835014441",,46.383005612244894,-117.01465063265307,"2082981050","12-49",,,,"P00134736",,,
,"1093716037","CATARACT AND REFRACTIVE SURGERY CENTER, LLC","2010 BREMO ROAD","RICHMOND",VA,"232262444",,37.5385087,-77.43428,"8042850680","12-49",,,,"490000018",,,
"03C0001021","1578535233","EYE INSTITUTE AT BOSWELL, THE","10541 WEST THUNDERBIRD BOULEVARD","SUN CITY",AZ,"853513006","013",33.60489924606647,-112.28578545548164,"6239333402","12-49","15-01",true,,"Z23095","09",,
,"1265401202","NORTHWEST ORTHOPAEDIC SPECIALISTS PS","601 W 5TH AVE","SPOKANE",WA,"992042756",,47.651335,-117.421181,"5093442663","12-49",,,,"P00117946",,,
"46C0001035","1457325573","ST GEORGE ENDOSCOPY CENTER","368 RIVERSIDE DRIVE, SUITE B","ST GEORGE",UT,"847906898","053",37.0869522,-113.5684475,"4356743109","12-49","15-01",true,,"P00052658","08",,
,"1750358453","CENTER FOR DIGESTIVE HEALTH LTD","2801 W KINNICKINNIC RIVER PKWY STE 1030","MILWAUKEE",WI,"532155211",,42.990712,-87.956974,"4149086000","12-49",,,,,,,
,"1821106923","ENDOSCOPY CENTER OF COASTAL GEORGIA, LLC","519 STEPHENSON AVE","SAVANNAH",GA,"31405",,34.09081046678473,-84.56967998319188,"9123549447","12-49",,,,"111200ASCA",,,
,"1326004110","GROSSMONT SURGERY CENTER LP","8881 FLETCHER PKWY","LA MESA",CA,"919423128",,32.783918,-117.0070800424001,"6196980930","12-49",,,,"S051090A",,,
,"1730169657","LEO R. MCCAFFERTY, M.D., SURGICAL CENTER","580 S AIKEN AVE","PITTSBURGH",PA,"152321531",,40.4534039,-79.93768935459926,"4126872100","12-49",,,"D20837","168289",,,
,"1346235058","EAST MEQUON SURGERY CENTER LLC","12203 CORPORATE PKWY","MEQUON",WI,"530923388",,43.23977018293444,-87.92263085460868,"2623878383","12-49",,,,,,,
,"1124084843","ST CLOUD OUTPATIENT SURGERY LTD","1526 NORTHWAY DR","SAINT CLOUD",MN,"563031255",,45.57731818426504,-94.18266056265405,"3202518385","12-49",,,,"490000075",,,
,"1174520191","AESTHETIC SURGERY CENTER OF EUGENE INC","2550 WILLAKENZIE RD","EUGENE",OR,"974017865",,44.08046991493726,-123.07176475153837,"5414340922","12-49",,,,,,,
,"1124135918","EASTSIDE SURGERY CENTER INC","10918 EAST FWY","HOUSTON",TX,"770291912",,29.7728593,-95.2367829,"7134514299","12-49",,,,"451192",,,
,"1447293113","WESTERN AMBULATORY SURGERY LLC","1421 WILKINS CIR","CASPER",WY,"826011337",,42.86516046111118,-106.3413797620177,"3072372511","12-49",,,,"308561",,,
,"1508804451","MBC AMBULATORY SURGERY CENTER, LP","18850 S MEMORIAL DR","HUMBLE",TX,"773384288",,29.992720655172416,-95.27633862068966,"7132752457","12-49",,,,"ASC072",,,
,"1730191651","CHEYENNE SURGICAL CENTER LLC","2301 HOUSE AVE SUITE 200","CHEYENNE",WY,"820013177",,41.1405788,-104.815424,"3076338121","12-49",,,,,,,
"31C0001099","1366449571","SHORE OUTPATIENT SURGICENTER, LLC","360 ROUTE 70","LAKEWOOD",NJ,"087015823","029",40.051776,-74.18798,"7329429835","12-49","15-01",true,,"300832","02",,
,"1699711382","TOWSON SURGICAL CENTER, LLC","1122 KENILWORTH DRIVE","TOWSON",MD,"212042151",,39.41418375,-76.62879890520131,"4103370022","12-49",,,,,,,
,"1841396850","PHYSICIANS HEALTHCARE PARTNERS, INC","1101 LAS TABLAS RD STE K","TEMPLETON",CA,"934655604",,35.55390345,-120.71850711009782,"8054342009","12-49",,,,,,,
,"1417051533","OAK TREE ASC LLC","751 CORDOVA ST","PASADENA",CA,"911012617",,34.142634,-118.135037,"6265772525","12-49",,,,,,,
,"1841290103","CENTRAL FLORIDA EYE INSTITUTE PL","3133 SW 32ND AVE","OCALA",FL,"344744446",,29.155856646960707,-82.17423781120247,"3522378400","12-49",,,,,,,
"10C0001334","1083689749","ORTHOPAEDIC SURGERY CENTER","4600 NEWBERRY RD","GAINESVILLE",FL,"326072247","001",29.656812,-82.392659,"3523672310","12-49","15-01",true,,"F1334","04",,
,"1457324857","NEWPORT COAST SURGERY CENTER LP","1441 AVOCADO AVE","NEWPORT BEACH",CA,"926607702",,33.6135996,-117.8695288,"9497183600","12-49",,,,,,,
,"1245239656","SURGERY CENTER OF GILBERT, LLC","6003 E BASELINE RD","MESA",AZ,"852064815",,33.379212,-111.7564635,"4806416500","12-49",,,,"Z71724",,,
,"1336131143","PHOENIX ORTHOPAEDIC AMBULATORY CENTER LLC","690 N COFCO CENTER CT","PHOENIX",AZ,"850086469",,33.456510563758386,-111.98963688590604,"6022884441","12-49",,,,"72598",,,
,"1386748440","COAST CENTER FOR ORTHOPEDIC AND ARTHROSCOPIC SURGERY LLC","3444 KEARNY VILLA RD STE 100","SAN DIEGO",CA,"921231960",,32.805642,-117.150375,"8582683566","12-49",,,,"S051414B",,,
"19C0001053","1548233794","METAIRIE OPHTHALMOLOGY ASC LLC","3900 VETERANS MEMORIAL BLVD","METAIRIE",LA,"700025634",,30.0037063,-90.1717827,"5044551550","12-49",,,,"11053",,,
,"1477508463","CAPE CATARACT CENTER PC","804 S ROUTE 9","CAPE MAY COURT HOUSE",NJ,"082102358",,39.076460499999996,-74.81290516148485,"6094631525","12-49",,,,,,,
,"1720085657","BAYSIDE ENDOSCOPY CENTER LLC","33 STANIFORD ST","PROVIDENCE",RI,"029053105",,41.80899673333333,-71.4118734,"4012741810","12-49",,,,,,,
,"1376536482","BEND SURGERY CENTER LLC","1303 NE CUSHING DR","BEND",OR,"977013887",,44.0637478,-121.26533,"5413180858","12-49",,,,"100824",,,
,"1750352324","SUNRISE AMBULATORY SURGICAL CENTER LLC","5448 WHITE MOUNTAIN BLVD STE 100","LAKESIDE",AZ,"859295736",,34.19062785,-110.01621567491188,"9285323010","12-49",,,,,,,
,"1942264619","METROPOLITAN MEDICAL PARTNERS LLC","5530 WISCONSIN AVE","CHEVY CHASE",VA,"208154322",,38.985057,-77.063903,"3017189800","12-49",,,,,,,
,"1528021573","SUMMIT SURGERY CENTER, L.P.","3901 CENTRAL PIKE","HERMITAGE",TN,"370763420",,36.173591,-86.601972,"6153917200","12-49",,,,"3288919",,,
,"1912909144","THE UROLOGY CENTER, PC","111 1/2 S 90TH ST","OMAHA",NE,"681143907",,41.234302,-96.0526745,"4023977178","12-49",,,,,,,
,"1134140122","ARTHROSCOPIC SURGERY CENTER LLC","277 ALTENHOFEN DR","APPLETON",WI,"549138401",,44.2613967,-88.4069744,"9209931643","12-49",,,,,,,
,"1831224922","ANGELINA THERESA BUCCI EYE SURGERY CENTER","158 WILKES BARRE TOWNSHIP BLVD","WILKES BARRE",PA,"187026704",,41.2407988,-75.8623677,"5709701414","12-49",,,"X62276",,,,
,"1881695732","REVISION ADVANCED SURGERY CENTER INC","240 W COOK RD","MANSFIELD",OH,"449072451",,40.733035,-82.524514,"4195253737","12-49",,,"E42387",,,,
,"1649233180","WEST PARK SURGERY CENTER LP","4510 MEDICAL CENTER DR","MCKINNEY",TX,"750690144",,33.1599581,-96.6353951,"9725471580","12-49",,,,"ASC206",,,
,"1780789024","LINDEN SURGICAL CENTER, LLC","210 W SAINT GEORGES AVE STE 101","LINDEN",NJ,"070363900",,40.63478357142857,-74.26672836734694,"9085871888","12-49",,,,,,,
,"1700838190","WALNUT HILL SURGERY CENTER LLC","5494 GLEN LAKES DR","DALLAS",TX,"752314308",,32.88313975,-96.76568348917556,"2146926220","12-49",,,,"ASC205",,,
"39C0001168","1710091517","HERSHEY OUTPATIENT SURGERY CENTER","15 HOPE DRIVE","HERSHEY",PA,"170332086","043",40.270613100000006,-76.65900517099908,"7175208200","12-49","15-01",true,,"079180","03",,
,"1033115472","CAPLAN-BERKELEY, LLP","3100 WESLAYAN ST","KATY",TX,"774492512",,29.7857853,-95.8243956,"7135261600","12-49",,,,,,,
,"1205963568","BRYN MAWR MEDICAL SPECIALISTS ASSOCIATION","825 OLD LANCASTER RD STE 330","BRYN MAWR",PA,"190103235",,40.0238245,-75.31734069085473,"6105273800","12-49",,,,"071179",,,
,"1629063151","INSTITUTO DE GASTROENTEROLOGIA DE PR","400 AVE FD ROOSEVELT","SAN JUAN",PR,"009182129",,18.465299,-66.116666,"7877648787","12-49",,,"W55137",,,,
"Q33571001","1881645810","ANMED ENTERPRISES INC - UPSTATE ENDOSCOPY CENTER INC LLC","1922B MCCONNELL SPRINGS RD","ANDERSON",SC,"296212642",,34.538894,-82.628218,"8647166555","12-49",,,,"Q33571001",,,
,"1053412189","MILAN S CHAKRABARTY MD","1003 E FLORIDA AVE","HEMET",CA,"925434510",,33.7438625,-117.032031,"9516522252","12-49",,,,,,,
,"1194790592","UPMC HAMOT SURGERY CENTER LLC","200 STATE ST","ERIE",PA,"165071420",,42.13267715,-80.08849997765779,"8144533900","12-49",,,,,,,
,"1548250335","DIGESTIVE HEALTH PARTNERS PA","191 BILTMORE AVE","ASHEVILLE",NC,"288014109",,35.58762209119583,-82.55183991194149,"8282540881","12-49",,,,"2380346",,,
,"1174615702","I CARE CENTER LLC","9002 N MERIDIAN ST","INDIANAPOLIS",IN,"462605381",,39.9191688,-86.1598919,"3178481763","12-49",,,"ZJ0580",,,,
,"1619013455","RUSH SURGICENTER AT THE PROFESSIONAL BUILDING LTD. PARTNERSHIP","1725 W HARRISON ST","CHICAGO",IL,"606122846",,41.87339795,-87.67013764433483,"3125632880","12-49",,,,,,,
"15C0001078","1841270675","EYECARE CONSULTANTS SURGERY CENTER","101 NW FIRST ST STE 104","EVANSVILLE",IN,"477081220","163",37.9747645,-87.5558483,"8124352372","12-49","15-01",true,,"ZE0130","05",,
,"1396812491","VALLEY ENDOSCOPY CENTER, INC","68377 STEWART DR STE 202","ST CLAIRSVILLE",OH,"439501712",,40.0806266,-80.9000916,"7406992747","12-49",,,,"3611722",,,
,"1679535587","CARIBBEAN SURGY CENTER, INC","8024 CALLE CONCORDIA","PONCE",PR,"007171510",,18.004879307692306,-66.61439803846153,"7878122218","12-49",,,,,,,
,"1770513855","CAPITAL ENDOSCOPY LLC","6475 NEW HAMPSHIRE AVE","HYATTSVILLE",MD,"207833269",,38.96753245,-77.00058402228335,"3012700022","12-49",,,,,,,
,"1508847690","PLASTIC SURGICAL CENTER OF MISSISSIPPI","2550 FLOWOOD DR STE 101","FLOWOOD",MS,"392329304",,32.32265126749723,-90.11141920640489,"6019395544","12-49",,,,,,,
,"1629079611","NEWCO AMBULATORY SURGERY CENTER, LLP","4190 24TH AVE","FORT GRATIOT",MI,"480593882",,43.029455999999996,-82.45604689024391,"8109897649","12-49",,,,,,,
,"1861444838","LAS CRUCES SURGERY CENTER LP","4351 E LOHMAN AVE","LAS CRUCES",NM,"880118258",,32.32464455,-106.72757412101109,"5055323300","12-49",,,,,,,
,"1346469731","AKDHC SURGERY CENTER, LLC","3333 E CAMELBACK RD STE 180","PHOENIX",AZ,"850122319",,33.5095387,-112.00894473831022,"6029971098","12-49",,,,,,,
,"1659335438","RESTON SURGERY CENTER LP","1860 TOWN CENTER DR","RESTON",VA,"201905897",,38.961681999999996,-77.36633425,"7036393100","12-49",,,,"49C0001033",,,
,"1497746747","PHYSICIANS SURGERY CENTER OF VICTORVILLE LLC","12567 HESPERIA ROAD","VICTORVILLE",CA,"923955847",,34.47944765573364,-117.29080657772091,"7602417754","12-49",,,,,,,
"42C0001057","1316910086","ENDOSCOPY CENTER OF THE UPSTATE","14 HAWTHORNE PARK COURT","GREENVILLE",SC,"296153194","045",34.86449497780972,-82.33323505651822,"8643310364","12-49","15-01",true,,"P00155580","04",,
,"1740241595","CENTER FOR DERMATOLOGIC SURGERY","123 WESTERN HILLS BLVD","CHEYENNE",WY,"820093446",,41.139981,-104.820246,"3076350226","12-49",,,,,,,
,"1750386256","PALOUSE SURGERY CENTER, LLC","2300 W A ST","MOSCOW",ID,"838434038",,46.735771,-117.033588,"2088831500","12-49",,,,,,,
,"1821166521","PHYSICIANS SURGERY CENTER LLC","1800 HIGHWAY 95","BULLHEAD CITY",AZ,"864426803",,35.1477774,-114.568298,"9287638443","12-49",,,,,,,
,"1316942048","ALASKA SPINE INSTITUTE SURGERY CENTER LLC","3801 LAKE OTIS PKWY STE 100","ANCHORAGE",AK,"995085234",,61.185965,-149.838051,"9075631555","12-49",,,,"K153125",,,
,"1477502979","INLAND EAR NOSE AND THROAT A MEDICAL GROUP INC","1030 E FOOTHILL BLVD","UPLAND",CA,"917864069",,34.1066263,-117.637676,"9099815859","12-49",,,"ZZZ 387 12 Z",,,,
,"1164458634","SAINT FRANCIS SURGERY CENTER, LLC","5999 PARK AVE","MEMPHIS",TN,"381195200",,35.09989514893301,-89.86115394212013,"9018181080","12-49",,,,"3288937",,,
,"1396828323","EYE CARE SURGERY CENTER OF MEMPHIS, LLC","5350 POPLAR AVE","MEMPHIS",TN,"381193699",,35.107308571428575,-89.88321728571428,"9014738115","12-49",,,,,,,
,"1962513788","SURGERY CENTER OF DECATUR LP","1122 14TH AVENUE SE","DECATUR",AL,"356013361",,34.59070060468472,-86.96996850590591,"2565602890","12-49",,,,,,,
,"1447320213","FREEHOLD ENDOSCOPY ASSOCIATES, LLC","222 SCHANCK ROAD","FREEHOLD",NJ,"077282974",,40.23779647127788,-74.28694053000117,"7328450990","12-49",,,,,,,
"26C0001080","1962405803","MID RIVERS SURGERY CENTER","5401 VETERANS MEMORIAL PARKWAY, SUITE 100","ST PETERS",MO,"633761681","183",38.7968916,-90.5950192,"6364410906","12-49","15-01",true,,"000040068","07",,
,"1255390670","CARROLL COUNTY EYE SURGERY CENTER, LLC","410 MALCOLM DR","WESTMINSTER",MD,"211576160",,39.56300484736501,-76.978128420133,"4108713438","12-49",,,,,,,
,"1982667499","CLEAR LAKE SURGICARE, LTD","502 MEDICAL CENTER BLVD","WEBSTER",TX,"775984220",,29.5368861,-95.1322627,"2813322433","12-49",,,,"451012",,,
,"1407829732","COURT ENDOSCOPY CENTER OF FREDERICK INC","85 THOMAS JOHNSON CT","FREDERICK",MD,"217024331",,39.44864557656442,-77.40320409453987,"3016681600","12-49",,,,,,,
,"1386657047","THEDA OAKS GASTROENTEROLOGY & ENDOSCOPY CENTER, LLC","19226 STONEHUE STE 103","SAN ANTONIO",TX,"782583480",,29.62891807461684,-98.49470579118795,"2102680100","12-49",,,,"ASC208",,,
,"1699743393","YORK ENDOSCOPY CENTER L.P.","2690 SOUTHFIELD DR","YORK",PA,"174034510",,39.9116416,-76.70886943727871,"7177411590","12-49",,,,,,,
,"1528061918","CATARACT SPECIALTY SURGICAL CENTER LLC","28747 WOODWARD AVE","BERKLEY",MI,"480720931",,42.50050410204082,-83.16973363265306,"2485844602","12-49",,,,"0N84210",,,
,"1962504803","HIGHLAND PARK PLASTIC SURGERY CENTER LLC","6110 SHERRY LN","DALLAS",TX,"752256301",,32.862079344827585,-96.8062335862069,"2143634444","12-49",,,,,,,
,"1477558641","UPPER ARLINGTON SURGERY CENTER LTD","2240 N BANK DR","COLUMBUS",OH,"432205420",,39.9622601,-83.0007065,"6145665080","12-49",,,,,,,
,"1821066515","MARION HEALTHCARE LLC","3003 CIVIC CIRCLE BLVD","MARION",IL,"629595259",,37.7459555,-88.98006459999999,"6189931112","12-49",,,,,,,
"22C0001045","1073682159","CENTRAL MASSACHUSETTS AMBULATORY ENDOSCOPY CENTER","105 ERDMAN WAY","LEOMINSTER",MA,"014531805","027",42.54685255,-71.75737313871981,"9785377552","12-49","15-01",true,,"221045","01",,
,"1508862996","PLASTIC SURGERY CENTER OF ST JOSEPH INC","2111 N WOODBINE RD","ST JOSEPH",MO,"645062440",,39.785327448979594,-94.79664059183673,"8163646416","12-49",,,,,,,
,"1578638425","KAISER FOUNDATION HEALTH PLAN OF THE MID ATLANTIC STATES,INC","10810 CONNECTICUT AVE","KENSINGTON",MD,"208952138",,39.03294675,-77.0758796566754,"3019297275","12-49",,,,"306728",,,
,"1831249341","ENDOSCOPY CENTER OF THE MID-SOUTH, LLC","3960 KNIGHT ARNOLD RD","MEMPHIS",TN,"381183035",,35.06493909788057,-89.93110505375829,"9013698509","12-49",,,,"3288955",,,
,"1508822685","BRADENTON SURGERY CENTER INC","2902 59TH ST W","BRADENTON",FL,"342097023",,27.4752115,-82.620366,"9417929685","12-49",,,,,,,
,"1760447866","MOBILE - SC, LTD","6144 AIRPORT BLVD STE A","MOBILE",AL,"366083143",,30.6782467,-88.18417897496603,"2514383614","12-49",,,,"000055034",,,
"3029R1","1669644837","UPTOWN HEALTHCARE MANAGEMENT INC.","930 E TREMONT AVE","BRONX",NY,"104604363",,40.84134425,-73.88353008551829,"7187641633","12-49",,,,,,,
,"1215939186","ALL CITY FAMILY HEALTHCARE CENTER INC.","3632 NOSTRAND AVE","BROOKLYN",NY,"112295305",,40.5951754,-73.94123264467783,"7183324409","12-49",,,,,,,
,"1508934373","CENTERS FOR PAIN SOLUTIONS,LLC","280 MAIN STREET","NASHUA",NH,"030602921",,42.75489495,-71.46203125,"6035773003","12-49",,,,,,,
,"1376592204","PALMETTO ENDOSCOPY CENTER LLC","2073 CHARLIE HALL BLVD","CHARLESTON",SC,"294145834",,32.8154442184854,-80.04363959170459,"8435710643","12-49",,,"Y13983",,,,
"10C0001300","1457323107","BOCA RATON OPHTHALMOLOGY ASC LLC","950 NW 13TH ST","BOCA RATON",FL,"334862310",,26.360977,-80.10487345634921,"5613917642","12-49",,,,"F1300",,,
,"1386646891","TEMPLE UNIVERSITY OF THE COMMONWEALTH SYSTEM OF HIGHER EDUCATION","8TH AT RACE STREET","PHILADELPHIA",PA,"191072496",,39.9527237,-75.1635262,"2156255381","12-49",,,,,,,
,"1508986621","ASHLAND SURGERY CENTER","658 N MAIN STREET","ASHLAND",OR,"975201710",,42.2079239,-122.721165,"5414825518","12-49",,,,"R119981",,,
,"1902899289","LEWISBURG PLASTIC SURGERY AND LASER CENTER","135 WALTER DR","LEWISBURG",PA,"178377482",,40.9645337,-76.8847639,"5705247777","12-49",,,"081112",,,,
"34C0001039","1487629044","RALEIGH ENDOSCOPY CENTER, INC","2417 ATRIUM DRIVE STE 101","RALEIGH",NC,"276076673","183",35.8138973,-78.7082835,"9197912060","12-49","15-01",true,,"2783156","04",,
,"1710081443","VENTURA ENDOSCOPY CENTER LLC","5810 RALSTON STREET","VENTURA",CA,"930036010",,34.26080332676369,-119.21260691615261,"8056505500","12-49",,,,"S051656",,,
,"1710942370","SCOTTSDALE ENDOSCOPY CENTER PLC","9787 N 91ST ST","SCOTTSDALE",AZ,"852585088",,33.57465354012001,-111.88287147982358,"4806570889","12-49",,,,"Z69160",,,
,"1144283649","SKY RIDGE SURGERY CENTER LP","10099 RIDGEGATE PKWY","LONE TREE",CO,"801245532",,39.528967,-104.873642,"7202255000","12-49",,,,"C542558",,,
,"1114929957","OPHTHALMIC OUTPATIENT SURGERY CENTER PARTNERS, LLC","550 CONNELLS PARK LN","BATON ROUGE",LA,"708066539",,30.44339983814625,-91.09583372419237,"2259238250","12-49",,,,"19-C0001043",,,
,"1669426706","ADVANCED SURGERY CENTER LLC","10110 MOLECULAR DRIVE","ROCKVILLE",MD,"208507538",,39.09201765,-77.2101065,"3018380437","12-49",,,,,,,
"44C0001131","1649244211","THE REGIONAL EYE SURGERY CENTER","999 EXECUTIVE PARK BLVD","KINGSPORT",TN,"376604639","163",36.543577,-82.51259,"4232472022","12-49","15-01",true,,"3288818","04",,
,"1073621579","SHORELINE ENDOSCOPY CENTER LLC","800 BOSTON POST RD BLDG 1","GUILFORD",CT,"064372770",,41.2889866,-72.6817616,"2034537100","12-49",,,,,,,
,"1184627978","NOVAMED SURGERY CENTER OF ORLANDO LLC","801 N ORANGE AVE","ORLANDO",FL,"328015202",,28.555097,-81.37911,"8666317890","12-49",,,,"F1288",,,
,"1457370447","ORTHOPEDIC ASSOCIATES SURGERY CENTER LLC","1111 CROMWELL AVE","ROCKY HILL",CT,"06067",,41.6395785,-72.6790653,"8605290295","12-49",,,,,,,
,"1518967082","NOVAMED SURGERY CENTER OF OAK LAWN, LLC","6309 W 95TH ST","OAK LAWN",IL,"604532201",,41.71954237769736,-87.7778314784889,"7084993355","12-49",,,,"209471",,,
,"1235106782","VALLEY SURGERY CENTER AT MODESTO LLC","1300 MABLE AVE","MODESTO",CA,"953551120",,37.696029,-120.975998,"2095711633","12-49",,,,,,,
,"1366456618","SKYWAY SURGERY CENTER. LLC","121 RALEY BLVD","CHICO",CA,"959288347",,39.71595722448979,-121.7910607755102,"5302302000","12-49",,,"ZZZ28885Z",,,,
,"1649376757","ADS HEALTHCARE LLC","6901 W 121ST ST","OVERLAND PARK",KS,"662092007",,38.908375,-94.664557,"9136611755","12-49",,,,"9004085",,,
,"1134177256","SPRING CREEK SURGERY CENTER LLC","3633 CENTRAL AVENUE","HOT SPRINGS",AR,"719136475",,34.467656537122906,-93.05943202187163,"5016237609","12-49",,,,"11054",,,
,"1629009071","ENDOSCOPY CENTER OF SANTA MONICA LLC","12400 WILSHIRE BLVD","LOS ANGELES",CA,"900251067",,34.0419752,-118.469719,"3104425566","12-49",,,,,,,
,"1942370408","PERIMETER OUTPATIENT SURGICAL ASSOCIATES","5673 PEACHTREE DUNWOODY RD NE","ATLANTA",GA,"303421731",,33.7489924,-84.3902644,"4042555595","12-49",,,,,,,
,"1083691331","PAINCARE MEDICAL GROUP, INC.","15701 ROCKFIELD BLVD","IRVINE",CA,"926182801",,33.63499905,-117.72024326813639,"9494579900","12-49",,,,,,,
,"1912933680","SOUTHWESTERN AMBULATORY SURGERY CENTER, LLC","500 LEWIS RUN RD","PITTSBURGH",PA,"151223058",,40.4416941,-79.9900861,"4124696964","12-49",,,,"081870",,,
,"1598879009","DIGESTIVE DISEASES CENTER OF HATTIESBURG, LLC","100 METHODIST HOSPITAL BLVD","HATTIESBURG",MS,"394021295",,31.3271189,-89.2903392,"6012685189","12-49",,,,,,,
,"1114906393","PHYSICIANS SURGERY CENTER LLC","3327 S DIVISION ST","BLYTHEVILLE",AR,"723155123",,35.9075614,-89.9186741,"8707621942","12-49",,,,,,,
,"1427166990","LOS ALTOS SURGERY CENTER","795 ALTOS OAKS DR","LOS ALTOS",CA,"940245428",,37.35931203875471,-122.09256012573918,"6509418888","12-49",,,,,,,
,"1194757401","CHAGRIN SURGERY CENTER LLC","3755 ORANGE PL STE 102","BEACHWOOD",OH,"441224455",,41.464498,-81.508732,"2168391800","12-49",,,,,,,
,"1932136389","SURGERY CENTER AT 900 N MICHIGAN AVE, LLC","60 E DELAWARE PL","CHICAGO",IL,"606111998",,41.899255571428576,-87.62647407142858,"3124405150","12-49",,,,,,,
,"1831259795","GRAND STREET GASTROENTEROLOGY INC","33 GRAND ST","KINGSTON",NY,"124013933",,41.9292537,-73.9993586,"8458538106","12-49",,,"F31193",,,,
,"1821164476","KAISER FOUNDATION HEALTH PLAN INC","80 MAHALANI ST","WAILUKU",HI,"967932531",,20.8894684,-156.5089397899955,"8082436000","12-49",,,,"H102823",,,
,"1487609335","THE CENTER FOR AESTHETIC SURGERY LLC","314 W CARROLL ST","SALISBURY",MD,"218015409",,38.36335378719618,-75.60320607567672,"4105462375","12-49",,,,,,,
,"1073693123","PCSC 15 INC","3805 TELEGRAPH RD","VENTURA",CA,"930033422",,34.27380645454546,-119.24367263636364,"8056449001","12-49",,,,"S051668",,,
,"1871591248","NOVAMED SURGERY CENTER OF NASHUA, LLC","5 COLISEUM AVE","NASHUA",NH,"030633206",,42.765134700000004,-71.49848216407526,"6038829800","12-49",,,,"301004",,,
,"1346270329","MARY IMMACULATE AMBULATORY SURGERY CENTER LLC","12720 MCMANUS BLVD","NEWPORT NEWS",VA,"236024441",,37.1426545,-76.51299642857143,"7573697000","12-49",,,,"192949755",,,
,"1215040464","DEERPATH AMBULATORY SURGICAL CENTER LLC","1051 W US ROUTE 6","MORRIS",IL,"604504200",,41.3574135,-88.4215234,"8153185666","12-49",,,,,,,
,"1801899687","TRINITY SURGERY CENTER LLC","2020 TRINITY OAKS BLVD","TRINITY",FL,"346554402",,28.1855821,-82.6773045,"7273724055","12-49",,,,"10C0001401",,,
,"1447234919","GENGASTRO LLC","2222 53RD AVE","BETTENDORF",IA,"527227546",,41.57523292929293,-90.50192395959596,"5633832686","12-49",,,,"I12979",,,
,"1417080342","MORGANTON EYE PHYSICIANS PA","1622 E MARION ST","SHELBY",NC,"281504939",,35.28737467346939,-81.4941526122449,"7044822020","12-49",,,,"2380539",,,
"ASC210","1699819979","TURTLE CREEK SURGERY CENTER LLC","805 TURTLE CREEK DR","TYLER",TX,"75701",,32.33911942857143,-95.29405365306123,"9035921664","12-49",,,,,,,
,"1326097981","FREDERICKSBURG AMBULATORY SURGERY CENTER, LLC","1201 SAM PERRY BLVD","FREDERICKSBURG",VA,"22401",,38.30945269933489,-77.48270820991216,"5407417000","12-49",,,,,,,
,"1144499633","FOOTHILL SURGERY CENTER LP","255 E. SANTA CLARA ST. 110","ARCADIA",CA,"910067233",,34.14241971052828,-118.02425130904871,"8189561010","12-49",,,,"S051666",,,
,"1396743514","RENAISSANCE SURGICAL CENTRE, LLC","4030 RIVERSIDE PARK BLVD","MACON",GA,"312101365",,32.91552908528863,-83.71006882522505,"4784742200","12-49",,,,,,,
,"1811921752","GLENDORA SURGERY CENTER","541 S PASADENA AVE","GLENDORA",CA,"917416232",,34.130087448275866,-117.86032006896552,"6266101850","12-49",,,,,,,
,"1881686293","ATHENS SURGERY CENTER LTD","75 HOSPITAL DR","ATHENS",OH,"457012302",,39.3281901,-82.1155696,"7405664500","12-49",,,,,,,
,"1912909169","KIPS BAY ENDOSCOPY CENTER, LLC","535 2ND AVE","NEW YORK",NY,"100168275",,40.7421413,-73.9780547,"2128895477","12-49",,,,"4127R1",,,
,"1275597056","SURGERY CENTER OF ROME, LP","16 JOHN MADDOX DR NW","ROME",GA,"301651414",,34.257038,-85.1646726,"7068023727","12-49",,,,"111015ASCB",,,
,"1306851902","SPECIALTY SURGICAL CENTER OF IRVINE LP","15825 LAGUNA CANYON RD","IRVINE",CA,"926182127",,33.664560300000005,-117.76402866882376,"3106596333","12-49",,,,,,,
,"1811942998","DAY SURGERY, INC.","151 FRONTAGE A RD","GRAY",LA,"703596301",,29.678241869697295,-90.78412642123138,"9855801598","12-49",,,,"11064",,,
,"1588681373","CONSTITUTION SURGERY CENTER EAST LLC","174 CROSS RD","WATERFORD",CT,"063851215",,41.3842543,-72.1606799,"8607010140","12-49",,,"490000227",,,,
,"1972549491","UNION CITY ASC LLC","1109 REELFOOT AVE","UNION CITY",TN,"382615866",,36.4135355137788,-89.04635610873886,"7318840600","12-49",,,,"3288928",,,
,"1467429233","WILLOW SPRINGS SURGERY CENTER LTD","9050 W. 81ST STREET","JUSTICE",IL,"604581350",,41.7456772,-87.8391876,"7085943500","12-49",,,,,,,
,"1609955517","KNOXVILLE EYE SURGERY CENTER LLC","160 CAPITAL DR","KNOXVILLE",TN,"379223343",,35.90183131257578,-84.11302849939375,"8652510338","12-49",,,,,,,
,"1093781601","GI DIAGNOSTIC CENTER","1100 ANDRE ST","NEW IBERIA",LA,"705632159",,30.0035365,-91.8187285,"3373656591","12-49",,,,,,,
"06C0001085","1649310111","CROWN POINT SURGERY CENTER","9397 CROWN CREST BLVD, STE 110","PARKER",CO,"801388575","035",39.5486409,-104.7704794,"7209746499","12-49","15-01",true,,"C548898","08",,
,"1154322410","SUMMIT SURGICAL SUITES, LLC","7920 W JEFFERSON BLVD","FORT WAYNE",IN,"468044169",,41.0410355,-85.2503613,"2604342022","12-49",,,,"ZG4050",,,
,"1023072824","SOUTH JERSEY EYE PHYSICIANS, PA","509 S LENOLA RD","MOORESTOWN",NJ,"080571561",,39.94895375030515,-74.9714525136935,"8562340258","12-49",,,,"311069",,,
"31C0001162","1235178146","SUBURBAN ENDOSCOPY CENTER, LLC","799 BLOOMFIELD AVENUE","VERONA",NJ,"070441301","013",40.8311281,-74.2442366,"9735711600","12-49","15-01",true,,"071545","02",,
"31C0001139","1336112200","MERCER COUNTY SURGERY CENTER LLC","2A PRINCESS ROAD","LAWRENCEVILLE",NJ,"086482320",,40.300987649999996,-74.73737283395636,"6098950290","12-49",,,,"052282",,,
,"1972668317","SCRIPPS MERCY AMBULATORY SURGERY CENTER L.P.","550 WASHINGTON ST","SAN DIEGO",CA,"921032232",,32.750253,-117.160389,"6196863434","12-49",,,,,,,
,"1487644506","MCALESTER AMBULATORY SURGERY CENTER, LLC","4 E CLARK BASS BLVD","MCALESTER",OK,"745014269",,34.9342839,-95.7507376,"9184216700","12-49",,,,,,,
,"1265534556","SOUTH FLORIDA AMBULATORY SURGICAL CENTER LLC","6110 SW 70TH ST","SOUTH MIAMI",FL,"331433419",,25.705756899999997,-80.2922781911127,"3056623100","12-49",,,,,,,
,"1053453134","ADVANCED SURGICAL CONCEPTS LLC","9118 BLUEBONNET CENTRE BLVD","BATON ROUGE",LA,"708092993",,30.3977262,-91.0851776,"2253682330","12-49",,,,"P00147168",,,
,"1306843867","NOVAMED SURGERY CENTER OF PALM BEACH LLC","2889 10TH AVE N STE 203","PALM SPRINGS",FL,"334613045",,26.62859587755102,-80.08754697959183,"5614696208","12-49",,,,"F1024",,,
,"1285746263","ORTHOPEDICS SURGICAL CENTER OF THE NORTH SHORE LLC","ONE ORTHOPEDICS DRIVE","PEABODY",MA,"019601668",,42.5278731,-70.9286609,"9788186517","12-49",,,,"221047",,,
,"1861492530","GRANTS PASS SURGERY CENTER LLC","1601 NW HAWTHORNE AVE","GRANTS PASS",OR,"975261041",,42.457057,-123.327398,"5414724880","12-49",,,,"R102579",,,
"05C0001539","1881688554","SPINE AND PAIN TREATMENT MEDICAL CENTER","135 W CARMEN LN","SANTA MARIA",CA,"934587729","083",34.9244301,-120.4611439,"8059287361","12-49","15-01",true,,"S051539","09",,
,"1215990627","WESTSIDE SURGERY CENTER LTD","2731 PARK ST","JACKSONVILLE",FL,"322057607",,30.3104593,-81.6947291,"9043891077","12-49",,,,"F1162",,,
,"1205839487","INTERVENTIONAL REHABILITATION CENTER LLC","1549 AIRPORT BLVD","PENSACOLA",FL,"325048634",,30.4812176,-87.2110717,"8504848800","12-49",,,,,,,
,"1679531610","BOSTON UNIVERSITY EYE ASSOCIATES INC","90 NEW STATE HWY","RAYNHAM",MA,"027675460",,41.905719000000005,-71.0622783463152,"5088237473","12-49",,,,,,,
,"1184660151","INNOVATIVE PROCEDURAL CENTER LLC","1512 4TH ST NE","WATERTOWN",SD,"572016824",,44.92044597330068,-97.10672345284843,"6058840100","12-49",,,,"S42553",,,
,"1417922915","FRANCONIA-SPRINGFIELD SURGERY CENTER LLC","6355 WALKER LN","ALEXANDRIA",VA,"223103246",,38.7672402,-77.16077657300656,"7039229501","12-49",,,,"A00034",,,
,"1528032711","COLUMBIA ENDOSCOPY CENTER LLC","208 PORTLAND ST","COLUMBIA",MO,"652016525",,38.95307986906931,-92.289626692345,"5734493500","12-49",,,,"000040069",,,
,"1922061456","TRIDENT AMBULATORY SURGERY CENTER LP","9313 MEDICAL PLAZA DR","CHARLESTON",SC,"294069153",,32.97435035419094,-80.07396399238011,"8437978992","12-49",,,,"Q290970001",,,
,"1932204971","GREENVILLE ENDOSCOPY CENTER","317 SAINT FRANCIS DR","GREENVILLE",SC,"296156320",,34.851354,-82.3984882,"8642327338","12-49",,,,"Q292170001",,,
,"1245358050","CHARLES SUNG MD PC","317 N DELAWARE ST","KENNEWICK",WA,"993367750",,46.21169970184472,-119.22442062586343,"5097365550","12-49",,,,,,,
,"1811076623","SPARTANBURG UROLOGY SURGICENTER","391 SERPENTINE DR STE 200","SPARTANBURG",SC,"293033080",,34.9666779,-81.9352813,"8645852002","12-49",,,,,,,
,"1275548158","DIGESTIVE DIAGNOSTIC CENTER INC","333 GELLERT BLVD","DALY CITY",CA,"940152614",,37.66388683729548,-122.46912435432934,"6507577900","12-49",,,,"P00151992",,,
,"1295817435","WILLS SURGERY CENTER OF CHERRY HILL","408 MARLTON PIKE E","CHERRY HILL",NJ,"080342409",,39.9348351,-75.0307264,"8563541600","12-49",,,,,,,
,"1841226552","NAPLES EYE SURGERY CENTER LLC","1890 SW HEALTH PKWY","NAPLES",FL,"341090473",,26.1421976,-81.7942944,"2395983653","12-49",,,,"F1425",,,
,"1619998523","UPSTATE SURGERY CENTER, LLC","10 ENTERPRISE BLVD","GREENVILLE",SC,"296153534",,34.8568835,-82.327573,"8644587141","12-49",,,,"Q326080001",,,
,"1982783270","DERMATOLOGY SURGERY CENTER, LLC","15 HOSPITAL CENTER BLVD","HILTON HEAD",SC,"299262760",,32.22032481671471,-80.71358723928606,"8436899200","12-49",,,"Q328460001","Q328460001",,,
,"1285630160","NOVAMED EYE SURGERY CENTER OF NORTH COUNTY LLC","12101 WOODCREST EXECUTIVE DR","SAINT LOUIS",MO,"631415047",,38.673457,-90.454657,"8666317890","12-49",,,,"000040032",,,
,"1124055165","SALINA UROLOGY CARE CENTER LLC","501 SOUTH SANTA FE","SALINA",KS,"674014189",,38.8402805,-97.6114237,"7858279635","12-49",,,,,,,
,"1942299441","PAIN CARE OF NORTH TEXAS, LLC","1111 RAINTREE CIR","ALLEN",TX,"750134902",,33.1141954,-96.67587419788731,"2145099530","12-49",,,,"ASC218",,,
,"1811978356","WESTSIDE SURGERY CENTER, LLC","13240 SW PACIFIC HWY","TIGARD",OR,"972234828",,45.4238607,-122.7815402,"5036396571","12-49",,,,"116241",,,
,"1821183237","COOSA PROCEDURE CENTER LLC","18 RIVERBEND DR SW STE 120","ROME",GA,"301616019",,34.257038,-85.1646726,"7063781202","12-49",,,,"111244ASCA",,,
,"1215915939","ENDOSCOPY CENTER OF MIDDLE GEORGIA LLC","610 THIRD STREET","MACON",GA,"312013238",,32.8406946,-83.6324022,"4784642600","12-49",,,,"111245ASCA",,,
,"1891951885","MISSISSIPPI EYE SURGERY CENTER UC","3434 BIENVILLE BLVD","OCEAN SPRINGS",MS,"395645732",,30.4112121,-88.775494,"2282440067","12-49",,,,"490000053",,,
"21C0001160","1043282775","BALTIMORE ENDOSCOPY ASC LLC","4660 WILKENS AVE","BALTIMORE",MD,"212284577",,39.26506415,-76.69927974999999,"4102423636","12-49",,,,"006Z",,,
,"1093736795","HATTIESBURG CLINIC PA","415 S 28TH AVE","HATTIESBURG",MS,"394022860",,31.31906225,-89.33190014933321,"6015795075","12-49",,,,,,,
,"1881612042","THE HAND AND UPPER EXTREMITY SURGERY CENTER OF GEORGIA, LLC","993-D JOHNSON FERRY ROAD","ATLANTA",GA,"303421602",,33.7489924,-84.3902644,"4049691996","12-49",,,,,,,
,"1174530752","LAKE MARY SURGERY CENTER LLC","460 SAINT CHARLES CT","LAKE MARY",FL,"327462103",,28.7562749,-81.322093,"4075850260","12-49",,,,,,,
,"1336215847","BRAND SURGICAL INSTITUTE INC","1141 N BRAND BLVD STE 200","GLENDALE",CA,"912022577",,34.1623683877551,-118.25523879591836,"8182439999","12-49",,,,,,,
"17C0001022","1083686208","WICHITA ORTHOPAEDIC ASC LLC","7550 WEST VILLAGE CIRCLE","WICHITA",KS,"672059364",,37.75766629613857,-97.42928224304656,"3168388388","12-49",,,,"130194",,,
,"1033213269","CAPE COD EYE SURGERY & LASER CENTER LLC","282 ROUTE 130","SANDWICH",MA,"02563",,41.71287935,-70.48983638680193,"5088338222","12-49",,,,,,,
,"1043411648","COFFEE COUNTY CENTER FOR DIGESTIVE DISEASES","300 SHIRLEY AVENUE","DOUGLAS",GA,"315332332",,31.507028346153845,-82.86148142307692,"9123847276","12-49",,,,"111246ASCA",,,
,"1396741807","EAST BAY ENDOSCOPY CENTER LP","5858 HORTON ST","EMERYVILLE",CA,"946082007",,37.8407703,-122.2912564,"5106544554","12-49",,,,,,,
,"1124116264","BOSTON EYE SURGERY & LASER CENTER TRUST","50 STANIFORD ST","BOSTON",MA,"021142517",,42.3624788,-71.0645045,"6177232015","12-49",,,,,,,
,"1982793709","GASTROENTEROLOGY ASSOCIATES OF FAIRFIELD PC","425 POST RD","FAIRFIELD",CT,"068246232",,41.150447549999996,-73.24333252014466,"2032929000","12-49",,,,"490000236",,,
,"1891722609","EYE MDS OF PUGET SOUND PLLC","4717 S 19TH ST","TACOMA",WA,"984051157",,47.242955046979866,-122.50028074496645,"2532724600","12-49",,,,"G8808497",,,
,"1336268754","MOUNTAIN VISTA ORTHOPAEDIC SURGERY CENTER, LLC","5890 W 13TH ST","GREELEY",CO,"806344821",,40.41761184259329,-104.77500522216346,"9709223844","12-49",,,,"C553818",,,
,"1417077090","BAPTIST MEDICAL PARK SURGERY CENTER LLC","9400 UNIVERSITY PKWY","PENSACOLA",FL,"325145752",,30.421309,-87.2169149,"8504697773","12-49",,,,,,,
,"1124031406","SAN FRANCISCO ENDOSCOPY CENTER LLC","3468 CALIFORNIA STREET","SAN FRANCISCO",CA,"941181837",,37.78677618367347,-122.45121393877551,"4153450100","12-49",,,,,,,
"1870587","1275516718","PREMIER SURGICAL CENTER, INC","5680 W GAGE ST","BOISE",ID,"837061326",,43.613558,-116.2518171,"2083773937","12-49",,,,,,,
,"1447260575","CENTRAL INDIANA ORTHOPEDIC SURGERY CENTER LLC","3600 W BETHEL AVE","MUNCIE",IN,"473045407",,40.21771,-85.428434,"7652847738","12-49",,,,,,,
,"1821066200","LOWCOUNTRY OUTPATIENT SURGERY CENTER","93A SPRINGVIEW LN","SUMMERVILLE",SC,"294858143",,32.9582049,-80.1669094,"8432856060","12-49",,,,,,,
,"1619920501","CENTER FOR DIGESTIVE HEALTH","1615 N CONVENT ST","BOURBONNAIS",IL,"609141081",,41.1609676,-87.8752901,"8159361700","12-49",,,,,,,
,"1720058688","SURGICENTER OF NORFOLK LLC","3901 W NORFOLK AVE STE L","NORFOLK",NE,"687019218",,42.03261344949495,-97.45526521717171,"4023795555","12-49",,,,,,,
,"1851408389","MACARTHUR SURGERY CENTER, L.P.","2120 MACARTHUR BLVD","IRVING",TX,"750612205",,32.83587910930798,-96.95895329608662,"9724385232","12-49",,,,,,,
,"1023005139","ROANOKE VALLEY CENTER FOR SIGHT, LLC","438 W MAIN ST","WYTHEVILLE",VA,"243825126",,36.94754348198904,-81.08666228167003,"5408555139","12-49",,,,"490004971",,,
,"1215014022","HATTIESBURG EYE CLINIC CATARACT & LASIK SURGERY CENTER, LLC","103 MILLSAPS DR","HATTIESBURG",MS,"394021348",,31.3242547,-89.36854014253575,"6012689959","12-49",,,"Y13557","490000054",,,
,"1831283860","THE COOKEVILLE SURGERY CENTER","100 W 4TH ST","COOKEVILLE",TN,"385012473",,36.168319,-85.508091,"9315268115","12-49",,,,,,,
,"1184682445","PORTSMOUTH SURGERY CENTER","1400 GAY STREET","PORTSMOUTH",OH,"456623475",,38.741914,-82.99403,"8009483937","12-49",,,,,,,
,"1962431197","SHAWNEE MISSION SURGERY CENTER, LLC","9301 W 74TH ST STE 300","SHAWNEE MISSION",KS,"662042207",,38.99134745,-94.63274030884841,"9136329320","12-49",,,,"9004162",,,
,"1124079843","MOUNTAINWEST SURGICAL CENTER LLC","1551 S RENAISSANCE TOWNE DR","BOUNTIFUL",UT,"84010",,40.8894611,-111.8804817,"8013831111","12-49",,,,"000100830",,,
,"1629175062","SARATOGA SCHENECTADY ENDOSCOPY CENTER, LLC","848 RT. 50","BURNT HILLS",NY,"12027",,42.9097982,-73.8951234,"5188311550","12-49",,,,"PP00177783",,,
,"1306964853","GASTROENTEROLOGY ENDOSCOPY CENTER","550 PEACHTREE ST NE","ATLANTA",GA,"303082263",,33.77019035,-84.38627771930686,"4048818800","12-49",,,,"111139ASCA",,,
,"1245207687","CDI TWIN CITIES ASC LLC","5775 WAYZATA BOULEVARD","WOODBURY",MN,"551251709",,44.919896,-92.9339449,"9525465022","12-49",,,,"490000038",,,
,"1306866173","PARK PLACE SURGERY CENTER L L C","2450 MAITLAND CENTER PKWY","MAITLAND",FL,"327514140",,28.634217866571053,-81.39368759544949,"4078750296","12-49",,,,,,,
,"1225230634","VALLEY EYE AND LASER CENTER INC PS","4011 TALBOT RD S","RENTON",WA,"980555791",,47.443855600000006,-122.21385740788915,"4252554250","12-49",,,,"G8809097",,,
,"1558564344","SURGERY CENTER OF ATLANTIS LLC","5645 S MILITARY TRL","LAKE WORTH",FL,"334636978",,26.615891,-80.0691435,"5619643966","12-49",,,,"F1431",,,
,"1205364981","MERCED AMBULATORY SURGERY CENTER LLC","1390 E YOSEMITE AVE STE B","MERCED",CA,"953408221",,37.33156685,-120.45221299581937,"2095803409","12-49",,,,,,,
,"1699703991","PLAZA SURGICAL MEDICAL CENTER","850 S ATLANTIC BLVD","MONTEREY PARK",CA,"917546705",,34.051285433030074,-118.13771654018196,"6262892894","12-49",,,,"S051680",,,
,"1124125109","INSTITUTE FOR LOW BACK CARE LLC","300 MAIN AVE","FARGO",ND,"581031930",,46.873958710144926,-96.78316923188406,"7012970817","12-49",,,,,,,
,"1487610390","SURGERY CENTER OF FAIRFIELD COUNTY LLC","112 QUARRY RD FL 3","TRUMBULL",CT,"066114848",,41.2428742,-73.2006687,"2033741515","12-49",,,,"07C0001003",,,
,"1447225503","BAPTIST DESOTO SURGERY CENTER LP","391 SOUTHCREST CIRCLE","SOUTHAVEN",MS,"386714775",,34.96830966687687,-89.99870170952398,"6623490910","12-49",,,,,,,
"Z3C0001063","1295710002","SCOTTSDALE EYE SURGERY CENTER PC","8414 N 90TH ST","SCOTTSDALE",AZ,"85258",,33.556610500000005,-111.889035,"4809491208","12-49",,,,,,,
,"1114965803","ADVANCED ENDOSCOPY & SURGICAL CENTER, L.L.C.","142 ROUTE 35","EATONTOWN",NJ,"077243427",,40.2907428,-74.051988,"7329350031","12-49",,,,,,,
,"1356369755","MADISON SURGERY CENTER, LLC","460 LANIER RD","MADISON",AL,"357582631",,34.688759,-86.738201,"2563199000","12-49",,,,,,,
,"1356412894","ROCKFORD ORTHOPEDIC SURGERY CENTER, LLC","346 ROXBURY RD","ROCKFORD",IL,"611075090",,42.268469499999995,-89.01235667598483,"8153817400","12-49",,,,,,,
,"1447221486","ORTHOPAEDIC OUTPATIENT SURGERY CENTER LLC","1600 60TH ST","WEST DES MOINES",IA,"502667700",,41.5939512,-93.7906037,"5152245232","12-49",,,,,,,
,"1487765897","BAY MICROSURGICAL UNIT","1200 HIGHMARKET ST","GEORGETOWN",SC,"294403227",,33.3728312,-79.28620494972014,"8435468421","12-49",,,,,,,
,"1245346923","AESTHETIC PLASTIC SURGERY INSTITUTE OF LOUISVILLE LLC","444 S 1ST ST","LOUISVILLE",KY,"402021487",,38.2512134,-85.7527798,"5022382888","12-49",,,,,,,
,"1508818634","MONTEREY BAY ENDOSCOPY CENTER LLC","23 UPPER RAGSDALE DR","MONTEREY",CA,"939407849",,36.578371410550396,-121.81931703592346,"8313753577","12-49",,,,,,,
"08C0001011","1386618783","LEWES DE ENDOSCOPY ASC LLC","34444 KING STREET ROW","LEWES",DE,"199584787",,38.7435238,-75.1500889,"3026443852","12-49",,,,"A00050",,,
,"1437219276","MINEHART MEDICAL CORPORATION","16250 VENTURA BLVD STE 165","ENCINO",CA,"914362273",,34.156740913720064,-118.48693786967712,"8187843125","12-49",,,,,,,
,"1578652152","IRVINE SURGICAL MEDICAL GROUP CORP","15825 LAGUNA CANYON RD","IRVINE",CA,"926182126",,33.664560300000005,-117.76402866882376,"9496796700","12-49",,,,"S051683",,,
"S051338A","1871749952","COMPREHENSIVE OUTPATIENT SURGERY CENTER, LP","250 N ROBERTSON BLVD","BEVERLY HILLS",CA,"902111767",,34.06945669387755,-118.38362553061225,"3102739255","12-49",,,,,,,
,"1588867030","PACIFIC ENDO-SURGICAL CENTER, LP","3445 PACIFIC COAST HWY","TORRANCE",CA,"905056659",,33.80215605,-118.34523297328384,"3103261666","12-49",,,,"S051558A",,,
"26C0001082","1255373601","CHESTERFIELD SURGERY CENTER","17050 BAXTER ROAD, SUITE 110","CHESTERFIELD",MO,"630051422","189",38.6671565,-90.5782407,"6365370122","12-49","15-01",true,,"000049082","07",,
,"1518969773","ARIZONA SKIN CANCER SURGERY CENTER PC","5980 N LA CHOLLA BLVD","TUCSON",AZ,"857413535",,32.2282767,-111.0117406,"5208873333","12-49",,,"G65433","Z100219",,,
,"1609803204","AFFILIATED ENDOSCOPY SERVICES OF CLIFTON,LLC","925 CLIFTON AVE","CLIFTON",NJ,"070132724",,40.8643165,-74.1610073,"9734580408","12-49",,,,,,,
,"1275503906","JERVEY EYE CENTER LLC","5 STEVENS ST","GREENVILLE",SC,"296054528",,34.819472250000004,-82.30921707750669,"8642506487","12-49",,,,"Q318010001",,,
,"1326054172","FORT SANDERS WEST OP SURGERY CENTER","210 FORT SANDERS WEST BLVD","KNOXVILLE",TN,"379223355",,35.901116384615385,-84.12060976923077,"8655315200","12-49",,,,,,,
"10C0001345","1962466847","GULF COAST ENDOSCOPY CENTER OF VENICE","1220 E VENICE AVE","VENICE",FL,"342857151","115",27.099804326530613,-82.42374308163265,"9414845000","12-49","15-01",true,,"F1345","04",,
,"1639142706","AMBULATORY SURGERY CENTER LLC","2831 LONE OAK RD","PADUCAH",KY,"420038041",,37.04034027477843,-88.66057501104991,"2705548373","12-49",,,,"490005177",,,
,"1164488714","NORTHWEST SURGICARE LTD","1100 W CENTRAL RD","ARLINGTON HEIGHTS",IL,"600052464",,42.06668216101695,-87.99757922881356,"8472593080","12-49",,,,"210558",,,
"111249ASCA","1154422541","BRUNSWICK PAIN TREATMENT CENTER, LLC","1111 GLYNCO PKWY","BRUNSWICK",GA,"315257921",,31.1499528,-81.4914894,"9122626552","12-49",,,,,,,
,"1497750426","NEW ALBANY OUTPATIENT SURGERY LLC","2201 GREEN VALLEY RD","NEW ALBANY",IN,"471504647",,38.3048315,-85.8367382,"8129491223","12-49",,,,"ZM0060",,,
,"1700854072","SULLIVAN SURGICENTER,LLC","320 N SECTION ST","SULLIVAN",IN,"478821239",,39.09837393832939,-87.40963481843359,"8122689000","12-49",,,,,,,
,"1245331628","BERNSTEIN, HILLIKER, HARTZELL EYE CENTER, LLP","66 ENTERPRISE BLVD","ALLENWOOD",PA,"178109260",,41.13366525,-76.92328207761597,"5705382613","12-49",,,,,,,
,"1689766131","U.P. DIGESTIVE DISEASE ASSOCIATES. P.C.","1414 W FAIR AVE","MARQUETTE",MI,"498555408",,46.5574687,-87.417066,"9062253880","12-49",,,,"0M17150",,,
,"1588709489","FOOTHILL GATEWAY SURGERY CENTER LLC","29300 PORTOLA PKWY STE A","LAKE FOREST",CA,"926308718",,33.6609016,-117.65343973166635,"9493056336","12-49",,,,,,,
"14C0001075","1497720999","NORTHSHORE ENDOSCOPY CENTER","101 S WAUKEGAN ROAD, SUITE 980","LAKE BLUFF",IL,"600443013","097",42.27686912919205,-87.876342751048,"8476048700","12-49","15-01",true,,"210634","05",,
,"1326182411","ENCINO DERMA SURGERY CENTER, INC.","5400 BALBOA BLVD","ENCINO",CA,"913165210",,34.168907,-118.500991,"3107947422","12-49",,,,"S051717",,,
"S051505","1538159397","MAGNOLIA SURGERY CENTER LIMITED PARTNERSHIP","14571 MAGNOLIA ST","WESTMINSTER",CA,"926835575",,33.751724177212374,-117.972439,"7149039039","12-49",,,,,,,
,"1780767673","EYE CARE SURGERY CENTER OF SOUTHAVEN,LLC","7600 AIRWAYS BLVD","MS",MS,"386715138",,34.969634,-89.989797,"6623497477","12-49",,,,,,,
,"1508837899","MEMORIAL HERMANN SURGERY CENTER NORTHWEST, LLP","1631 NORTH LOOP WEST","HOUSTON",TX,"770081528",,29.8048679,-95.4471327,"7133431080","12-49",,,,"ASC224",,,
,"1790756237","BIRMINGHAM SURGERY CENTER","2621 19TH ST S","BIRMINGHAM",AL,"352091913",,33.49682,-86.795601,"2052718200","12-49",,,,"051555331",,,
"01C0001029","1215926993","NORTH RIVER SURGICAL CENTER LLC","301 RICE MINE ROAD NORTHEAST","TUSCALOOSA",AL,"354062403","125",33.228816,-87.530529,"2057500022","12-49","15-01",true,,"051555332","04",,
"04C0001029","1780658245","BOOZMAN-HOF EYE SURGERY & LASER CENTER","3737 WEST WALNUT","ROGERS",AR,"727561839","007",36.3320197,-94.1185366,"4792461751","12-49","15-01",true,,"11029","06",,
"22C0001049","1033199906","WEYMOUTH ENDOSCOPY LLC","1085 MAIN STREET","SOUTH WEYMOUTH",MA,"021901547","021",42.16697335,-70.95578633602811,"7813312922","12-49","15-01",true,,,"01",,
,"1396774543","WISCONSIN SURGERY CENTER LLC","3305 S 20TH ST","MILWAUKEE",WI,"532154941",,42.984570899999994,-87.93947388366537,"4143842100","12-49",,,,,,,
"31C0001118","1255361259","CENTRAL JERSEY SURGERY CENTER","97 CORBETT WAY","EATONTOWN",NJ,"077242264","025",40.273791880295924,-74.04655173843003,"7324602777","12-49","15-01",true,,"029816","02",,
,"1427055425","PHYSICIANS PAVILION LP","545 STONECREST PKWY","SMYRNA",TN,"371676804",,35.9824598,-86.5199492,"6152203720","12-49",,,,"3287552",,,
,"1659377042","TOMS RIVER AMBULATORY SURGICAL CENTER","54 BEY LEA RD","TOMS RIVER",NJ,"087532978",,39.98720717467763,-74.20066633463075,"7322811020","12-49",,,,,,,
,"1770541708","SUTTER ALHAMBRA SURGERY CENTER LP","1201 ALHAMBRA BLVD","SACRAMENTO",CA,"958165243",,38.570438,-121.46611,"9167338222","12-49",,,,"490005305",,,
,"1245288257","SURGICAL CENTER OF GREENSBORO, LLC","705 GREEN VALLEY RD","GREENSBORO",NC,"274087019",,36.091591,-79.8234001,"3362720012","12-49",,,,,,,
,"1295738375","OREGON SURGICENTER, LLC","2400 HARTMAN LN","SPRINGFIELD",OR,"974771138",,44.06980055,-123.04072281439909,"5413431603","12-49",,,,"R130316",,,
,"1780735175","THE CENTER FOR SPINE PROCEDURES, PC","335 ROSELANE ST NW","MARIETTA",GA,"300607902",,33.970249,-84.5565918,"7704204645","12-49",,,,,,,
,"1639237092","MUSCULOSKELETAL AMBULATORY SURGERY CENTER INC","6015 POINTE WEST BLVD","BRADENTON",FL,"342095525",,27.479607153061224,-82.62179430612245,"9417820101","12-49",,,,"F1321",,,
,"1508887704","AMBULATORY ANKLE & FOOT CENTER OF FLORIDA INC","1509 S ORANGE AVE","ORLANDO",FL,"328062116",,28.524707,-81.376339,"4078366155","12-49",,,,"F1140",,,
,"1235257130","SWISS AVENUE SURGICENTER MANAGEMENT LLC","4103 SWISS AVE STE B","DALLAS",TX,"75204",,32.795835999999994,-96.77851631578619,"2148212001","12-49",,,,,,,
,"1679570774","NOVAMED SURGERY CENTER OF MADISON, LIMITED PARTNERSHIP","1200 JOHN Q HAMMONS DR","MADISON",WI,"537171967",,43.0827516,-89.52476086272458,"6088275504","12-49",,,,,,,
,"1427052026","SUMMIT ENDOSCOPY CENTER","1265 HIGHWAY 54 W","FAYETTEVILLE",GA,"302144537",,33.45041802997224,-84.50951365022645,"6788176505","12-49",,,,"111169ASCA",,,
,"1740237213","BULLOCH COUNTY ENDOSCOPY CENTER, LLC","1555 BRAMPTON AVE","STATESBORO",GA,"304580856",,32.40641398435839,-81.76978489962596,"9126812007","12-49",,,,,,,
