provider_num,npi,name,address,city,state,zip,fips_county,lat,lon,phone,provider_type_code,category,emergency,upin,pin,region_code,bed_count,clia_lab_number
"262600","1346342532","FMC DIALYSIS SERVICES OF LINCOLN COUNTY","9 LINCOLN CENTER, SUITE A","TROY",MO,"633791456","113",38.98621571790327,-90.97084340617879,"6364624910","00-03","09-01",true,,,"07",,
"392642","1356445126","BIO-MEDICAL APPLICATIONS OF PENNSYLVANIA, INC.","5 SAINT FRANCIS WAY","CRANBERRY TOWNSHIP",PA,"160665119",,40.6843833,-80.09898014205179,"7247799770","00-03",,,,,,,
"172541","1851350581","OLATHE DIALYSIS","732 WEST FRONTIER LANE","OLATHE",KS,"660617202","091",38.8610659,-94.82806318057635,"9133904937","00-03","09-01",true,,,"07",,
"322510","1447283825","DIALYSIS CLINIC, INC","1213 BONITA AVENUE","GRANTS",NM,"870202103","006",35.16283144267239,-107.82846720876763,"5052855200","00-03","09-01",true,,,"06",,
"262595","1174625339","FMC DIALYSIS SERVICES OF RAYTOWN","11503 EAST 63RD STREET","RAYTOWN",MO,"641335431","095",39.007958,-94.446699,"8163533080","00-03","09-01",true,,,"07",,
"452794","1780796672","FRESENIUS MEDICAL CENTER CARE KAUFMAN","2213 OLD KEMP HIGHWAY","KAUFMAN",TX,"751423658","257",32.452773,-96.241598,"9725242832","00-03","09-01",true,,,"06",,
"142634","1952360869","MARYVILLE DIALYSIS","2102 VADALABENE DRIVE, SUITE 1","MARYVILLE",IL,"620625632","119",38.73500564646465,-89.94730623737374,"6182881196","00-03","09-01",true,,,"05",,
"552504","1295798338","TOKAY DIALYSIS CENTER","312 SOUTH FAIRMONT AVENUE, SUITE A","LODI",CA,"952403840","077",38.12974033165829,-121.28574903517587,"2093695418","00-03","09-01",true,,,"09",,
"222536","1548229495","PHYSICIANS DIALYSIS-FITCHBURG","551 ELECTRIC AVENUE","FITCHBURG",MA,"014205371","027",42.56827661058186,-71.81645565388716,"9783434100","00-03","09-01",true,,,"01",,
"332589","1548251218","KEW GARDENS DIALYSIS CENTER","120-46 QUEENS BLVD","KEW GARDENS",NY,"114151204","081",40.713046750000004,-73.82883907460155,"7187933341","00-03","09-01",true,,,"02",,
"332593","1215928981","REPLACEMENT ASSOCIATES, LLC","210 E 86TH ST 3RD FLOOR","NEW YORK",NY,"100283138",,40.7127281,-74.0060152,"2127942850","00-03",,,,,,,
"362653","1730190844","KIDNEY CENTER OF COLUMBUS EAST","1805 EAST MAIN STREET","COLUMBUS",OH,"432052207","049",39.957373636363634,-82.95042563636365,"6142533300","00-03","09-01",true,,,"05",,
"362654","1720059892","US RENAL CARE DEFIANCE DIALYSIS","220 STADIUM DRIVE","DEFIANCE",OH,"435124609","039",41.30194747998895,-84.35707388434926,"4197842100","00-03","09-01",true,,,"05",,
"442501","1215049044","NATIONAL MEDICAL CARE INC","100 TECHNOLOGY LN","JOHNSON CITY",TN,"376042004",,36.3134398,-82.3534728,"4239297181","00-03",,,,,,,
"112714","1255373437","NEPHROLOGY CENTERS OF AMERICA- SOUTH AUGUSTA","1649 GORDON HIGHWAY","AUGUSTA",GA,"309062220","245",33.43934945454546,-82.01954821212122,"7067961236","00-03","09-01",true,,,"04",,
"112722","1194772947","NCA - AUGUSTA","1000 TELFAIR STREET","AUGUSTA",GA,"309012208","245",33.47317,-81.971617,"7067740130","00-03","09-01",true,,,"04",,
"142633","1275502437","ILLINI RENAL DIALYSIS","1004 W ANTHONY DR","CHAMPAIGN",IL,"618211205","019",40.13618925,-88.26195314454858,"2173787800","00-03","09-01",true,,,"05",,
"382543","1073625877","FMC DIALYSIS SERVICES OF MT HOOD","23335 SE STARK STREET","GRESHAM",OR,"970308014","051",45.519155704545454,-122.42272045454546,"5034650424","00-03","09-01",true,,,"10",,
"192616","1477509420","EAST BATON ROUGE DIALYSIS","1333 O'NEAL LANE","BATON ROUGE",GA,"708161957","033",30.5535214,-91.113717,"2252261444","00-03","09-01",true,,,"06",,
"052706","1689648206","ATWATER DIALYSIS","1201 COMMERCE AVE","ATWATER",CA,"953015224","047",37.34293348910387,-120.61089493401013,"2093587681","00-03","09-01",true,,,"09",,
"192531","1497862130","FRESENIUS MEDICAL CARE NEW ORLEANS","630 DECKBAR AVENUE","JEFFERSON",LA,"701212312","051",29.968415450000002,-90.14700799918393,"5048370021","00-03","09-01",true,,,"06",,
"392702","1396707113","PDI - WALNUT TOWER","834 WALNUT STREET","PHILADELPHIA",PA,"191075109","101",39.94816978947368,-75.15554310526316,"2156291490","00-03","09-01",true,,,"03",,
"552503","1316059116","FMC DIALYSIS SERVICES OF SANTA ROSA NORTH","487 AVIATION BLVD, SUITE 110","SANTA ROSA",CA,"954031069","097",38.517561,-122.79159654060143,"7075681755","00-03","09-01",true,,,"09",,
"332562","1467445601","GREEN MANOR DIALYSIS CENTER LLC","30 WHITTIER WAY","GHENT",NY,"120753216",,42.3292525,-73.6156736,"5188280717","00-03",,,,,,,
"552508","1780796581","FMC DIALYSIS SERVICES OF WOODLAND HILLS","19836 VENTURA BLVD SUITE C","WOODLAND HILLS",CA,"913642661","037",34.168534,-118.6065351,"8187139040","00-03","09-01",true,,,"09",,
"192650","1295768687","DIALYSIS CLINIC, INC - EAST SHREVEPORT","102 ARDMORE AVENUE","SHREVEPORT",LA,"711052108","017",32.47812969571541,-93.71815257208532,"3188615051","00-03","09-01",true,,,"06",,
"053525","1821179656","COMMUNITY DIALYSIS CENTER -FRESNO","215 N FRESNO STREET, STE 150","FRESNO",CA,"937012304","019",36.745299122697844,-119.78163359927943,"5594593901","00-03","09-01",true,,,"09",,
"452644","1558473439","CLEBURNE DIALYSIS CENTER","160 JACK BURTON HWY","CLEBURNE",TX,"760317711","251",32.357365099999996,-97.40912169631659,"8175581593","00-03","09-01",true,,,"06",,
"242552","1346403789","HOME DIALYSIS UNIT OF TOTAL RENAL CARE INC","825 SOUTH EIGHTH STREET, SUITE 1202","MINNEAPOLIS",MN,"554041223","053",44.9772995,-93.2654692,"6123474458","00-03","09-01",true,,,"05",,
"163507","1881679371","UIHC GRINNELL DIALYSIS CENTER","803 BROAD STREET","GRINNELL",IA,"501122153","157",41.7416015,-92.724226,"6412367419","00-03","09-01",true,,,"07",,
"052899","1982675682","U S RENAL CARE LOS ANGELES DIALYSIS","2100 W 3RD ST, SUITE 110 & 105","LOS ANGELES",CA,"900171896","037",34.062902,-118.272774,"2134813041","00-03","09-01",true,,,"09",,
"362657","1194830950","RENAL CARE GROUP AT MT CARMEL EAST","85 MCNAUGHTEN ROAD, SUITE 140","COLUMBUS",OH,"432135113","049",39.97801931013958,-82.83646599185512,"6143220433","00-03","09-01",true,,,"05",,
"452707","1285697250","CIELO VISTA DIALYSIS","7200 GATEWAY EAST SUITE B","EL PASO",TX,"799151301","141",31.6189995,-106.2128841,"9157716893","00-03","09-01",true,,,"06",,
"452720","1538123120","WEST TEXAS  DIALYSIS","5595 ALAMEDA AVE, STE B","EL PASO",TX,"799052915","141",31.768081675891743,-106.42289579613097,"9155779393","00-03","09-01",true,,,"06",,
"452651","1972566040","CENTRAL CITY DIALYSIS CTR-SMAD","1310 MURCHISON DR SUITE 200","EL PASO",TX,"799024821","141",31.77865626164511,-106.48679932657487,"9155452391","00-03","09-01",true,,,"06",,
"102687","1386750164","ARA AVENTUREA, LLC DBA FRESENIUS KIDNEY CARE AVENT","19056 NE 29TH AVE","AVENTURA",FL,"331802802","086",25.9518845,-80.1445907,"3056929006","00-03","09-01",true,,,"04",,
"482500","1518964477","HEALTHQUEST, LLC","5134 SUNDIAL PARK","CHRISTIANSTED",VI,"008204697",,17.7439481,-64.7079823,"3407733227","00-03",,,,,,,
"192503","1659483493","BIO-MEDICAL APPLICATIONS OF LOUISIANA, LLC","225 N BOLTON AVE","LAFAYETTE",LA,"705065906",,29.9978185,-83.2221527,"3184871063","00-03",,,,,,,
"102795","1336251172","BIO-MEDICAL APPLICATIONS OF FLORIDA, INC.","4965 LE CHALET BLVD","BOYNTON BEACH",FL,"334361416",,26.5256179,-80.0666026,"5617345585","00-03",,,,,,,
"182561","1154300564","NRA-PRINCETON, KENTUCKY, LLC","401 S JEFFERSON ST","PRINCETON",KY,"424452113",,37.104332,-87.884875,"2703657588","00-03",,,,,,,
"192656","1942225636","DIALYSIS CLINIC INC - CROWLEY","1325 WRIGHT AVE","CROWLEY",LA,"705262226","001",30.225585020408165,-92.364675,"3377881990","00-03","09-01",true,,,"06",,
"012607","1861483281","ROANOKE DIALYSIS CLINIC","4455 US HIGHWAY 431","ROANOKE",AL,"362742603","111",33.1505606,-85.37153,"3348638365","00-03","09-01",true,,,"04",,
"552505","1437123643","FRESNO PALM BLUFFS DIALYSIS","770 WEST PINEDALE","FRESNO",CA,"937115744","019",36.84348365658706,-119.8115614535824,"5594388512","00-03","09-01",true,,,"09",,
"142644","1891707196","OAK PARK KIDNEY CENTER LLC","610 S MAPLE AVE","OAK PARK",IL,"603042816",,41.87782810131876,-87.80390888175558,"7086604100","00-03",,,,,,,
"452830","1679684567","KIDNEY CENTER OF JASPER","930 MARVIN HANCOCK DRIVE","JASPER",TX,"759514752","241",30.912461953398992,-94.00800015682694,"4093844200","00-03","09-01",true,,,"06",,
"392677","1033150735","BUTLER COUNTY DIALYSIS CENTER","111 WOODY DRIVE","BUTLER",PA,"160017603","019",40.86108,-79.895197,"7244312241","00-03","09-01",true,,,"03",,
"362322","1992779698","FIRELANDS DIALYSIS CENTER","904 PIERCE STREET","SANDUSKY",OH,"448704600","043",41.43772092750947,-82.71413770911451,"4195577228","00-03","09-01",true,,,"05",,
"362649","1194834903","MID - AMERICA DIALYSIS,LLC","2355 S HAMILTON RD","COLUMBUS",OH,"432324305",,39.92645090476191,-82.87971947619047,"6143671679","00-03",,,,,,,
"232592","1548221047","DOWNRIVER KIDNEY CENTER","5600 ALLEN ROAD","ALLEN PARK",MI,"481012604","163",42.262249,-83.203549,"3133825933","00-03","09-01",true,,,"05",,
"202509","1225061708","DIALYSIS CLINIC, INC","27 RESEARCH DRIVE","SKOWHEGAN",ME,"049765153","025",44.7536041,-69.7061192,"2074746002","00-03","09-01",true,,,"01",,
"142520","1922013895","FMC OF WESTCHESTER","2400 WOLF ROAD SUITE 101A","WESTCHESTER",IL,"601545635","031",41.843674,-87.901257,"7084097780","00-03","09-01",true,,,"05",,
"052877","1356351670","YUBA SUTTER DIALYSIS","2115 E ONSTOTT RD","YUBA CITY",CA,"959911587","101",39.16085028571429,-121.63461857142858,"5306736656","00-03","09-01",true,,,"09",,
"112730","1194704957","NRA NEWNAN ACQUISITION, LLC","101 WERZ INDUSTRIAL BLVD","NEWNAN",GA,"302635803",,33.40253766176471,-84.76356614705882,"7702517896","00-03",,,,,,,
"142530","1538275466","FRESENIUS MEDICAL CARE WEST SUBURBAN","518 N AUSTIN AVE FL 5","OAK PARK",IL,"603022507","031",41.8878145,-87.7887615,"7083865550","00-03","09-01",true,,,"05",,
"052671","1154384121","UNITED DIALYSIS CENTER","3111 LONG BEACH BLVD","LONG BEACH",CA,"908075015","037",33.813737897959186,-118.18938818367347,"5624274006","00-03","09-01",true,,,"09",,
"552513","1902870330","COLLEGE DIALYSIS","6035 UNIVERSITY AVENUE","SAN DIEGO",CA,"921155810","073",32.751963,-117.066187,"6192878796","00-03","09-01",true,,,"09",,
"222550","1508875212","BIO-MEDICAL APPLICATIONS OF MASSACHUSETTS, INC.","133 BRIMBAL AVE","BEVERLY",MA,"019151856",,42.5740254,-70.87695718097896,"9789212052","00-03",,,,,,,
"392653","1841394624","FRESENIUS MEDICAL CARE CITY LINE DIALYSIS","2601 NORTH 3RD STREET","HARRISBURG",PA,"171101901","043",40.287271,-76.899441,"7179099450","00-03","09-01",true,,,"03",,
"442637","1679529267","RENAL CARE OF CENTRAL MEMPHIS","1331 UNION AVENUE SUITE 101","MEMPHIS",TN,"381047559","157",35.136801339655264,-90.0171253286216,"9012785400","00-03","09-01",true,,,"04",,
"202508","1336165315","BIO-MEDICAL APPLICATIONS OF MAINE, INC.","73 ALLEN ST","WILTON",ME,"042943052",,44.5819695,-70.22529846436686,"2076452102","00-03",,,,,,,
"232605","1609837103","DAVISON DIALYSIS","1011 S STATE STREET","DAVISON",MI,"484231903","049",43.0346872,-83.5180155,"8106588224","00-03","09-01",true,,,"05",,
"552511","1811950918","ROSEMEAD SPRINGS DIALYSIS CENTER","3212 ROSEMEAD BLVD","EL MONTE",CA,"917312807","037",34.06577968705787,-118.06807203860271,"6265555555","00-03","09-01",true,,,"09",,
"222557","1144239856","BIO-MEDICAL APPLICATIONS OF MASSACHUSETTS, INC.","42 WRIGHT ST","PALMER",MA,"010691156",,42.16860706230922,-72.34130803039608,"4132840700","00-03",,,,,,,
"452374","1578688834","RAYMONDVILLE DIALYSIS CENTER","FM 3168 894","VERNON",TX,"763844097","489",34.1513105,-99.2860857,"9566899084","00-03","09-01",true,,,"06",,
"452835","1245346048","BEAUMONT KIDNEY CENTER","1085 S 23RD STREET","BEAUMONT",TX,"777074201","245",30.06591572796926,-94.14292007823813,"4098402020","00-03","09-01",true,,,"06",,
"452857","1184639957","HOME KIDNEY CARE LLC","6200 LBJ FREEWAY SUITE 100","DALLAS",TX,"752406355","113",32.87738,-96.687091,"9725666977","00-03","09-01",true,,,"06",,
"102794","1093730806","ARA WEST JACKSONVILLE LLC","425 N LEE ST STE 103","JACKSONVILLE",FL,"322041128","031",30.3278825,-81.6704975,"9045982711","00-03","09-01",true,,,"04",,
"332607","1598746257","CHINATOWN DIALYSIS CENTER LLC","213 HESTER ST","NEW YORK",NY,"100134966",,40.75026105,-73.96719495826338,"2129250404","00-03",,,,,,,
"362661","1154333128","KIDNEY CENTER OF COLUMBUS SOUTH","2046 LOCKBOURNE ROAD","COLUMBUS",OH,"432071462","049",39.92356170833333,-82.96521025,"6144497300","00-03","09-01",true,,,"05",,
"452862","1962514851","BIO-MEDICAL APPLICATIONS OF TEXAS INC.","4740 W BELLFORT ST STE A","HOUSTON",TX,"770353434",,29.67028465,-95.46125411681103,"8327423557","00-03",,,,,,,
"252537","1285746032","BIO-MEDICAL APPLICATIONS OF MISSISSIPPI, INC.","570 DEERFIELD DR","FOREST",MS,"390746005",,32.3645888,-89.4742348,"6014693390","00-03",,,,,,,
"052897","1174586226","TUSTIN DIALYSIS","2090 N TUSTIN AVENUE SUITE 100","SANTA ANA",CA,"927057869","059",33.76457400671141,-117.83586594630872,"7148352450","00-03","09-01",true,,,"09",,
"162500","1295788214","TRI-STATE DIALYSIS","1515 DELHI","DUBUQUE",IA,"520016319","061",42.49760268826855,-90.68588185014715,"5635894033","00-03","09-01",true,,"162500","07",,
"232588","1568424455","PHYSICIANS DIALYSIS - GRAND RAPIDS EAST","1230 ELKHART STREET NE","GRAND RAPIDS",MI,"495031372","081",42.9831778,-85.6392073,"6167428930","00-03","09-01",true,,,"05",,
"232563","1699736116","PDI-GRAND HAVEN","16964 ROBBINS RD","GRAND HAVEN",MI,"494172796","139",43.044654084642225,-86.20939405424679,"6168472825","00-03","09-01",true,,,"05",,
"232565","1508827023","PHYSICIANS DIALYSIS - GRAND RAPIDS","801 CHERRY STREET SE","GRAND RAPIDS",MI,"495061440","081",42.959635,-85.649208,"6164585100","00-03","09-01",true,,,"05",,
"052699","1811917362","HIGH DESERT HEMODIALYSIS, INC.","1007 W AVENUE M14","PALMDALE",CA,"935511443",,34.5793131,-118.1171108,"6612657810","00-03",,,"A85704",,,,
"012520","1407968258","BIO-MEDICAL APPLICATIONS OF ALABAMA, INC.","606 BOTTS AVE","TROY",AL,"360813802",,31.78439634512288,-85.94996975584493,"3344345193","00-03",,,,,,,
"392327","1053471656","UPMC PRESBYTERIAN SHADYSIDE","200 LOTHROP ST","PITTSBURGH",PA,"152132536",,40.4427264,-79.96064674678031,"4124325500","00-03",,,,,,,
"442651","1265411300","CHATTANOOGA KIDNEY CENTERS, LLC","2118 STEIN DRIVE","CHATTANOOGA",TN,"374211691",,35.034484899999995,-85.16334262995639,"4236484900","00-03",,,,,,,
"502541","1831153980","YAKIMA DIALYSIS CENTER","1221 NORTH 16TH AVENUE","YAKIMA",WA,"989021347","077",46.61729892856579,-120.53029928911592,"5094578333","00-03","09-01",true,,,"10",,
"342627","1801855366","CHARLOTTE EAST DIALYSIS","5627 ALBEMARLE ROAD","CHARLOTTE",NC,"282123611","119",35.20409912108872,-80.75232067931341,"7045311990","00-03","09-01",true,,,"04",,
"262599","1790746246","ST PETERS DIALYSIS","300 FIRST EXECUTIVE AVENUE, SUITE A","ST PETERS",MO,"633761655","183",38.793845250000004,-90.58500390597695,"6364416070","00-03","09-01",true,,,"07",,
"182562","1215960687","BIO-MEDICAL APPLICATIONS OF KENTUCKY, INC.","965 TOWNHILL PLZ","GREENUP",KY,"411446159",,38.5108112,-82.9180186,"6064730410","00-03",,,,,,,
"112711","1992774939","IRIS CITY DIALYSIS","521 N EXPRESSWAY , STE 1509","GRIFFIN",GA,"302232073","255",33.25035490909091,-84.28710789393939,"7702283177","00-03","09-01",true,,,"04",,
"342617","1326265695","CAROLINA DIALYSIS - PITTSBORO","480 HILLSBOROUGH STREET","PITTSBORO",NC,"273129497","037",35.7201229,-79.1771539,"9195450019","00-03","09-01",true,,,"04",,
"552526","1548231608","U S RENAL CARE GRAND AVENUE DIALYSIS","1400 SOUTH GRAND AVENUE #105","LOS ANGELES",CA,"900153048","037",34.037047,-118.265365,"2138671111","00-03","09-01",true,,,"09",,
"222560","1770525024","SPRINGFIELD DIALYSIS CENTER","90 CAREW STREET UNIT A","SPRINGFIELD",MA,"011043405","013",42.1018764,-72.5886727,"4137369600","00-03","09-01",true,,,"01",,
"382310","1073686689","RAY YASUI DIALYSIS CENTER","1125 MAY STREET, SUITE 302","HOOD RIVER",OR,"970311526","027",45.70418548979592,-121.5226567755102,"5413876377","00-03","09-01",true,,,"10",,
"032598","1104928373","RENAL CARE GROUP - MAMMOTH","14786 SOUTH STATE HIGHWAY 77","MAMMOTH",AZ,"85618","021",32.722568,-110.6406547,"5204870150","00-03","09-01",true,,,"09",,
"552507","1710923677","U S RENAL CARE SHERMAN OAKS DIALYSIS","4955 VAN NUYS BLVD, SUITE 111","SHERMAN OAKS",CA,"914031850","037",34.1601361,-118.4490409,"8187893659","00-03","09-01",true,,,"09",,
"052787","1568436806","ALAMEDA COUNTY DIALYSIS","10700 MACARTHUR BLVD, BUILDING 7","OAKLAND",CA,"946055298","001",37.741811,-122.150371,"5106339844","00-03","09-01",true,,,"09",,
"052734","1073587697","ANAHEIM DIALYSIS","1341 W LA PALMA AVE","ANAHEIM",CA,"928012817","059",33.84760285,-117.93702847521361,"7145022400","00-03","09-01",true,,,"09",,
"052505","1881668093","FULLERTON DIALYSIS","238 ORANGEFAIR MALL","FULLERTON",CA,"928323037","059",33.8580144,-117.9250185,"7144473045","00-03","09-01",true,,,"09",,
"052597","1740254648","MISSION VIEJO DIALYSIS","27640 MARGUERITE PARKWAY","MISSION VIEJO",CA,"926923604","059",33.56167531491897,-117.65831231585695,"9493472433","00-03","09-01",true,,,"09",,
"052584","1639143332","MERCED DIALYSIS","3393 G STREET STE A","MERCED",CA,"953401308","047",37.326325,-120.46926149999999,"2097230439","00-03","09-01",true,,,"09",,
"052810","1427022797","BENICIA DIALYSIS","560 FIRST STREET SUITE D103","BENICIA",CA,"945103293","095",38.049365,-122.1585777,"7077451488","00-03","09-01",true,,,"09",,
"492590","1063422335","WESTHAMPTON DIALYSIS CENTER","5320 PATTERSON AVENUE","RICHMOND",VA,"232261536","087",37.5768403,-77.509521205091,"8042853394","00-03","09-01",true,,,"03",,
"052541","1639143431","PALM SPRINGS DIALYSIS","1061 N INDIAN CANYON DRIVE","PALM SPRINGS",CA,"922624854","065",33.83710295929609,-116.545698,"7603250909","00-03","09-01",true,,,"09",,
"052614","1235103599","AUBURN DIALYSIS","3126 PROFESSIONAL DRIVE, SUITE 100 & 150","AUBURN",CA,"956032411","061",38.8945939,-121.0739897,"5308230676","00-03","09-01",true,,,"09",,
"052808","1962476606","SADDLEBACK DIALYSIS","23141 PLAZA POINTE DRIVE","LAGUNA HILLS",CA,"926531425","059",33.6261468,-117.722919,"9495889211","00-03","09-01",true,,,"09",,
"052883","1568437978","SAN DIEGO EAST DIALYSIS","292 EUCLID AVENUE, SUITE 100","SAN DIEGO",CA,"921143629","073",32.70748351268202,-117.08509980246625,"6192627225","00-03","09-01",true,,,"09",,
"052756","1356315329","ENCINITAS DIALYSIS","332 SANTA FE DRIVE, SUITE 100","ENCINITAS",CA,"920245143","073",33.039524,-117.2849276,"7606322323","00-03","09-01",true,,,"09",,
"450465","1679678767","MATAGORDA COUNTY HOSPITAL DISTRICT","104 7TH ST","BAY CITY",TX,"774143538",,28.9811047,-95.9926077661926,"9792456383","00-03",,,,,,,
"382527","1255443156","PNRS HOLLYWOOD DIALYSIS CENTER","2824 NE WASCO STREET, SUITE 100","PORTLAND",OR,"972321772","051",45.532247265306125,-122.63685589795918,"5034938227","00-03","09-01",true,,,"10",,
"052525","1902870298","ESCONDIDO DIALYSIS","203 E SECOND AVENUE","ESCONDIDO",CA,"920254212","073",33.121320850000004,-117.07908336910464,"7607434401","00-03","09-01",true,,,"09",,
"052799","1093780017","SAN DIEGO SOUTH DIALYSIS","995 GATEWAY CENTER DRIVE SUITE 101","SAN DIEGO",CA,"921024550","073",32.7139219,-117.1142408,"6192621960","00-03","09-01",true,,,"09",,
"112738","1679685499","BIO-MEDICAL APPLICATIONS OF GEORGIA, INC.","1392 BELLS FERRY RD","MARIETTA",GA,"300666084",,33.9916738,-84.5507284,"7705283898","00-03",,,,,,,
"052648","1447226204","SAN JUAN CAPISTRANO SOUTH DIALYSIS","31736 RANCHO VIEJO RD, SUITE B & C","SAN JUAN CAPISTRANO",CA,"926752783","059",33.502616149999994,-117.65249318810493,"9492401454","00-03","09-01",true,,,"09",,
"052866","1295700201","SAN YSIDRO DIALYSIS","1445 30TH STREET, SUITE  A & B","SAN DIEGO",CA,"921543496","073",32.57035373006026,-117.06588143667751,"6195753901","00-03","09-01",true,,,"09",,
"052805","1881668796","GRASS VALLEY DIALYSIS","360 CROWN POINT CIRCLE, SUITE 210","GRASS VALLEY",CA,"959452543","057",39.220433989425025,-121.0291632764333,"5304770734","00-03","09-01",true,,,"09",,
"052776","1265406045","HI DESERT DIALYSIS","56845 TWENTYNINE PALMS HIGHWAY","YUCCA VALLEY",CA,"922842940","071",34.1236205,-116.4139839,"7602282045","00-03","09-01",true,,,"09",,
"052643","1558337352","TOWER DIALYSIS","8635 WEST THIRD ST STE 560 WEST","LOS ANGELES",CA,"900486110","037",34.0536909,-118.242766,"3108551742","00-03","09-01",true,,,"09",,
"052641","1972577914","HUNTINGTON BEACH DIALYSIS","16892 BOLSA CHICA AVENUE","HUNTINGTON BEACH",CA,"926493571","059",33.6783336,-118.0000166,"7148462102","00-03","09-01",true,,,"09",,
"052666","1104891068","TULARE DIALYSIS","545 EAST TULARE","TULARE",CA,"932744220","107",36.19189242423332,-119.34042851994327,"5596888991","00-03","09-01",true,,,"09",,
"052696","1487629382","VISALIA DIALYSIS","5429 W CYPRESS AVE","VISALIA",CA,"932778341","107",36.32509532117948,-119.35335658448756,"5597389279","00-03","09-01",true,,,"09",,
"192633","1194837963","BIO-MEDICAL APPLICATIONS OF LOUISIANA, LLC","108 W HILL ST","FARMERVILLE",LA,"712413208",,32.77124785714286,-92.4060245,"3183683337","00-03",,,,,,,
"052828","1013981984","LOS ANGELES DOWNTOWN DIALYSIS","2021 SOUTH FLOWER STREET","LOS ANGELES",CA,"900071342","037",34.03223791836735,-118.2719277755102,"2137454222","00-03","09-01",true,,,"09",,
"262578","1902867203","CAMERON DIALYSIS","1003 WEST FOURTH STREET","CAMERON",MO,"644291466","049",39.7406116,-94.2376137,"8166326056","00-03","09-01",true,,,"07",,
"442577","1902918717","BIO-MEDICAL APPLICATIONS OF TENNESSEE, INC.","2002 BROOKSIDE DR STE 101","KINGSPORT",TN,"376604634",,36.5514274,-82.515733,"4232456464","00-03",,,,,,,
"372530","1093777344","HEARTLAND DIALYSIS","925 NORTHEAST 8TH STREET","OKLAHOMA CITY",OK,"731045800","109",35.47600448979592,-97.49651991836734,"4052363043","00-03","09-01",true,,,"06",,
"192521","1396857132","BMA MARRERO","7325 WESTBANK EXPRESSWAY","MARRERO",LA,"700722448","051",29.8936189,-90.1290302,"5043416699","00-03","09-01",true,,,"06",,
"282512","1962464388","DODGE COUNTY DIALYSIS","1949 EAST 23RD AVENUE S","FREMONT",NE,"680252452","053",41.4509293557047,-96.47256491275168,"4027217005","00-03","09-01",true,,,"07",,
"282516","1891757233","OMAHA CENTRAL DIALYSIS","144 SOUTH 40TH STREET","OMAHA",NE,"681313004","055",41.257999850000004,-95.97356070000001,"4025580818","00-03","09-01",true,,,"07",,
"282514","1699737049","SORENSEN PARK DIALYSIS","6212 N 73RD PLAZA, SUITE 100","OMAHA",NE,"681341801","055",41.3134732,-96.0256227,"4025714147","00-03","09-01",true,,,"07",,
"282511","1750343109","OMAHA SOUTH DIALYSIS","3339 L STREET","OMAHA",NE,"681072500","055",41.2121516122449,-95.96305148979592,"4027340772","00-03","09-01",true,,,"07",,
"282506","1902868367","OMAHA WEST DIALYSIS","13014 WEST DODGE ROAD","OMAHA",NE,"681542148","055",41.2634162,-96.0677085,"4024458950","00-03","09-01",true,,,"07",,
"452641","1003879180","BRENHAM DIALYSIS","2815 HIGHWAY 36 SOUTH","BRENHAM",TX,"778338143","477",30.1668828,-96.3977442,"9792517287","00-03","09-01",true,,,"06",,
"452550","1306809454","BRIARCREST DIALYSIS","1640 BRIARCREST DRIVE SUITE 100","BRYAN",TX,"778022709","041",30.651224591521604,-96.34092056871884,"9792604908","00-03","09-01",true,,,"06",,
"192577","1255443081","BIO-MEDICAL APPLICATIONS OF LOUISIANA, LLC","151 SANDIFER LN","PINEVILLE",LA,"713605971",,31.33535863139669,-92.37660840298813,"3184437131","00-03",,,,,,,
"192555","1225140072","BIO-MEDICAL APPLICATIONS OF LOUISIANA, LLC","102 STANDARD ST","BUNKIE",LA,"713221414",,30.951681040816325,-92.174996,"3183466348","00-03",,,,,,,
"452663","1851354666","HUNTSVILLE DIALYSIS","521 I-H 45S 45 SUITE 20","HUNTSVILLE",TX,"773405651","471",30.7235263,-95.5507771,"9362955500","00-03","09-01",true,,,"06",,
"452705","1235193905","RELIANT DIALYSIS","1335 LA CONCHA","HOUSTON",TX,"770541809","201",29.691162,-95.409687,"7137940600","00-03","09-01",true,,,"06",,
"452706","1699738377","NORTH LOOP EAST DIALYSIS","7139 N NORTH LOOP EAST","HOUSTON",TX,"770285903","201",29.7589382,-95.3676974,"7136758499","00-03","09-01",true,,,"06",,
"072501","1508831314","BRIDGEPORT DIALYSIS","900 MADISON AVENUE","BRIDGEPORT",CT,"066065534","001",41.193372836246056,-73.20519970449486,"2033350191","00-03","09-01",true,,,"01",,
"072507","1689640997","NEW HAVEN DIALYSIS","96 ORANGE STREET","NEW HAVEN",CT,"065103003","009",41.3052186,-72.9249889,"2037858885","00-03","09-01",true,,,"01",,
"072510","1891761565","SHELTON DIALYSIS","750 BRIDGEPORT AVE","SHELTON",CT,"064844734","001",41.2723469,-73.125493,"2039259520","00-03","09-01",true,,,"01",,
"072511","1689640419","GREATER WATERBURY DIALYSIS","209 HIGHLAND AVENUE","WATERBURY",CT,"067083055","009",41.5516823,-73.057051,"2035747933","00-03","09-01",true,,,"01",,
"072514","1801862651","MILFORD DIALYSIS","470 BRIDGEPORT AVENUE, SUITE S","MILFORD",CT,"064604167","009",41.2065413,-73.0923992,"2033019040","00-03","09-01",true,,,"01",,
"092513","1598731861","EIGHTH STREET DIALYSIS","920 BLADENSBURG RD NE","WASHINGTON",DC,"200023930","001",38.90260175,-76.98217637542237,"2023990812","00-03","09-01",true,,,"03",,
"262580","1588625255","CHILLICOTHE DIALYSIS","588 E BUSINESS 36","CHILLICOTHE",MO,"646013721","117",39.7948749,-93.5532779,"6607071092","00-03","09-01",true,,,"07",,
"262551","1093776734","HOSPITAL HILL DIALYSIS","900 E 21ST STREET","KANSAS CITY",MO,"641082703","095",39.087533,-94.572947,"8168429286","00-03","09-01",true,,,"07",,
"092519","1427024819","BRENTWOOD DIALYSIS","1231 BRENTWOOD ROAD NE","WASHINGTON",DC,"200181019","001",38.9203004,-76.9888182,"2026363711","00-03","09-01",true,,,"03",,
"262596","1568423150","PLATTE WOODS DIALYSIS","7667 NW PRAIRIE VIEW ROAD","KANSAS CITY",MO,"641511544","165",39.23342323136988,-94.6586974470004,"8167465542","00-03","09-01",true,,,"07",,
"142581","1316916513","JACKSONVILLE DIALYSIS","1515 W WALNUT","JACKSONVILLE",IL,"626501150","137",39.7343037,-90.2288356,"2172433042","00-03","09-01",true,,,"05",,
"262576","1578524104","ST JOSEPH DIALYSIS","5514 CORPORATE DRIVE, SUITE 100","SAINT JOSEPH",MO,"645077754","021",39.754697,-94.764858,"8166711948","00-03","09-01",true,,,"07",,
"142582","1760441976","LINCOLN DIALYSIS","2100 W 5TH ST","LINCOLN",IL,"626569115","107",40.1481349,-89.3636569,"2177326798","00-03","09-01",true,,,"05",,
"392706","1508828302","PDI - EPHRATA","67 WEST CHURCH STREET","STEVENS",PA,"175789203","071",40.2162043,-76.1552256,"7173357399","00-03","09-01",true,,,"03",,
"032543","1023081999","NOGALES DIALYSIS","1605 NORTH INDUSTRIAL PARK DRIVE, SUITE H","NOGALES",AZ,"856214577","023",31.362351789233298,-110.94768761195009,"5202815779","00-03","09-01",true,,,"09",,
"142583","1184683138","LITCHFIELD DIALYSIS","915 ST FRANCIS WAY","LITCHFIELD",IL,"620561775","135",39.18098909395973,-89.64073753691275,"2173242200","00-03","09-01",true,,,"05",,
"032573","1003889973","PASCUA YAQUI TRIBE DIALYSIS","7490 SOUTH CAMINO DE OESTE","TUCSON",AZ,"857469308","019",32.2228765,-110.9748477,"5208796000","00-03","09-01",true,,,"09",,
"142585","1194794487","MATTOON DIALYSIS","6051 DEVELOPMENT DRIVE","CHARLESTON",IL,"619209467","029",39.487783,-88.260913,"2173452550","00-03","09-01",true,,,"05",,
"142586","1720047970","SPRINGFIELD CENTRAL DIALYSIS","600 N GRAND AVE WEST","SPRINGFIELD",IL,"627022538","167",39.81578315,-89.66276642547092,"2177883688","00-03","09-01",true,,,"05",,
"142587","1821057027","DVA RENAL HEALTHCARE INC DBA TAYLORVILLE DIALYSIS","901 W SPRESSER","TAYLORVILLE",IL,"625681831","021",39.548935,-89.294533,"2178245460","00-03","09-01",true,,,"05",,
"142590","1518926781","SPRINGFIELD MONTVALE DIALYSIS","2930 MONTVALE DRIVE SUITE A","SPRINGFIELD",IL,"627045376","167",39.7668671,-89.69263511563878,"2177932781","00-03","09-01",true,,,"05",,
"182519","1417910522","HOPKINSVILLE DIALYSIS","115 NORTH VIRGINIA STREET","HOPKINSVILLE",KY,"422403143","047",36.87018099200312,-87.48451988233677,"2708875622","00-03","09-01",true,,,"04",,
"212516","1508826496","HOWARD COUNTY DIALYSIS","5999 HARPER'S FARM ROAD STE 110E","COLUMBIA",MD,"210443023","027",39.1938429,-76.86460919353361,"4109974244","00-03","09-01",true,,,"03",,
"212528","1477513604","CATONSVILLE DIALYSIS","1581 SULPHUR SPRING ROAD #112","BALTIMORE",MD,"212272599","005",39.24908750868351,-76.68720556005944,"4102427766","00-03","09-01",true,,,"03",,
"212542","1306806260","MERCY DIALYSIS","315 NORTH CALVERT STREET,  SUITE 300","BALTIMORE",MD,"212023611","510",39.2928326,-76.6124004,"4103321122","00-03","09-01",true,,,"03",,
"212556","1346200334","HARBOR PARK DIALYSIS","111 CHERRY HILL ROAD","BALTIMORE",MD,"212251392","510",39.251153349999996,-76.61720000273084,"4103543037","00-03","09-01",true,,,"03",,
"362344","1538106794","CLEVELAND CLINIC CHILDREN'S HOSPITAL FOR REHABILITATION","2801 MARTIN LUTHER KING JR DR","CLEVELAND",OH,"441043815",,41.4826593,-81.60780491447585,"2167211494","00-03",,,,,,,
"032513","1295708808","SELLS DIALYSIS","HIGHWAY 86 MILEPOST 113","SELLS",AZ,"856343030","019",31.9159161,-111.878044,"5203837615","00-03","09-01",true,,,"09",,
"032520","1942274493","SIERRA VISTA DIALYSIS","629 NORTH HIGHWAY 90 BYP, SUITE 6","SIERRA VISTA",AZ,"856352257","003",31.5545973,-110.2997756,"6153416814","00-03","09-01",true,,,"09",,
"032501","1417920034","TUCSON EAST DIALYSIS","6420 EAST BROADWAY, SUITE C300","TUCSON",AZ,"857103534","019",32.2192267,-110.8557252627755,"5207902775","00-03","09-01",true,,,"09",,
"032589","1013981679","TUCSON SOUTH CENTRAL DIALYSIS","2024 EAST IRVINGTON ROAD, SUITE 7","TUCSON",AZ,"857141825","019",32.16320123321854,-110.9416360746174,"5205730200","00-03","09-01",true,,,"09",,
"032500","1861465684","TUCSON WEST DIALYSIS","1780 WEST ANKLAM ROAD","TUCSON",AZ,"857452632","019",32.225885597689164,-111.00416628306104,"5206242220","00-03","09-01",true,,,"09",,
"232539","1669434551","MOTOR CITY DIALYSIS","4727 ST ANTOINE , SUITE 101","DETROIT",MI,"482011461","163",42.3315509,-83.0466403,"3138316842","00-03","09-01",true,,,"05",,
"282518","1154383529","CORNHUSKER DIALYSIS","505 CORNHUSKER RD, SUITE 107","BELLEVUE",NE,"680057911","153",41.15696463265306,-95.92784487755101,"4022922813","00-03","09-01",true,,,"07",,
"232583","1144282492","SCHAEFER DRIVE DIALYSIS","18100 SCHAEFER HIGHWAY","DETROIT",MI,"482352600","163",42.4234857,-83.17979792719512,"3138614354","00-03","09-01",true,,,"05",,
"232600","1508827015","GREENVIEW DIALYSIS","18544 EIGHT MILE ROAD","SOUTHFIELD",MI,"480754194","125",42.4733689,-83.2218731,"2485691729","00-03","09-01",true,,,"05",,
"312548","1508895632","BURLINGTON NORTH DIALYSIS","1164 ROUTE 130 NORTH","BURLINGTON",NJ,"080162954","005",39.9325409,-74.7226665,"6097479840","00-03","09-01",true,,,"02",,
"362587","1689638843","DVA HEALTHCARE RENAL CARE INC","5201 AIRPORT HWY","TOLEDO",OH,"436156800",,41.61655,-83.665107,"4192140540","00-03",,,,,,,
"362614","1346204617","NORTH RIDGE DIALYSIS","6830 NORTH RIDGE ROAD","MADISON",OH,"440572637","085",41.801662200304456,-81.04510683944247,"4404288377","00-03","09-01",true,,,"05",,
"392614","1437111580","ABINGTON DIALYSIS","3940 COMMERCE DRIVE","WILLOW GROVE",PA,"190901705","091",40.1507046,-75.11623055715701,"2158301115","00-03","09-01",true,,,"03",,
"392635","1578525648","WYNCOTE DIALYSIS","1000 EASTON ROAD, SUITE 250","WYNCOTE",PA,"190952934","091",40.0818847,-75.1661265,"2158843398","00-03","09-01",true,,,"03",,
"392662","1760444715","HOMESTEAD DIALYSIS","207 WEST 7TH AVENUE","WEST HOMESTEAD",PA,"151201002","003",40.40541990725093,-79.9140279464391,"4124768700","00-03","09-01",true,,,"03",,
"392682","1417919473","HUNTINGDON VALLEY DIALYSIS","769 HUNTINGDON PIKE","HUNTINGDON VALLEY",PA,"190068362","091",40.1199257,-75.0669352,"2153791788","00-03","09-01",true,,,"03",,
"362563","1427012798","MARIETTA DIALYSIS","1019 PIKE STREET","MARIETTA",OH,"457503500","167",39.40408170362408,-81.41217523928046,"7403762622","00-03","09-01",true,,,"05",,
"442573","1437112026","MEMPHIS CENTRAL DIALYSIS","899 DR MARTIN LUTHER KING JR DRIVE","MEMPHIS",TN,"381261928","157",35.1335022,-89.9668758,"9015251719","00-03","09-01",true,,,"04",,
"442576","1598728180","MEMPHIS EAST DIALYSIS","6029 WALNUT GROVE ROAD, STE C0003","MEMPHIS",TN,"381202112","157",35.13175591836735,-89.85679164285715,"9017473901","00-03","09-01",true,,,"04",,
"442587","1619930153","WILLIAMSON COUNTY DIALYSIS","3983 CAROTHERS PARKWAY SUITE E4","FRANKLIN",TN,"370675936","187",35.9414191,-86.8106232,"6157944423","00-03","09-01",true,,,"04",,
"232562","1649231168","MUSKEGON DIALYSIS","1250 MERCY DRIVE, STE 201","MUSKEGON",MI,"494441830","121",43.20731646403844,-86.21093698333604,"2317370075","00-03","09-01",true,,,"05",,
"242555","1285749036","FMC DIALYSIS SERVICES OF SPIRIT VALLEY","4700 MIKE COLALLILO DRIVE","DULUTH",MN,"558072723","137",46.7729322,-92.1251218,"2186247787","00-03","09-01",true,,,"05",,
"012609","1679546634","EUFAULA DIALYSIS","220 SOUTH ORANGE STREET","EUFAULA",AL,"360271612","005",31.8912717,-85.1454876,"3346880806","00-03","09-01",true,,,"04",,
"302507","1700848819","NASHUA DIALYSIS","38 TYLER STREET","NASHUA",NH,"030602912","011",42.7576825,-71.46043679817339,"6035981665","00-03","09-01",true,,,"01",,
"362518","1033173133","ZANESVILLE DIALYSIS","3120 NEWARK ROAD","ZANESVILLE",OH,"437019659","119",39.975188498281305,-82.05375213612257,"7404542911","00-03","09-01",true,,,"05",,
"522509","1174588933","RIVER CENTER DIALYSIS","117 N JEFFERSON ST","MILWAUKEE",WI,"532026160","079",43.0298663,-87.9045168,"4142253740","00-03","09-01",true,,,"05",,
"522529","1811951627","CEDARBURG DIALYSIS","N54 W6135 MILL ST","CEDARBURG",WI,"530122021","089",43.2966545,-87.9875348,"2623768011","00-03","09-01",true,,,"05",,
"442511","1023070653","COOKEVILLE DIALYSIS","320 N WILLOW AVENUE","COOKVILLE",TN,"385012337","141",44.4006749,-64.5364382,"9315287483","00-03","09-01",true,,,"04",,
"442539","1104888726","COLUMBIA DIALYSIS","1705 GROVE ST","COLUMBIA",TN,"384013517","119",35.603661,-87.053301,"9313814445","00-03","09-01",true,,,"04",,
"442540","1558324095","WHITEBRIDGE DIALYSIS","103 WHITE BRIDGE ROAD SUITE #6","NASHVILLE",TN,"372094539","037",36.1622767,-86.7742984,"6153525535","00-03","09-01",true,,,"04",,
"522502","1144285917","WISCONSIN AVENUE DIALYSIS","3801 W WISCONSIN AVE","MILWAUKEE",WI,"532083155","079",43.03885744627274,-87.96138404936409,"4149378240","00-03","09-01",true,,,"05",,
"232572","1760443279","LUDINGTON DIALYSIS","7 N ATKINSON DRIVE, SUITE 210","LUDINGTON",MI,"494311953","105",43.9572190997083,-86.42924751669362,"2318437060","00-03","09-01",true,,,"05",,
"522507","1720042559","LOOMIS ROAD DIALYSIS","4120 W LOOMIS RD","GREENFIELD",WI,"532212052","079",42.96426174074074,-87.96619566666666,"4147614920","00-03","09-01",true,,,"05",,
"552510","1669433033","CREEKSIDE DIALYSIS CENTER","141 PARKER STREET","VACAVILLE",CA,"956883921","095",38.35840319612837,-121.98980349291716,"7074531325","00-03","09-01",true,,,"09",,
"442649","1023071545","MEMPHIS SOUTH DIALYSIS","1205 MARLIN ROAD","MEMPHIS",TN,"381165812","157",35.033875,-90.02469180173912,"9013466637","00-03","09-01",true,,,"04",,
"522532","1881659639","BROOKFIELD DIALYSIS","19395 W CAPITOL DR  BLDG C  SUITE 100","BROOKFIELD",WI,"530452736","133",43.0578479,-88.1261984,"2627810273","00-03","09-01",true,,,"05",,
"492589","1083678320","ALEXANDRIA DIALYSIS","5150 DUKE STREET","ALEXANDRIA",VA,"223042906","510",38.8118503,-77.12150087629675,"7038237940","00-03","09-01",true,,,"03",,
"512519","1457316085","GRAND CENTRAL DIALYSIS","800 GRAND CENTRAL MALL, SUITE 8","VIENNA",WV,"261054100","107",39.30085605,-81.55178831312088,"3049174124","00-03","09-01",true,,,"03",,
"492564","1770547036","DAVITA CHARLOTTESVILLE DIALYSIS","1460 PANTOPS MOUNTAIN PLACE","CHARLOTTESVILLE",VA,"229114600","003",38.029306,-78.4766781,"4349795997","00-03","09-01",true,,,"03",,
"492598","1689638835","HENRICO COUNTY DIALYSIS","5270 CHAMBERLAYNE ROAD","RICHMOND",VA,"232272950","087",37.6037059,-77.4512086,"8042628077","00-03","09-01",true,,,"03",,
"012602","1518930635","RUSSELLVILLE DIALYSIS","14897 HIGHWAY 43","RUSSELLVILLE",AL,"356531954","059",34.5068228,-87.7290264,"2563327044","00-03","09-01",true,,,"04",,
"012585","1164495461","DVA RENAL HEALTHCARE INC","2630 AVENUE E","BIRMINGHAM",AL,"352182163",,33.507141408163264,-86.90175451020409,"2057861371","00-03",,,,,,,
"212634","1972563849","CATONSVILLE NORTH DIALYSIS CENTER","5401 BALTIMORE NATIONAL PIKE","BALTIMORE",MD,"212292102","005",39.29127214141414,-76.71786431818182,"4108694618","00-03","09-01",true,,,"03",,
"473503","1013953280","UNIVERSITY OF VERMONT MEDICAL CENTER INC","35 JOY DR","S BURLINGTON",VT,"054036119",,44.45165205886514,-73.19771108212822,"8028470000","00-03",,,,,,,
"222561","1528077237","BIO-MEDICAL APPLICATIONS OF MASSACHUSETTS, INC.","336 THOMPSON RD STE 1","WEBSTER",MA,"015701509",,42.02773295,-71.85219758530535,"5089433998","00-03",,,,,,,
"012529","1457324220","FLORENCE DIALYSIS","422 E DR HICKS BLVD, SUITE B","FLORENCE",AL,"356305730","077",34.79981,-87.677251,"2567645050","00-03","09-01",true,,,"04",,
"012589","1508839002","BIRMINGHAM NORTH DIALYSIS","1917 32ND AVENUE NORTH","BIRMINGHAM",AL,"352073333","073",33.550790020408165,-86.8285268979592,"2052979052","00-03","09-01",true,,,"04",,
"112617","1134197296","NORTH FULTON DIALYSIS","1250 NORTH MEADOWS PKWY, STE 120","ROSWELL",GA,"300764914","121",34.02332,-84.360022,"7705692888","00-03","09-01",true,,,"04",,
"112727","1417926486","LORING HEIGHTS DIALYSIS","1741 COMMERCE DRIVE","ATLANTA",GA,"303183107","121",33.80125460284513,-84.41090455884343,"4043527125","00-03","09-01",true,,,"04",,
"112725","1831168749","DVA RENAL HEALTHCARE INC","2240 W ELM ST","WRIGHTSVILLE",GA,"310962016",,32.7288509,-82.73053576000001,"4788648701","00-03",,,,,,,
"523522","1972552909","MAYO CLINIC DIALYSIS LONDON RD","3845 LONDON RD","EAU CLAIRE",WI,"547017815","035",44.778684349157885,-91.46220922613938,"7158383872","00-03","09-01",true,,,"05",,
"212628","1598725731","DVA HEALTHCARE RENAL CARE INC","6304 WOODSIDE CT STE 102","COLUMBIA",MD,"210463217",,39.195817149999996,-76.8538575484252,"4105315390","00-03",,,,,,,
"442549","1437112950","MURFREESBORO DIALYSIS","1644 GATEWAY BOULEVARD","MURFREESBORO",TN,"371292251","149",35.8627078365687,-86.42415499514382,"6158907270","00-03","09-01",true,,,"04",,
"312513","1255360384","CHERRY HILL DIALYSIS","1030 NORTH KINGS HIGHWAY SUITE100","CHERRY HILL",NJ,"080341907","007",39.922644,-75.0016572812859,"8563210111","00-03","09-01",true,,,"02",,
"232607","1629039144","NEWAYGO COUNTY DIALYSIS","1317 W MAIN","FREMONT",MI,"494121478","123",43.0293336,-108.5772551,"2319244535","00-03","09-01",true,,,"05",,
"192598","1144289281","DERIDDER DIALYSIS","239 EAST  FIRST  STREET","DERIDDER",LA,"706344105","011",30.846201,-93.289281,"3374620950","00-03","09-01",true,,,"06",,
"552517","1972544765","ARROYO DIALYSIS","1111 S ARROYO PARKWAY #150","PASADENA",CA,"911053217","037",34.12866540969163,-118.14736969162996,"6264419500","00-03","09-01",true,,,"09",,
"112643","1578532578","DVA RENAL HEALTHCARE INC","2538 MARTIN LUTHER KING JR DR SW","ATLANTA",GA,"303111779",,33.7527838,-84.47087033866933,"4046991300","00-03",,,,,,,
"112638","1316916356","BAXLEY DIALYSIS","539 FAIR STREET","BAXLEY",GA,"315130112","001",31.76915543877551,-82.35111773469387,"9123660202","00-03","09-01",true,,,"04",,
"112596","1770551905","SOUTHERN LANE DIALYSIS","1840 SOUTHERN LANE","DECATUR",GA,"300334033","089",30.8736613,-84.5740953,"4043258884","00-03","09-01",true,,,"04",,
"112535","1376511550","DOUGLAS DIALYSIS","190 WESTSIDE DR., SUITE A","DOUGLAS",GA,"315333534","069",31.510476873580355,-82.8622985846459,"9123843439","00-03","09-01",true,,,"04",,
"112661","1174592174","EFFINGHAM NORTH DIALYSIS","1451 HIGHWAY 21 SOUTH  SUITE A","SPRINGFIELD",GA,"313295244","103",32.3724131,-81.3114988,"9127546098","00-03","09-01",true,,,"04",,
"102752","1306813993","BONITA SPRINGS DIALYSIS","9134 BONITA BEACH RD","BONITA SPRINGS",FL,"341354281","071",26.3305615,-81.8191418,"2399490444","00-03","09-01",true,,,"04",,
"012588","1619940764","SYLACAUGA DIALYSIS","331 JAMES B PAYTON BOULEVARD","SYLACAUGA",AL,"351508064","121",33.178075,-86.283976,"2562494994","00-03","09-01",true,,,"04",,
"012551","1669446092","SHEFFIELD DIALYSIS","1120 JACKSON WAY SUITE 107","SHEFFIELD",AL,"356605770","033",34.7650888,-87.6986407,"2563818004","00-03","09-01",true,,,"04",,
"012592","1821061300","BIRMINGHAM CENTRAL DIALYSIS","728 RICHARD ARRINGTON BLVD, SOUTH","BIRMINGHAM",TN,"352332106","073",29.8248674,-95.2845541,"2052506760","00-03","09-01",true,,,"04",,
"312528","1437189867","SUMMIT DIALYSIS","1139 SPRUCE DRIVE","MOUNTAINSIDE",NJ,"070922221","039",40.68160832967374,-74.3427064939911,"9082327800","00-03","09-01",true,,,"02",,
"192597","1154380228","LAKE CHARLES SOUTHWEST DIALYSIS","300 18TH STREET","LAKE CHARLES",LA,"706017342","019",30.205306,-93.218511,"3374336831","00-03","09-01",true,,,"06",,
"312541","1164451852","OLD BRIDGE DIALYSIS","262 TEXAS ROAD","OLD BRIDGE",NJ,"088574008","023",40.355725164318876,-74.33635648312995,"7325914931","00-03","09-01",true,,,"02",,
"312559","1548299381","EDISON DIALYSIS","29 MERIDIAN ROAD","EDISON",NJ,"088202823","023",40.573339556043976,-74.34742880786293,"7322059883","00-03","09-01",true,,,"02",,
"072521","1538135223","SOUTH NORWALK DIALYSIS","666 WEST AVE","NORWALK",CT,"068504009","001",41.1146841,-73.415614,"2038386017","00-03","09-01",true,,,"01",,
"092517","1851367031","GWU SOUTHEAST DIALYSIS","3857-A PENNSYLVANIA AVENUE SE","WASHINGTON",DC,"200201309","001",38.8830948,-76.9925549,"2025819440","00-03","09-01",true,,,"03",,
"182542","1013970110","SOUTH HILL DIALYSIS","525 ALEXANDRIA PIKE, SUITE 120","SOUTHGATE",KY,"410713243","037",39.0686132,-84.466878,"8594425539","00-03","09-01",true,,,"04",,
"182529","1124081252","CRESTVIEW HILLS DIALYSIS","400 CENTRE VIEW BOULEVARD","CRESTVIEW HILLS",KY,"410173478","117",39.02303808176647,-84.56287602596184,"8593415561","00-03","09-01",true,,,"04",,
"142620","1205805488","RUSHVILLE DIALYSIS","112 SULLIVAN DRIVE","RUSHVILLE",IL,"626811293","169",40.1211577,-90.5631829,"2173222652","00-03","09-01",true,,,"05",,
"182549","1184687824","CHRISTIAN COUNTY DIALYSIS","200 BURLEY AVENUE","HOPKINSVILLE",KY,"422408725","047",36.824926,-87.505534,"2707070701","00-03","09-01",true,,,"04",,
"142599","1336100734","DVA RENAL HEALTHCARE INC DBA DECATUR EASTWOOD DIA","794 EAST WOOD STREET","DECATUR",IL,"625231155","115",39.840484393120114,-88.94640599116411,"2174256403","00-03","09-01",true,,,"05",,
"142619","1154381697","ALTON DIALYSIS","309 HOMER ADAMS PARKWAY","ALTON",IL,"620025929","119",38.9189909,-90.17168611725427,"6184620188","00-03","09-01",true,,,"05",,
"262585","1801857354","ST LOUIS WEST HOME TRAINING","9632 OLIVE BLVD","OLIVETTE",MO,"631323002","189",38.67321695778478,-90.38865316886086,"3145698902","00-03","09-01",true,,,"07",,
"232596","1467414706","ROMULUS DIALYSIS","31470 ECORSE ROAD","ROMULUS",MI,"481741963","163",42.25291648850575,-83.34882254022989,"7347225455","00-03","09-01",true,,,"05",,
"312522","1548299373","EAST ORANGE DIALYSIS","14-20 PROSPECT STREET","EAST ORANGE",NJ,"070172238","013",40.7798098,-74.205324,"9736722025","00-03","09-01",true,,,"02",,
"312558","1912936618","PLAINFIELD DIALYSIS","1200 RANDOLPH ROAD","PLAINFIELD",NJ,"070603361","039",40.607031,-74.409268,"9087576030","00-03","09-01",true,,,"02",,
"442556","1811959430","CLARKSVILLE DIALYSIS","231 HILLCREST DR","CLARKSVILLE",TN,"370435093","125",36.518286814321215,-87.30444187306581,"9316459694","00-03","09-01",true,,,"04",,
"142584","1972562890","MACON COUNTY DIALYSIS","1090 W MCKINLEY","DECATUR",IL,"625263208","115",39.8454163,-88.9524151,"2178779351","00-03","09-01",true,,,"05",,
"232315","1386722924","MCLAREN NORTHERN MICHIGAN","820 ARLINGTON AVE","PETOSKEY",MI,"497702469",,45.38073493962319,-84.9435532060232,"2314874685","00-03",,,,,,,
"392626","1386748150","FMC OF REDSTONE","685B NATIONAL PIKE","BROWNSVILLE",PA,"154179241","051",40.0152107,-79.8747317,"7246325800","00-03","09-01",true,,,"03",,
"162518","1588611107","RENAL CENTER OF STORM LAKE","1426 N LAKE AVE","STORM LAKE",IA,"505881910","021",42.656401858459766,-95.20090886092477,"7127326900","00-03","09-01",true,,,"07",,
"442502","1790712040","DIALYSIS CLINIC INC","935 21ST AVE NORTH","NASHVILLE",TN,"372083454","037",36.16485945708233,-86.80882864990821,"6153277901","00-03","09-01",true,,,"04",,
"052397","1164465548","SAN FRANCISCO GENERAL HOSPITAL RENAL CENTER","1001 POTRERO AVENUE","SAN FRANCISCO",CA,"941103518","075",37.756810349999995,-122.40525322201563,"4152068242","00-03","09-01",true,,,"09",,
"312571","1699721993","RENAL CENTER OF TRENTON","601 HAMILTON AVENUE","TRENTON",NJ,"086291915","021",40.21623875,-74.74130282471253,"6093932388","00-03","09-01",true,,,"02",,
"452594","1134231012","FRESENIUS MEDICAL CARE SOUTHWEST FORT WORTH","4804 BRYANT IRVIN CT","FORT WORTH",TX,"761077640","439",32.714654499999995,-97.41340469643397,"8177388703","00-03","09-01",true,,,"06",,
"192658","1336251164","BIO-MEDICAL APPLICATIONS OF LOUISIANA, LLC","4338 PINES RD","SHREVEPORT",LA,"711197738",,32.45964273469387,-93.86583504081632,"3186210750","00-03",,,,,,,
"012544","1013980747","OZARK DIALYSIS","195 BUNTING DRIVE","OZARK",AL,"363601101","045",31.4584764,-85.6405865,"3347741410","00-03","09-01",true,,,"04",,
"012570","1336112598","NORTHPORT DIALYSIS","2401 HOSPITAL DRIVE","NORTHPORT",AL,"354763392","125",33.23134982584466,-87.56958783499725,"2053398882","00-03","09-01",true,,,"04",,
"012508","1598738080","BIRMINGHAM EAST DIALYSIS","1105 EAST PARK DRIVE","BIRMINGHAM",AL,"352352560","073",33.58689148979592,-86.68085702040817,"2058365157","00-03","09-01",true,,,"04",,
"012543","1477526754","DEMOPOLIS DIALYSIS","305 SOUTH CEDAR AVENUE","DEMOPOLIS",AL,"367322231","091",32.5037359,-87.8354708,"3342899700","00-03","09-01",true,,,"04",,
"102605","1053389536","CENTRAL TAMPA DIALYSIS","4204 N MACDILL AVE - S BLDG","TAMPA",FL,"336076342","057",27.9477595,-82.458444,"8138713202","00-03","09-01",true,,,"04",,
"422591","1114974516","NRA-ORANGEBURG, SOUTH CAROLINA, LLC","1184 ORANGEBURG MALL CIR","ORANGEBURG",SC,"291153439",,33.50982058805978,-80.86309709565096,"8035317501","00-03",,,,,,,
"422593","1124061809","NRA-HOLLY HILL, SOUTH CAROLINA, LLC","8532 OLD STATE RD","HOLLY HILL",SC,"290598379",,33.2967384,-80.3754978,"8034962800","00-03",,,,,,,
"142580","1245290782","EFFINGHAM DIALYSIS","904 MEDICAL PARK DRIVE, SUITE 1","EFFINGHAM",IL,"624012193","049",39.12783475510204,-88.55401942857142,"2173429558","00-03","09-01",true,,,"05",,
"072517","1174598981","BRANFORD DIALYSIS","249 WEST MAIN STREET","BRANFORD",CT,"064054048","009",41.2775847,-72.8534973,"2034818531","00-03","09-01",true,,,"01",,
"352501","1003809948","KIDNEY INSTITUTE OF ND LLC","1451 44TH AVE S SUITE 112 D","GRAND FORKS",ND,"582013434","035",47.878337,-97.04882895918368,"7017951300","00-03","09-01",true,,,"08",,
"242542","1366557118","FMCNA SHAKOPEE DIALYSIS CENTER","1515 SAINT FRANCIS AVENUE, #150","SHAKOPEE",MN,"553794307","139",44.770158759119354,-93.50332940049054,"9524031038","00-03","09-01",true,,,"05",,
"072516","1356317192","HARTFORD DIALYSIS","675 TOWER AVENUE","HARTFORD",CT,"061121260","003",41.8005191,-72.6934922,"8607142400","00-03","09-01",true,,,"01",,
"392648","1033172556","DCA OF CHAMBERSBURG, INC.","765 5TH AVE","CHAMBERSBURG",PA,"17201",,39.94438300975829,-77.64637398872901,"7172639300","00-03",,,,,,,
"112528","1700855723","AMERICUS DIALYSIS","227 N LEE STREET","AMERICUS",GA,"317093525","261",32.073636,-84.2324121632653,"2299282257","00-03","09-01",true,,,"04",,
"242544","1639284482","FMCNA NEW BRIGHTON DIALYSIS CENTER","2910 CENTRE POINT DRIVE","SAINT PAUL",MN,"551131182","123",44.9497487,-93.0931028,"6516310885","00-03","09-01",true,,,"05",,
"112513","1366411381","ATHENS WEST DIALYSIS","1747 LANGFORD DRIVE BUILDING 500","WATKINSVILLE",GA,"306777370","219",33.8628959,-83.4087709,"7065831785","00-03","09-01",true,,,"04",,
"262536","1427019025","ROLLA DIALYSIS","1503 EAST 10TH ST","ROLLA",MO,"654013696","161",37.951537,-91.744278,"5733646475","00-03","09-01",true,,,"07",,
"262562","1134180680","WASHINGTON SQUARE DIALYSIS","1112 WASHINGTON SQUARE","WASHINGTON",MO,"630905336","071",38.5360015,-91.0042833,"6363908233","00-03","09-01",true,,,"07",,
"262572","1326009937","SHREWSBURY DIALYSIS","7303 WATSON ROAD","SAINT LOUIS",MO,"631194405","189",38.58334033333333,-90.31834633333334,"3147525913","00-03","09-01",true,,,"07",,
"262561","1740241454","FLORISSANT DIALYSIS","10887 W FLORISSANT AVE","SAINT LOUIS",MO,"631362405","189",38.7688206,-90.2806656,"3145245737","00-03","09-01",true,,,"07",,
"262589","1194786814","HAZELWOOD DIALYSIS","637 DUNN ROAD","HAZELWOOD",MO,"630421757","189",38.78133058362643,-90.37025110609113,"3148954419","00-03","09-01",true,,,"07",,
"312517","1699704361","FREEHOLD DIALYSIS","300 CRAIG ROAD","MANALAPAN",NJ,"077268742","025",40.28625875626934,-74.29834853616174,"7323031589","00-03","09-01",true,,,"02",,
"262583","1588625032","ST LOUIS WEST DIALYSIS","400 N LINDBERGH BLVD","ST LOUIS",MO,"631417814","189",38.7764629,-90.3599659,"3149890886","00-03","09-01",true,,,"07",,
"242545","1548375397","FMCNA PARK AVENUE DIALYSIS CENTER","2637 PARK AVENUE","MINNEAPOLIS",MN,"554071006","053",44.9771711,-93.2590608,"6128721946","00-03","09-01",true,,,"05",,
"242546","1922019710","FRESENIUS KIDNEY CARE MORA DIALYSIS","900 FOREST AVENUE EAST","MORA",MN,"550511766","065",45.876485,-93.284925,"3206791250","00-03","09-01",true,,,"05",,
"242534","1457466203","FMCNA SOUTH MINNEAPOLIS DIALYSIS CTR","4310 NICOLLET AVE S","MINNEAPOLIS",MN,"554092033","053",44.92478879591837,-93.278047,"6125615349","00-03","09-01",true,,,"05",,
"382514","1568424711","ROSEBURG/MERCY DIALYSIS","2410 NW EDENBOWER BLVD, SUITE 178","ROSEBURG",OR,"974718830","019",43.235815259259255,-123.3676452345679,"5416724608","00-03","09-01",true,,,"10",,
"382502","1992767149","SALEM DIALYSIS","3550 LIBERTY ROAD S SUITE 100","SALEM",OR,"973025700","047",44.9037735,-123.04974557420448,"5033718047","00-03","09-01",true,,,"10",,
"382530","1063474229","SALEM NORTH DIALYSIS","1220 LIBERTY STREET NE","SALEM",OR,"973017330","047",44.95189151967707,-123.03362586752705,"5033152212","00-03","09-01",true,,,"10",,
"382516","1467414623","WOODBURN DIALYSIS","1840 NEWBERG HWY","WOODBURN",OR,"970713187",,45.150264508763016,-122.86925298237944,"5039822005","00-03",,,,,,,
"372518","1124080486","OKLAHOMA CITY SOUTH DIALYSIS","319 SW 59TH STREET","OKLAHOMA CITY",OK,"731098301","109",35.406298,-97.51767540816327,"4056343708","00-03","09-01",true,,,"06",,
"032556","1447223318","SOUTH YUMA DIALYSIS","7179 EAST 31ST PLACE","YUMA",AZ,"853658392","027",32.6708404,-114.5597624,"9283170517","00-03","09-01",true,,,"09",,
"032502","1821061649","YUMA DIALYSIS","2130 WEST 24TH STREET","YUMA",AZ,"853646122","027",32.684036,-114.64650940816327,"7206312100","00-03","09-01",true,,,"09",,
"262527","1669434544","DEBALIVIERE DIALYSIS","324 DEBALIVIERE AVE","SAINT LOUIS",MO,"631121804","510",38.6319657,-90.2428756,"3143679111","00-03","09-01",true,,,"07",,
"102652","1649382490","BMA OF LIVE OAK","10543 SUWANNEE PLAZA BLVD","LIVE OAK",FL,"320601426","121",30.2949457,-82.98402,"3863646604","00-03","09-01",true,,,"04",,
"392502","1619939311","DVA HEALTHCARE RENAL CARE INC","407 BALTIMORE PIKE","MORTON",PA,"190701042",,47.1086639,-0.0227399,"6106901100","00-03",,,,,,,
"392513","1023071222","WEST PHILADELPHIA DIALYSIS","7609 LINDBERGH BLVD","PHILADELPHIA",PA,"191532301","101",39.903997595959595,-75.24206212121213,"2159371103","00-03","09-01",true,,,"03",,
"392536","1730141896","COBBS CREEK DIALYSIS","1700 SOUTH 60TH ST","PHILADELPHIA",PA,"191421404","101",39.935676,-75.234086,"2157300500","00-03","09-01",true,,,"03",,
"552509","1003879479","WHITTIER DIALYSIS","10055 WHITTWOOD LANE, SUITE A","WHITTIER",CA,"906032313","037",33.9449448,-117.9977171,"5624644722","00-03","09-01",true,,,"09",,
"262530","1356302921","LIBERTY DIALYSIS","2525 GLENN HENDREN DR","LIBERTY",MO,"640689625","047",39.2749812,-94.4240001276834,"8167814422","00-03","09-01",true,,,"07",,
"262504","1790746386","NORTHLAND DIALYSIS","2750 CLAY EDWARDS DR STE 100","N KANSAS CITY",MO,"641163257","047",39.149989182631664,-94.54998386575696,"8168422056","00-03","09-01",true,,,"07",,
"492559","1477517738","ARLINGTON DIALYSIS","4805 FIRST STREET NORTH, SUITE 1","ARLINGTON",VA,"222032603","013",38.8769326,-77.0893094,"7035270652","00-03","09-01",true,,,"03",,
"172509","1679532402","LENEXA DIALYSIS","8630 HALSEY STREET","LENEXA",KS,"662152880","091",38.97230535922065,-94.72749855118938,"9138941100","00-03","09-01",true,,,"07",,
"172536","1902865876","WYANDOTTE WEST DIALYSIS","11014 HASKELL AVENUE","KANSAS CITY",KS,"661094404","209",39.13109324398757,-94.83431540034191,"9137219780","00-03","09-01",true,,,"07",,
"392628","1649232315","SELINSGROVE DIALYSIS","1030 N SUSQUEHANNA TRAIL","SELINSGROVE",PA,"178707767","109",40.8062437,-76.8607084,"7173741160","00-03","09-01",true,,,"03",,
"392580","1093777161","CORRY DIALYSIS","300 YORK STREET","CORRY",PA,"164071420","049",41.923567,-79.652607,"8146647520","00-03","09-01",true,,,"03",,
"052762","1750493557","BIO-MEDICAL APPLICATIONS OF CALIFORNIA INC","1801 HOLSER WALK STE 310","OXNARD",CA,"930365061",,34.220296,-119.157068,"8059883339","00-03",,,,,,,
"392613","1619939477","NORTHUMBERLAND DIALYSIS","103 WEST STATE ROUTE 61","MOUNT CARMEL",PA,"178512575","097",40.7968393,-76.4131097,"5703395558","00-03","09-01",true,,,"03",,
"452612","1770547457","SAGEMONT DIALYSIS","1823 BROADWAY STREET","PEARLAND",TX,"775815605","039",29.5557406,-95.3980828,"2814814577","00-03","09-01",true,,,"06",,
"392523","1225090376","BRADFORD DIALYSIS","665 EAST MAIN STREET","BRADFORD",PA,"167011816","083",41.97076582891694,-78.62081127441033,"8143627417","00-03","09-01",true,,,"03",,
"452677","1770546848","CENTRAL HOUSTON DIALYSIS","610 SOUTH WAYSIDE","HOUSTON",TX,"770114605","201",29.73263095,-95.30987691519756,"7139245971","00-03","09-01",true,,,"06",,
"452584","1063475994","DVA HEALTHCARE RENAL CARE INC","900 S LOOP W","HOUSTON",TX,"770544632",,29.6780486,-95.4128193,"7137480942","00-03",,,,,,,
"342629","1518926195","WAYNESVILLE DIALYSIS CENTER","11 PARK TERRACE DRIVE","CLYDE",NC,"287217445","087",35.5334379,-82.910691,"8286272907","00-03","09-01",true,,,"04",,
"452546","1902869761","KERRVILLE DIALYSIS","515-A GRANADA PLACE","KERRVILLE",TX,"780285992","265",30.0474688,-99.1400207,"8302578734","00-03","09-01",true,,,"06",,
"212545","1033179874","LANDOVER DIALYSIS","1200 MERCANTILE LANE","UPPER MARLBORO",MD,"207745389","033",38.8139804,-76.7575894,"3013226427","00-03","09-01",true,,,"03",,
"452740","1194789859","PEARSALL DIALYSIS","1200 NORTH OAK STREET","PEARSALL",TX,"780613414","163",28.901905240230565,-99.09212897492621,"2103344690","00-03","09-01",true,,,"06",,
"452587","1376506428","SAN ANTONIO WEST DIALYSIS","4530 CALLAGHAN ROAD","SAN ANTONIO",TX,"782282617","029",29.471185265306122,-98.60238240816327,"2104319048","00-03","09-01",true,,,"06",,
"442604","1215990759","TIPTON COUNTY DIALYSIS","107 TENNESSEE AVENUE","COVINGTON",TN,"380193902","167",35.5817084,-89.6569181,"9014750410","00-03","09-01",true,,,"04",,
"442533","1326001959","DYERSBURG DIALYSIS","1575 PARR AVENUE","DYERSBURG",TN,"380243151","045",36.047269574996065,-89.38251320982448,"7312865184","00-03","09-01",true,,,"04",,
"452530","1750345450","SAN JACINTO DIALYSIS","11430 I-10 EAST SUITE 320","HOUSTON",TX,"770291959","201",29.7589382,-95.3676974,"7134504991","00-03","09-01",true,,,"06",,
"452605","1720042351","SOUTHWEST SAN ANTONIO DIALYSIS","1620 SOMERSET RD","SAN ANTONIO",TX,"782113021","029",29.358876102040817,-98.54772989795919,"2109246685","00-03","09-01",true,,,"06",,
"312572","1093753543","RENAL CENTER OF NEWTON, LLC","7 EAST CLINTON STREET","NEWTON",NJ,"078601801","037",41.060626560058324,-74.75079470451817,"9739400965","00-03","09-01",true,,,"02",,
"392641","1124080825","WAYNESBURG DIALYSIS","248 ELM DRIVE","WAYNESBURG",PA,"153708269","059",39.8964641,-80.1792299,"7176273997","00-03","09-01",true,,,"03",,
"392595","1457313231","PARIS DIALYSIS","32 STEUBENVILLE PIKE","PARIS",PA,"150218529","125",48.9004472,2.3937039657714667,"7247293350","00-03","09-01",true,,,"03",,
"392538","1659334985","PHILADELPHIA PMC DIALYSIS","3823 MARKET STREET","PHILADELPHIA",PA,"191043145","101",39.95679226530612,-75.1984393877551,"2152220671","00-03","09-01",true,,,"03",,
"392521","1841253176","PHILADELPHIA 42ND STREET DIALYSIS","4126 WALNUT STREET","PHILADELPHIA",PA,"191043511","101",39.954392224489794,-75.20553967346939,"2153870500","00-03","09-01",true,,,"03",,
"392630","1639131477","RADNOR DIALYSIS","170 N HENDERSON ROAD","KING OF PRUSSIA",PA,"194062155","091",40.09641654008928,-75.36525953333243,"6103376510","00-03","09-01",true,,,"03",,
"222533","1932168879","NORTHEAST CAMBRIDGE DIALYSIS","799 CONCORD AVENUE","CAMBRIDGE",MA,"021381048","017",42.390849395521705,-71.1556550001627,"6175477700","00-03","09-01",true,,,"01",,
"392700","1669434593","MCKEESPORT WEST DIALYSIS","101 9TH ST","MCKEESPORT",PA,"151323953","003",40.34651298596317,-79.86773569204799,"4126723720","00-03","09-01",true,,,"03",,
"222530","1962461988","NEW BEDFORD DIALYSIS","237-B STATE ROAD","NORTH DARTMOUTH",MA,"027472612","005",41.63899,-70.9776723,"5089847700","00-03","09-01",true,,,"01",,
"222520","1184683047","DVA HEALTHCARE OF MASSACHUSETTS INC","23 WARREN AVE","WOBURN",MA,"018017906",,42.47563905,-71.1542359303757,"7819357700","00-03",,,,,,,
"052770","1295700219","SELMA DIALYSIS","2711 CINEMA WAY, SUITE 111","SELMA",CA,"936622677","019",36.573020755906306,-119.62425727132482,"5598912750","00-03","09-01",true,,,"09",,
"222529","1124087150","BROOKLINE DIALYSIS","322 W ASHINGTON STREET","BROOKLINE",MA,"024456850","021",42.3317642,-71.1211635,"6177347794","00-03","09-01",true,,,"01",,
"222542","1891754883","DVA HEALTHCARE OF MASSACHUSETTS INC","10 CABOT RD","MEDFORD",MA,"021555275",,42.40729825,-71.07544137725739,"7813069740","00-03",,,,,,,
"052814","1548236268","TRACY DIALYSIS","425 WEST BEVERLY DRIVE SUITE A","TRACY",CA,"953763086","077",37.7385507,-121.4201395,"2098390398","00-03","09-01",true,,,"09",,
"222543","1235198193","SALEM NORTHEAST DIALYSIS","207 HIGHLAND AVENUE, SUITE 2","SALEM",MA,"019701829","009",42.50526995,-70.91901295536685,"9787443660","00-03","09-01",true,,,"01",,
"222526","1710946637","BOSTON DIALYSIS","660 HARRISON AVENUE","BOSTON",MA,"021182304","025",42.33883795,-71.06986754297593,"6178597000","00-03","09-01",true,,,"01",,
"222517","1083673990","WEYMOUTH DIALYSIS","330 LIBBEY INDUSTRIAL PARK, SUITE 900","WEYMOUTH",MA,"021893122","021",42.2212188,-70.9391625,"7813317700","00-03","09-01",true,,,"01",,
"052550","1629043583","LOMA LINDA UNIV KIDNEY CENTER","11375 ANDERSON STREET","UPLAND",CA,"917864957","071",34.09751,-117.6483876,"9095584225","00-03","09-01",true,,,"09",,
"052561","1861467607","VICTOR VALLEY DIALYSIS","16049 KAMANA ROAD","APPLE VALLEY",CA,"923071331","071",34.54275448326509,-117.27128959265688,"7602428311","00-03","09-01",true,,,"09",,
"052670","1790759744","IMPERIAL DIALYSIS","2738 WEST IMPERIAL HIGHWAY","INGLEWOOD",CA,"903033111","037",33.9562003,-118.353132,"3106727000","00-03","09-01",true,,,"09",,
"052773","1932174844","WESTMINSTER SOUTH DIALYSIS","14014 MAGNOLIA ST","WESTMINSTER",CA,"926834736","059",33.757863,-117.97219657142857,"7148975659","00-03","09-01",true,,,"09",,
"052622","1235104159","EAST LA PLAZA DIALYSIS","1700 CESAR E CHAVEZ AVENUE, SUITE L100","LOS ANGELES",CA,"900332472","037",34.0536909,-118.242766,"3232610484","00-03","09-01",true,,,"09",,
"452868","1265495311","BROOKHOLLOW DIALYSIS","4918 WEST 34TH STREET","HOUSTON",TX,"770926606","201",29.819654,-95.462626,"7136813043","00-03","09-01",true,,,"06",,
"452372","1861415903","CHRISTUS CHILDREN'S KIDNEY CENTER","333 NORTH SANTA ROSA STREET","SAN ANTONIO",TX,"782073108","029",29.42798785,-98.49924330584483,"2107043705","00-03","09-01",true,"452372",,"06",,
"392543","1104888270","ERIE DIALYSIS","350 EAST BAYFRONT PARKWAY SUITE A","ERIE",PA,"165072410","049",42.138559,-80.0813278,"8144540480","00-03","09-01",true,,,"03",,
"052635","1629042148","BAKERSFIELD BRIMHALL DIALYSIS","8501 BRIMHALL ROAD, BLD 500","BAKERSFIELD",CA,"933122258","029",35.368737016722406,-119.09423335117056,"6613876603","00-03","09-01",true,,,"09",,
"052587","1053385500","BERKELEY DIALYSIS","2655 SHATTUCK AVENUE","BERKELEY",CA,"947043237","001",37.86059785,-122.2665382309396,"5106499870","00-03","09-01",true,,,"09",,
"052637","1932173481","BURBANK DIALYSIS","1211 NORTH SAN FERNANDO BLVD","BURBANK",CA,"915044234","037",34.1816482,-118.3258554,"8188425576","00-03","09-01",true,,,"09",,
"052769","1831163245","CHINATOWN DIALYSIS","636 CLAY STREET","SAN FRANCISCO",CA,"941112502","075",37.7948549,-122.4016256,"4152918992","00-03","09-01",true,,,"09",,
"052739","1679547087","CHINO DIALYSIS","4445 RIVERSIDE DRIVE","CHINO",CA,"917103961","071",34.018874,-117.70778,"9094640347","00-03","09-01",true,,,"09",,
"052546","1881668234","DALY CITY DIALYSIS","1498 SOUTHGATE AVENUE, SUITE 101","DALY CITY",CA,"940154015","081",37.67553,-122.475727,"4157554751","00-03","09-01",true,,,"09",,
"052674","1194799544","DELANO DIALYSIS","405 DOVER PARKWAY","DELANO",CA,"932153714","029",35.7506461,-119.2495617,"6617251323","00-03","09-01",true,,,"09",,
"232550","1316909526","GARDEN WEST DIALYSIS","5715 VENOY RD","WESTLAND",MI,"481852830","163",42.3238056,-83.4005321,"7342619418","00-03","09-01",true,,,"05",,
"052682","1326012311","FONTANA DIALYSIS","17590 FOOTHILL BLVD","FONTANA",CA,"923358416","071",34.106762537408365,-117.42085049873978,"9093569664","00-03","09-01",true,,,"09",,
"052608","1851365852","FRESNO DIALYSIS","4308 W SHAW AVE SUITE 101","FRESNO",CA,"937226218","019",36.80833649570863,-119.8697633648774,"5594391845","00-03","09-01",true,,,"09",,
"052632","1578537601","GLENDALE DIALYSIS","1000 E PALMER AVENUE","GLENDALE",CA,"912053532","037",34.13256372220685,-118.24251975409197,"8182416382","00-03","09-01",true,,,"09",,
"212523","1154381663","WHITESQUARE DIALYSIS","1 NASHUA COURT, SUITE E","BALTIMORE",MD,"212213131","005",39.3388477,-76.4682639,"4106875580","00-03","09-01",true,,,"03",,
"052628","1528032505","HANFORD DIALYSIS","402 WEST EIGHT STREET","HANFORD",CA,"932304536","031",36.3274502,-119.6456844,"5595824339","00-03","09-01",true,,,"09",,
"052538","1174597033","INGLEWOOD DIALYSIS","125 EAST ARBOR VITAE","INGLEWOOD",CA,"903013839","037",33.9562003,-118.353132,"3106776114","00-03","09-01",true,,,"09",,
"052738","1134193006","LOS BANOS DIALYSIS","60 G ST, BLDG 5","LOS BANOS",CA,"936353658","047",37.066946590541455,-120.8551065490054,"2098262787","00-03","09-01",true,,,"09",,
"052723","1881668788","MANTECA DIALYSIS","1620 W YOSEMITE AVENUE","MANTECA",CA,"953375190","077",37.7973164,-121.2547185,"2098253905","00-03","09-01",true,,,"09",,
"362647","1427012764","BUTLER COUNTY DIALYSIS","3497 SOUTH DIXIE HIGHWAY","FRANKLIN",OH,"450055717","165",39.534771,-84.319012,"5134221467","00-03","09-01",true,,,"05",,
"362628","1245294412","WESTERN HILLS DIALYSIS","3267 WESTBORNE DRIVE","CINCINNATI",OH,"452485110","061",39.1014537,-84.5124602,"5133470444","00-03","09-01",true,,,"05",,
"362502","1255395455","MT AUBURN DIALYSIS","2109 READING ROAD","CINCINNATI",OH,"452021417","061",39.120018740312425,-84.50027055168023,"5137841800","00-03","09-01",true,,,"05",,
"362611","1699739789","WINTON ROAD DIALYSIS","6550 WINTON ROAD","CINCINNATI",OH,"452241327","061",39.200269,-84.520972,"5135912900","00-03","09-01",true,,,"05",,
"522503","1285698001","JANESVILLE DIALYSIS","1305 WOODMAN RD","JANESVILLE",WI,"535451068","105",42.7003124494382,-89.01058695505618,"6087414181","00-03","09-01",true,,,"05",,
"072523","1306812771","TORRINGTON DIALYSIS","780 LITCHFIELD STREET","TORRINGTON",CT,"067906268","005",41.7915589,-73.1330617,"8604960661","00-03","09-01",true,,,"01",,
"052781","1073587986","NORTH HOLLYWOOD DIALYSIS","12126 VICTORY BOULEVARD","NORTH  HOLLYWOOD",CA,"916063205","037",34.1848921,-118.3597103,"8189805070","00-03","09-01",true,,,"09",,
"052839","1366416273","NORTHEAST  DIALYSIS","3501 MALL VIEW ROAD, SUITE 109","BAKERSFIELD",CA,"933063045","029",35.39483099504426,-118.95417147307877,"6618729836","00-03","09-01",true,,,"09",,
"052729","1447224365","OAKLAND DIALYSIS","5354 CLAREMONT AVENUE","OAKLAND",CA,"946181035","001",37.84034615,-122.25895983974861,"5105970104","00-03","09-01",true,,,"09",,
"052591","1609840347","POMONA DIALYSIS","2111  N GAREY AVENUE","POMONA",CA,"917672328","037",34.08597738103453,-117.75141103679242,"9095969997","00-03","09-01",true,,,"09",,
"052719","1801861893","SAN FRANCISCO DIALYSIS","1499 WEBSTER STREET","SAN FRANCISCO",CA,"941153705","075",37.7790262,-122.419906,"4159289003","00-03","09-01",true,,,"09",,
"362519","1588628846","BLUE ASH DIALYSIS","10600 MCKINLEY ROAD","CINCINNATI",OH,"452423716","061",39.1014537,-84.5124602,"5137338215","00-03","09-01",true,,,"05",,
"212564","1568422459","LAKESIDE DIALYSIS","10401 HOSPITAL DRIVE SUITE G02","CLINTON",MD,"207353113","033",38.74672923333333,-76.8771611,"3018566550","00-03","09-01",true,,,"03",,
"033302","1760480503","PHOENIX CHILDREN'S HOSPITAL","1919 EAST THOMAS ROAD","PHOENIX",AZ,"850061461","013",33.4789195,-112.04107260765934,"6029331000","00-03","01-06",false,,,"09",435,
"312520","1811926504","SHORE DIALYSIS","300 W SYLVANIA AVENUE, SUITE 1","NEPTUNE",NJ,"077536017","025",40.2056755,-74.0463012,"7329883684","00-03","09-01",true,,,"02",,
"212616","1144280736","DUNDALK DIALYSIS","14 COMMERCE STREET","DUNDALK",MD,"212224307","005",39.2574914,-76.5215777,"4102849000","00-03","09-01",true,,,"03",,
"212613","1518927391","PASADENA DIALYSIS","8037 RITCHIE HIGHWAY, SUITE A","PASADENA",MD,"211227121","003",39.1104059,-76.5757059,"4104391390","00-03","09-01",true,,,"03",,
"212595","1023077328","25TH STREET DIALYSIS","920 E 25TH STREET","BALTIMORE",MD,"212185503","510",39.31803985714286,-76.60079920408164,"4102351611","00-03","09-01",true,,,"03",,
"212594","1760442925","BEL AIR DIALYSIS","2225 OLD EMMORTON ROAD, SUITE 100","BEL AIR",MD,"210156122","025",39.495476,-76.3220955,"4105152078","00-03","09-01",true,,,"03",,
"212593","1629038252","SILVER SPRING DIALYSIS","8040 GEORGIA AVENUE, SUITE 150","SILVER SPRING",MD,"209104959","031",38.98976864285714,-77.02653421428572,"3016088961","00-03","09-01",true,,,"03",,
"212588","1427018944","FALLS ROAD DIALYSIS","1423 CLARKVIEW ROAD, SUITE 500","BALTIMORE",MD,"212092189","005",39.3796014,-76.6569637,"4108284643","00-03","09-01",true,,,"03",,
"392604","1750343828","ELIZABETHTOWN DIALYSIS","844 NORTH HANOVER STREET","ELIZABETHTOWN",PA,"170221303","071",40.16299876695114,-76.6093026213449,"7173610151","00-03","09-01",true,,,"03",,
"392573","1285696153","JEFFERSON DIALYSIS","14 CLAIRTON BOULEVARD","PITTSBURGH",PA,"152363911","003",40.4416941,-79.9900861,"4126536007","00-03","09-01",true,,,"03",,
"232535","1497717607","SOUTHGATE DIALYSIS","14752 NORTHLINE RD","SOUTHGATE",MI,"481952698","163",42.214373,-83.20443505186702,"7342840005","00-03","09-01",true,,,"05",,
"232520","1962463463","DEARBORN DIALYSIS","1185 MONROE STREET","DEARBORN",MI,"481242814","163",42.304455714285716,-83.24317357142857,"3132748100","00-03","09-01",true,,,"05",,
"312521","1841229663","DELRAN DIALYSIS","8008 ROUTE 130 NORTH","DELRAN",NJ,"080751869","005",40.0179845,-74.94348457116372,"8567640800","00-03","09-01",true,,,"02",,
"312510","1700815487","HOLMDEL DIALYSIS","3053 STATE ROUTE 35","HAZLET",NJ,"077301526","025",40.4292165,-74.1648999,"7322030321","00-03","09-01",true,,,"02",,
"262541","1952362519","LAKE ST LOUIS DIALYSIS","201 BREVCO PLAZA SUITE 201","LAKE ST LOUIS",MO,"633672950","183",38.8036055,-90.7845894,"6365614799","00-03","09-01",true,,,"07",,
"192581","1952360026","NEW ORLEANS UPTOWN DIALYSIS","1401 FOUCHER STREET  4TH FLOOR","NEW ORLEANS",LA,"701153515","071",29.9759983,-90.0782127,"5048978530","00-03","09-01",true,,,"06",,
"112636","1437128493","WILLIAMS STREET DIALYSIS","2812 WILLIAMS STREET","SAVANNAH",GA,"314044134","051",32.045320348993286,-81.0758096442953,"9123545005","00-03","09-01",true,,,"04",,
"112639","1467421453","DERENNE DIALYSIS","5303 MONTGOMERY STREET","SAVANNAH",GA,"314055138","051",32.03079617391304,-81.11495960869566,"9123521354","00-03","09-01",true,,,"04",,
"112631","1205804309","ABERCORN DIALYSIS","11706 MERCY BLVD., BLDG. #9","SAVANNAH",GA,"314191751","051",31.985755531914894,-81.15287893617021,"9129616006","00-03","09-01",true,,,"04",,
"342507","1033179023","WILSON DIALYSIS","2833 WOOTEN BLVD SW","WILSON",NC,"278938625","195",35.71655025750316,-77.95691649284532,"9192916749","00-03","09-01",true,,,"04",,
"493511","1215041538","RECTOR & VISITORS OF THE UNIVERSITY OF VIRGINIA","235 MEDICAL DR","STANLEY",VA,"228514112",,38.57975299024968,-78.4940495070419,"5407783484","00-03",,,,,,,
"392532","1518929447","MCKEESPORT DIALYSIS","OAK PARK MALL  2001 LINCOLN WAY","WHITE OAK",PA,"151312419","003",40.3375695,-79.8092133,"4126780183","00-03","09-01",true,,,"03",,
"362554","1932163268","ASHTABULA DIALYSIS","1614 WEST 19TH STREET","ASHTABULA",OH,"440043036","007",41.882806333333335,-80.80503136363636,"4409649777","00-03","09-01",true,,,"05",,
"312508","1962431650","LUMBERTON DIALYSIS","1261 ROUTE 38, SUITE B","HAINESPORT",NJ,"080362702","005",39.9821579,-74.8085704,"6099144420","00-03","09-01",true,,,"02",,
"312540","1881623585","PERTH AMBOY DIALYSIS","271 KING STREET","PERTH AMBOY",NJ,"088614488","023",40.507775571428574,-74.26707085714287,"7324423836","00-03","09-01",true,,,"02",,
"392537","1235191172","MEADVILLE DIALYSIS","19050 PARK AVENUE PLAZA","MEADVILLE",PA,"163354012","039",41.6229823,-80.1596992,"8143366044","00-03","09-01",true,,,"03",,
"392699","1104888932","PITTSBURGH DIALYSIS","4312 PENN AVENUE","PITTSBURGH",PA,"152241310","003",40.4656357,-79.9539087,"4126818556","00-03","09-01",true,,,"03",,
"342562","1760441349","ROXBORO DIALYSIS","1005 RIDGE ROAD","ROXBORO",NC,"275734513","145",36.41213520440449,-78.98109170617765,"9195979390","00-03","09-01",true,,,"04",,
"342573","1205895976","MT OLIVE DIALYSIS","105 MICHAEL MARTIN DRIVE","MT OLIVE",NC,"283651112","191",35.1965532,-78.0663788,"9196580878","00-03","09-01",true,,,"04",,
"042571","1376516039","CENTRAL LITTLE ROCK DIALYSIS","6 FREEWAY DRIVE, SUITE 100","LITTLE ROCK",AR,"722042486","119",34.742788365490924,-92.3559362610089,"5016646754","00-03","09-01",true,,,"06",,
"342587","1821058900","GOLDSBORO SOUTH DIALYSIS","1704 WAYNE MEMORIAL DRIVE","GOLDSBORO",NC,"275342240","191",35.39391020474248,-77.97261784414503,"9197396505","00-03","09-01",true,,,"04",,
"342543","1801855481","VANCE COUNTY DIALYSIS","854 S BECKFORD DRIVE","HENDERSON",NC,"275363487","181",36.33717605,-78.42587083939696,"2524924239","00-03","09-01",true,,,"04",,
"452736","1336103902","UT SOUTHWESTERN DALLAS DIALYSIS","204 E AIRPORT FREEWAY","IRVING",TX,"750626305","113",32.836703437914224,-96.94284597348971,"9724387375","00-03","09-01",true,,,"06",,
"102639","1639147259","OCOEE DIALYSIS","11140 W COLONIAL DR STE 5","OCOEE",FL,"347613300","095",28.551525677139416,-81.54431067654447,"4078770626","00-03","09-01",true,,,"04",,
"102727","1659349983","SEBASTIAN DIALYSIS","1424 US HWY 1 STE C","SEBASTIAN",FL,"329581619","061",27.820314088119385,-80.47122728367627,"7725899182","00-03","09-01",true,,,"04",,
"452773","1649234212","UT SOUTHWESTERN - OAKCLIFF DIALYSIS","608 610 WYNNEWOOD VILLAGE","DALLAS",TX,"752241814","113",32.7762719,-96.7968559,"2149417807","00-03","09-01",true,,,"06",,
"102773","1457329799","ST PETERSBURG DIALYSIS","1117 ARLINGTON AVE N","ST PETERSBURG",FL,"337051521","103",27.772611671407446,-82.650037830353,"7278969029","00-03","09-01",true,,,"04",,
"452822","1073576021","DALLAS EAST DIALYSIS","3402  NORTH BUCKNER STE 308","DALLAS",TX,"752285656","113",32.80210980603296,-96.68201925092573,"2146601840","00-03","09-01",true,,,"06",,
"102765","1891763132","TALLAHASSEE SOUTH DIALYSIS","2410 S ADAMS ST","TALLAHASSEE",FL,"323016325","073",30.41847,-84.282307,"8502248757","00-03","09-01",true,,,"04",,
"342531","1689633315","GOLDSBORO DIALYSIS","2609 HOSPITAL ROAD","GOLDSBORO",NC,"275349424","191",35.4025547,-77.9539295,"9191211211","00-03","09-01",true,,,"04",,
"342616","1275592602","DURHAM WEST DIALYSIS","4307 WESTERN PARK PLACE","DURHAM",NC,"277051204","063",35.996653,-78.9018053,"9193840712","00-03","09-01",true,,,"04",,
"262604","1952413841","FRESENIUS PERRYVILLE OUTPATIENT DIALYSIS SERVICES","12 NORTH KINGSHIGHWAY SUITE 100","PERRYVILLE",MO,"637751367","157",37.73259808540815,-89.8631138593861,"5735472900","00-03","09-01",true,,,"07",,
"392650","1932203718","RENAL CARE GROUP - MILLERSBURG","75 EVELYN DRIVE  REAR ENTRANCE","MILLERSBURG",PA,"170611258","043",40.5417153,-76.9614003,"7176922145","00-03","09-01",true,,,"03",,
"102545","1144298480","WINTER HAVEN DIALYSIS","1625 UNITY WAY NW","WINTER HAVEN",FL,"338815226","105",28.0222435,-81.7328568,"9412948851","00-03","09-01",true,,,"04",,
"102554","1770551004","PLANT CITY DIALYSIS","2301 S FRONTAGE RD","PLANT CITY",FL,"335632061","057",28.036174,-82.10221,"8137522136","00-03","09-01",true,,,"04",,
"112561","1104894344","ATLANTA DIALYSIS","567 NORTH AVE NE  STE 200","ATLANTA",GA,"303082721","121",33.77071285,-84.368562,"4048531662","00-03","09-01",true,,,"04",,
"102638","1174591408","ORMOND BEACH DIALYSIS","420 S NOVA RD STE 7","ORMOND BEACH",FL,"321740411","127",29.2701725,-81.0823347,"3866762405","00-03","09-01",true,,,"04",,
"342550","1205895661","DURHAM DIALYSIS","201 HOOD STREET","DURHAM",NC,"277013715","063",35.990067,-78.893713,"9196829698","00-03","09-01",true,,,"04",,
"112624","1699744532","CANDLER COUNTY DIALYSIS","325 CEDAR STREET","METTER",GA,"304394043","043",32.40499556410256,-82.06559393589744,"9126856604","00-03","09-01",true,,,"04",,
"112608","1467421370","BRUNSWICK SOUTH DIALYSIS","2930 SPRINGDALE RD","BRUNSWICK",GA,"315204838","127",31.1721424,-81.4761367,"9122671507","00-03","09-01",true,,,"04",,
"492615","1255317889","US RENAL CARE RESTON DIALYSIS","12330 PINECREST ROAD, SUITE 200","RESTON",VA,"201911652","059",38.9362068,-77.373857,"7034760605","00-03","09-01",true,,,"03",,
"032518","1184680803","CHINLE DIALYSIS FACILITY","US HIGHWAY 191","CHINLE",AZ,"865031799","001",36.1809225,-109.5905544,"9286743674","00-03","09-01",true,,,"09",,
"032559","1639135379","KAYENTA DIALYSIS FACILITY","PO BOX 217, US HWY 163 NORTH","KAYENTA",AZ,"860339997","017",36.7218463,-110.253872,"9286978193","00-03","09-01",true,,,"09",,
"112573","1467421388","COLUMBUS DIALYSIS","6228 BRADLEY PARK DRIVE, STE B","COLUMBUS",GA,"319043604","215",32.534157826254884,-84.96377262561775,"7065968222","00-03","09-01",true,,,"04",,
"342560","1548229057","DIALYSIS CARE OF ANSON COUNTY","923 EAST CASWELL STREET","WADESBORO",NC,"281707581","007",34.96643766517703,-80.06182255925634,"8004771916","00-03","09-01",true,,,"04",,
"342584","1790744233","DIALYSIS CARE OF MARTIN COUNTY","100 MEDICAL DRIVE","WILLIAMSTON",NC,"278922156","117",35.840915,-77.074572,"8004771916","00-03","09-01",true,,,"04",,
"212605","1023078946","HARFORD ROAD DIALYSIS CENTER","5800 HARFORD ROAD","BALTIMORE",MD,"212141847","510",39.355480799999995,-76.55911420023972,"4104441544","00-03","09-01",true,,,"03",,
"112562","1932177110","DVA RENAL HEALTHCARE INC","567 NORTH AVE NE","ATLANTA",GA,"303082721",,33.77071285,-84.368562,"4047459580","00-03",,,,,,,
"342539","1437119641","DIALYSIS CARE OF RICHMOND CO","SOUTH NC HWY 177","HAMLET",NC,"283457158","153",34.8848775,-79.6942222,"9195825822","00-03","09-01",true,,,"04",,
"102764","1376510487","LAKELAND SOUTH DIALYSIS","4774 S FLORIDA AVE","LAKELAND",FL,"338132181","105",27.978806221825014,-81.95803100495112,"8636460462","00-03","09-01",true,,,"04",,
"102788","1134196603","FORT MYERS NORTH DIALYSIS","16101 N CLEVELAND AVE","NORTH FORT MYERS",FL,"339032148","071",26.6803667,-81.9010503,"2396564403","00-03","09-01",true,,,"04",,
"192608","1053370122","MEMORIAL DIALYSIS CENTER","4427 SOUTH ROBERTSON STREET","NEW ORLEANS",LA,"701156308","071",29.9363292,-90.1040759022184,"5048991103","00-03","09-01",true,,,"06",,
"052841","1306805296","ANTIOCH DIALYSIS CENTER","3100 DELTA FAIR BLVD","ANTIOCH",CA,"945094001","013",38.001441,-121.838119,"5109999999","00-03","09-01",true,,,"09",,
"102679","1881662120","WEST TAMPA DIALYSIS","4515 GEORGE RD STE 300","TAMPA",FL,"336347300","057",27.98568256122449,-82.55053654081632,"8138844008","00-03","09-01",true,,,"04",,
"012545","1932172095","TUSCALOOSA DIALYSIS","805 OLD MILL STREET","TUSCALOOSA",AL,"354017132","125",33.17883353048003,-87.54799931588703,"2057526363","00-03","09-01",true,,,"04",,
"012517","1942272414","ATHENS DIALYSIS","15953 ATHENS LIMESTONE DR","ATHENS",AL,"356132214","083",34.7860751,-86.9452300307907,"2562334730","00-03","09-01",true,,,"04",,
"112527","1730158700","WASHINGTON DIALYSIS CENTER","154 WASHINGTON PLAZA","WASHINGTON",GA,"306732074","317",32.9619979,-82.7748026,"7066785855","00-03","09-01",true,,,"04",,
"012506","1215900501","DOTHAN DIALYSIS","216 GRACELAND DRIVE","DOTHAN",AL,"363057346","069",31.2237434,-85.3933906,"3347934077","00-03","09-01",true,,,"04",,
"102784","1821065947","MIAMI EAST DIALYSIS","1250 NW 7TH ST STE 106","MIAMI",FL,"331253744","086",25.7798374,-80.2159723,"3055471496","00-03","09-01",true,,,"04",,
"102656","1003883125","MIAMI CAMPUS DIALYSIS","1951 NW 7TH AVE STE 500","MIAMI",FL,"331361121","086",25.7949219,-80.2065947,"3053258956","00-03","09-01",true,,,"04",,
"102776","1245208057","MIAMI NORTH DIALYSIS","860 NE 125TH ST","NORTH MIAMI",FL,"331615743","086",25.890413469387756,-80.18120840816327,"3058937887","00-03","09-01",true,,,"04",,
"102614","1013984533","DAYTONA SOUTH DIALYSIS","1801 S NOVA RD STE 306","SOUTH DAYTONA",FL,"321191731","127",29.1699454,-81.0249772,"3863223625","00-03","09-01",true,,,"04",,
"102728","1619945946","PALM COAST DIALYSIS","13 KINGSWOOD DR STE A","PALM COAST",FL,"321374614","035",29.553564725069275,-81.21272539733359,"3864454445","00-03","09-01",true,,,"04",,
"102775","1699743195","ORANGE CITY DIALYSIS","2575 S VOLUSIA AVE STE 400","ORANGE CITY",FL,"327639116","127",28.9143028,-81.3025102,"3867750118","00-03","09-01",true,,,"04",,
"392606","1821050667","POCONO DIALYSIS CENTER","447 OFFICE PLAZA, 100 PLAZA COURT, SUITE B","EAST STROUDSBURG",PA,"183018258","089",40.9995386,-75.1812913,"5704765630","00-03","09-01",true,,,"03",,
"342614","1477530525","ELKIN DIALYSIS CENTER OF WAKE FOREST UNIVERSITY","941 JOHNSON RIDGE RD","ELKIN",NC,"286212211",,36.27273353713383,-80.84244383974313,"3365274722","00-03",,,,"34-2614",,,
"342523","1003875683","SOUTH CHARLOTTE DIALYSIS","615 COMFORT LN","MONROE",NC,"281125599",,34.9741378,-80.5120509,"7042250944","00-03",,,,,,,
"102712","1750358172","LAKE WALES DIALYSIS","1125 BRYN MAWR AVE","LAKE WALES",FL,"338534333","105",27.896106142857143,-81.56323063265306,"8636799851","00-03","09-01",true,,,"04",,
"422534","1639131741","CENTRAL BAMBERG DIALYSIS","67 SUNSET DRIVE","BAMBERG",SC,"290031181","009",33.3084070771439,-81.0301624638329,"8032455166","00-03","09-01",true,,,"04",,
"012501","1215900444","GADSDEN DIALYSIS","409 SOUTH FIRST STREET","GADSDEN",AL,"359015358","055",34.010929,-85.9989596,"2565472457","00-03","09-01",true,,,"04",,
"102673","1154399491","WEST TALLAHASSEE DIALYSIS","5857 W TENNESSEE ST","TALLAHASSEE",FL,"323049218","073",30.4447478,-84.2870983,"8503500002","00-03","09-01",true,,,"04",,
"102624","1265400501","TALLAHASSEE DIALYSIS","1607 PHYSICIANS DR","TALLAHASSEE",FL,"323084620","073",30.4602418,-84.25803316692853,"8508788776","00-03","09-01",true,,,"04",,
"102627","1578531802","QUINCY DIALYSIS","878 STRONG RD","QUINCY",FL,"323515243","039",30.5666299,-84.55552184999999,"8508751570","00-03","09-01",true,,,"04",,
"102642","1629046966","SUN CITY CENTER DIALYSIS","783 CORTARO DR","RUSKIN",FL,"335736812","057",27.701360299999997,-82.42379802430135,"8136332847","00-03","09-01",true,,,"04",,
"342619","1871605683","FMC DIALYSIS SERVICES OF HALIFAX","612 MAIN STREET","SCOTLAND NECK",NC,"278741148","083",36.1248133,-77.4242204,"2528265722","00-03","09-01",true,,,"04",,
"392609","1629030432","PDI - LANCASTER","1412 EAST KING STREET","LANCASTER",PA,"176023240","071",40.0378435,-76.27589309999999,"7173921552","00-03","09-01",true,,,"03",,
"492528","1689638686","STAUNTON DIALYSIS","29 IDLEWOOD BLVD","STAUNTON",VA,"244019355","790",38.1495947,-79.072557,"5408858906","00-03","09-01",true,,,"03",,
"112568","1073581203","ATLANTA AIRPORT DIALYSIS","2685 METROPOLITAN PKWY SW, STE F","ATLANTA",GA,"303157926","121",33.68163885714286,-84.40782228571429,"4047612630","00-03","09-01",true,,,"04",,
"102524","1073580189","LAKELAND DIALYSIS","515 E BELLA VISTA ST","LAKELAND",FL,"338053005","105",28.069673003020597,-81.9530327687347,"8636885463","00-03","09-01",true,,,"04",,
"112505","1356319560","ROME DIALYSIS","20 RIVERBEND DRIVE SW, SUITE 100","ROME",GA,"301616066","115",34.257038,-85.1646726,"7062369550","00-03","09-01",true,,,"04",,
"492506","1154385375","THREE CHOPT DIALYSIS","8813 THREE CHOPT ROAD","RICHMOND",VA,"232294774","087",37.5750833,-77.5253511,"8043582772","00-03","09-01",true,,,"03",,
"492583","1861456113","AMELIA DIALYSIS","15151 PATRICK HENRY HIGHWAY","AMELIA COURT HOUSE",VA,"230024700","007",37.343044,-77.987793,"8045616667","00-03","09-01",true,,,"03",,
"422508","1093777146","NORTH ORANGEBURG DIALYSIS","124 FIRE TOWER ROAD","ORANGEBURG",SC,"291181401","075",33.4918203,-80.8556476,"8035316202","00-03","09-01",true,,,"04",,
"112514","1104895143","BRUNSWICK DIALYSIS","53 SCRANTON CONNECTOR","BRUNSWICK",GA,"315251862","127",31.1499528,-81.4914894,"9122648657","00-03","09-01",true,,,"04",,
"342514","1225015373","HIGH POINT KIDNEY CENTER OF WAKE FOREST UNIVERSITY","1900 WESTCHESTER DR","HIGH POINT",NC,"272627012",,35.9556924,-80.0053176,"3368899200","00-03",,,,"34-2514",,,
"102696","1407824212","NEW SMYRNA BEACH DIALYSIS","110 S ORANGE ST","NEW SMYRNA BEACH",FL,"321687153","127",29.023435,-80.9254278,"3864090025","00-03","09-01",true,,,"04",,
"102718","1376511618","SOUTH BEACH DIALYSIS","1711 ALTON RD","MIAMI BEACH",FL,"331392411","086",25.79255899984051,-80.14119946658563,"3056954175","00-03","09-01",true,,,"04",,
"492507","1427012673","HARRISONBURG DIALYSIS","871 MARTIN LUTHER KING JR WAY, SUITE 100","HARRISONBURG",VA,"228014323","660",38.441536,-78.855521,"5404341033","00-03","09-01",true,,,"03",,
"492560","1316901457","MARTINSVILLE DIALYSIS","33 BRIDGE STREET S","MARTINSVILLE",VA,"241126214","690",36.69054037144872,-79.87327268268193,"2766323743","00-03","09-01",true,,,"03",,
"422565","1235191230","SOUTH ORANGEBURG DIALYSIS","1080 SUMMERS AVENUE","ORANGEBURG",SC,"291154920","075",33.50223543400507,-80.8681826567132,"8035390084","00-03","09-01",true,,,"04",,
"112558","1538138532","ST. MARY'S DIALYSIS","2714 OSBORNE ROAD","ST MARYS",GA,"315584049","039",30.7481689,-81.5674637,"9128827507","00-03","09-01",true,,,"04",,
"102790","1972571206","PERRY DIALYSIS","118 W MAIN ST","PERRY",FL,"323472656","123",30.118026599876004,-83.58232685537146,"8505846012","00-03","09-01",true,,,"04",,
"422549","1578525614","LANCASTER SC DIALYSIS","1100 WEST MEETING STREET","LANCASTER",SC,"297202251","057",34.713372250776466,-80.7985026909516,"8033136600","00-03","09-01",true,,,"04",,
"342606","1134106198","LAKE NORMAN DIALYSIS CENTER OF WAKE FOREST UNIVERSITY","164 PROFESSIONAL PARK DR","MOORESVILLE",NC,"281175537",,35.5589921,-80.856133,"7047991860","00-03",,,,"34-2606",,,
"102618","1154398279","LEHIGH ACRES DIALYSIS","2814 LEE BLVD STE 16","LEHIGH ACRES",FL,"339711561","071",26.617127285714286,-81.67095475510204,"2393687169","00-03","09-01",true,,,"04",,
"102637","1184691503","LAKE WORTH DIALYSIS","2459 S CONGRESS AVE","PALM SPRINGS",FL,"334067616","099",26.640205891645262,-80.08834838929742,"5614391532","00-03","09-01",true,,,"04",,
"492539","1487618518","LEXINGTON DIALYSIS","756 NORTH LEE HIGHWAY","LEXINGTON",VA,"244503724","678",37.7919498,-79.4272747,"5404631121","00-03","09-01",true,,,"03",,
"112553","1447229422","EASTLAKE DIALYSIS","1757 CANDLER ROAD","DECATUR",GA,"300323276","089",33.752575,-84.29213,"4042892313","00-03","09-01",true,,,"04",,
"012542","1013980135","RAINBOW CITY DIALYSIS","2800 RAINBOW DRIVE","RAINBOW CITY",AL,"359065811","055",33.96649323701147,-86.02624259682283,"2564133245","00-03","09-01",true,,,"04",,
"492608","1073577128","MIDLOTHIAN DIALYSIS","14281 MIDLOTHIAN TURNPIKE BUILDING B","MIDLOTHIAN",VA,"231136560","041",37.5062673,-77.649268,"8045943520","00-03","09-01",true,,,"03",,
"492556","1558325704","HIOAKS DIALYSIS","671 HIOAKS ROAD, SUITE A","RICHMOND",VA,"232254072","760",37.51133225,-77.52407180316862,"8042720179","00-03","09-01",true,,,"03",,
"342570","1689633281","AHOSKIE DIALYSIS","129 HERTFORD COUNTY HIGH RD","AHOSKIE",NC,"279108131","091",36.2868223,-76.9846808,"2523323896","00-03","09-01",true,,,"04",,
"112555","1962470195","DVA HEALTHCARE RENAL CARE INC","522 ELMA G MILES PKWY","HINESVILLE",GA,"313134021",,31.838613093639427,-81.60467923704631,"9123684850","00-03",,,,,,,
"492543","1083678296","CULPEPER DIALYSIS","430 SOUTHRIDGE PARKWAY","CULPEPER",VA,"227013791","047",38.453722000000006,-78.01943021276595,"5408259332","00-03","09-01",true,,,"03",,
"192534","1477512515","CHATEAU DIALYSIS","720 VILLAGE ROAD","KENNER",LA,"700652751","051",30.024008938319618,-90.25799397521139,"5044692796","00-03","09-01",true,,,"06",,
"102521","1528036050","DAYTONA BEACH DIALYSIS","578 HEALTH BLVD","DAYTONA BEACH",FL,"321141492","127",29.206963100000003,-81.06104285555735,"3862587322","00-03","09-01",true,,,"04",,
"102586","1316915077","GREATER MIAMI DIALYSIS","160 NW 176TH ST STE 100","MIAMI",FL,"331695040","086",25.9353204,-80.2032886,"3056536033","00-03","09-01",true,,,"04",,
"422557","1073575171","ALLENDALE COUNTY DIALYSIS","1241 BOUNDARY ST W","FAIRFAX",SC,"298273611","005",32.9585379,-81.2372124,"8036321587","00-03","09-01",true,,,"04",,
"342515","1578522314","ELIZABETH CITY DIALYSIS","1840 W CITY DRIVE","ELIZABETH CITY",NC,"279099632","139",36.2986111,-76.261783,"2523382217","00-03","09-01",true,,,"04",,
"342541","1780643536","EDENTON DIALYSIS","312 MEDICAL ARTS DRIVE","EDENTON",NC,"279328607","041",36.07193725078211,-76.61542931698553,"2524825191","00-03","09-01",true,,,"04",,
"112515","1366410417","OAK STREET DIALYSIS","2704 NORTH OAK STREET, BLDG. H","VALDOSTA",GA,"316021723","185",30.86425375,-83.29225775,"2292474857","00-03","09-01",true,,,"04",,
"102626","1174590749","BARTOW DIALYSIS","2295 E FLAMINGO DRIVE","BARTOW",FL,"338304203","105",27.8963791,-81.8431567,"8635331601","00-03","09-01",true,,,"04",,
"012594","1518930890","BOAZ DIALYSIS","16 CENTRAL HENDERSON ROAD","BOAZ",AL,"359575922","095",34.2006503,-86.1663655,"2568405931","00-03","09-01",true,,,"04",,
"252519","1043271414","OCEAN SPRINGS DIALYSIS","13150 PONCE DE LEON","OCEAN SPRINGS",MS,"395642460","059",30.4112904,-88.8279165,"2288183201","00-03","09-01",true,,,"04",,
"252556","1629039086","LUCEDALE DIALYSIS","652 MANILLA STREET","LUCEDALE",MS,"394525962","039",30.9251869,-88.5900235,"6019478701","00-03","09-01",true,,,"04",,
"102737","1184691131","FOUR FREEDOMS DIALYSIS","289 SW RANGE AVE","MADISON",FL,"323402351","079",30.466506354024187,-83.41290115852068,"8509733852","00-03","09-01",true,,,"04",,
"192551","1760441802","MAGNOLIA DIALYSIS","1125 S  BURNSIDE  AVE","GONZALES",LA,"707374248","005",30.223747134146343,-90.92056351219512,"2256444490","00-03","09-01",true,,,"06",,
"112579","1972572949","WYLDS ROAD DIALYSIS","1815 WYLDS ROAD","AUGUSTA",GA,"309094430","245",33.455682091608146,-82.07174143103832,"7067330522","00-03","09-01",true,,,"04",,
"102744","1114994688","FORT MYERS SOUTH DIALYSIS","8850 GLADIOLUS DR","FORT MYERS",FL,"339085102","071",26.521023800000002,-81.90097897329078,"2394151661","00-03","09-01",true,,,"04",,
"102779","1144297631","BRANDON EAST DIALYSIS","114 E BRANDON BLVD","BRANDON",FL,"335115219","057",27.937823285714288,-82.28550171428572,"8136572783","00-03","09-01",true,,,"04",,
"152527","1457314171","COMPREHENSIVE RENAL CARE VALPARAISO","606 LINCOLN WAY","VALPARAISO",IN,"463835728","127",41.4730948,-87.0611412,"2195311299","00-03","09-01",true,,,"05",,
"492522","1407810617","COVINGTON DIALYSIS","2504 VALLEY RIDGE ROAD","COVINGTON",VA,"244266339","580",37.7934528,-79.9939484,"5408624419","00-03","09-01",true,,,"03",,
"112532","1285603266","JESUP DIALYSIS","301 PEACHTREE STREET","JESUP",GA,"315450245","305",31.6009924,-81.8983166,"9124278946","00-03","09-01",true,,,"04",,
"102646","1356318844","BRADENTON DIALYSIS","3501 CORTEZ RD W STE 104","BRADENTON",FL,"342103197","081",27.46228701010101,-82.59647427272726,"9417468955","00-03","09-01",true,,,"04",,
"012548","1902879117","FAYETTE DIALYSIS","2450 TEMPLE AVENUE","FAYETTE",AL,"355551160","057",33.7303493,-87.7419088,"2057584775","00-03","09-01",true,,,"04",,
"422512","1477515575","AIKEN DIALYSIS","775 MEDICAL PARK DRIVE","AIKEN",SC,"298016306","003",33.57190681632653,-81.76470308163265,"8036414222","00-03","09-01",true,,,"04",,
"342523","1720047301","SOUTH CHARLOTTE DIALYSIS","10504 PARK ROAD","CHARLOTTE",NC,"282108405","119",35.1069798,-80.8579274,"9803994784","00-03","09-01",true,,,"04",,
"252516","1538120902","SINGING RIVER DIALYSIS","4907 TELEPHONE ROAD","PASCAGOULA",MS,"395671823","059",30.3825779,-88.5360659446975,"2287620701","00-03","09-01",true,,,"04",,
"492607","1871557066","CHESTER DIALYSIS","10360 IRON BRIDGE ROAD","CHESTER",VA,"238311426","041",37.37488405774731,-77.50350746191104,"8047686770","00-03","09-01",true,,,"03",,
"012550","1336112143","GREENE COUNTY DIALYSIS","544 US HWY 43","EUTAW",AL,"354624017","063",32.8406848,-87.8875144,"2053724000","00-03","09-01",true,,,"04",,
"012502","1003889171","TUSCALOOSA UNIVERSITY DIALYSIS","220 15TH STREET","TUSCALOOSA",AL,"354013523","125",33.198505856453394,-87.53799063856076,"2057584775","00-03","09-01",true,,,"04",,
"102623","1356319859","ORLANDO DIALYSIS","116 STURTEVANT ST","ORLANDO",FL,"328062021","095",28.524868411874586,-81.38033087975649,"4074269212","00-03","09-01",true,,,"04",,
"422528","1467414482","WALTERBORO DIALYSIS","302 RUBY STREET","WALTERBORO",SC,"294882758","029",32.924431397684565,-80.67231370199546,"8435496743","00-03","09-01",true,,,"04",,
"422515","1710949847","GREENWOOD DIALYSIS","109 OVERLAND DRIVE","GREENWOOD",SC,"296464053","047",34.17069055089042,-82.15465898632337,"8642276011","00-03","09-01",true,,,"04",,
"342548","1023077682","CHARLOTTE DIALYSIS","2321 W MOREHEAD STREET","CHARLOTTE",NC,"282085145","119",35.22533355036517,-80.87685804298631,"7048470150","00-03","09-01",true,,,"04",,
"342553","1366429334","LEXINGTON DIALYSIS CENTER OF WAKE FOREST UNIVERSITY","233 ANNA LEWIS DR","LEXINGTON",NC,"272926711",,35.80248448686929,-80.28800406215268,"3362486808","00-03",,,,"34-2553",,,
"552516","1326150129","BIO-MEDICAL APPLICATIONS OF CALIFORNIA INC","11031 VIA FRONTERA STE C","SAN DIEGO",CA,"921271709",,33.012270268727136,-117.09289792512175,"8583850700","00-03",,,,,,,
"172526","1235198144","WINFIELD DIALYSIS CENTER","1315 E FOURTH AVE","WINFIELD",KS,"671562457","035",37.2397486,-96.9955919,"6202214100","00-03","09-01",true,,,"07",,
"392704","1750343810","CLEARFIELD DIALYSIS","8866 CLEARFIELD CURWENSVILLE HIGHWAY","CLEARFIELD",PA,"168303519","033",40.989100666666666,-78.47537,"8147652543","00-03","09-01",true,,,"03",,
"492605","1679537716","MECHANICSVILLE DIALYSIS","8191 ATLEE ROAD","MECHANICSVILLE",VA,"231161807","085",37.6250105,-77.39013111476795,"8047303149","00-03","09-01",true,,,"03",,
"112557","1568431484","THOMASTON DIALYSIS","1065 HIGHWAY 19 NORTH","THOMASTON",GA,"302862230","293",32.8881879,-84.3265855,"7066486364","00-03","09-01",true,,,"04",,
"102573","1932176484","DELAND DIALYSIS","350 E NEW YORK AVE","DELAND",FL,"327245510","127",29.0269035,-81.2966018,"9047382570","00-03","09-01",true,,,"04",,
"102513","1255308722","FORT MYERS DIALYSIS","4220 EXECUTIVE CIR STE 38","FORT MYERS",FL,"339168055","071",26.600552,-81.845122,"2392740845","00-03","09-01",true,,,"04",,
"112526","1417925561","DOUGLASVILLE DIALYSIS","3899 LONGVIEW DRIVE","DOUGLASVILLE",GA,"301351373","097",33.74457,-84.704241,"7709498403","00-03","09-01",true,,,"04",,
"342551","1982681904","MT. AIRY DIALYSIS CENTER OF WAKE FOREST UNIVERSITY","1280 NEWSOME ST","MOUNT AIRY",NC,"270305442",,36.482113458009515,-80.60311620713851,"3367894090","00-03",,,,"34-2551",,,
"342612","1114904133","NORTHSIDE DIALYSIS CENTER OF WAKE FOREST UNIVERSITY","500 W HANES MILL RD","WINSTON SALEM",NC,"271059814",,36.178216,-80.281349,"3367440577","00-03",,,,"34-2612",,,
"212565","1033179221","RENAL TREATMENT CENTERS MID ATLANTIC INC","100 BROWN ST","CHESTERTOWN",MD,"216201435",,39.21743895,-76.06495526618545,"4107789555","00-03",,,,,,,
"072520","1255307039","NORWICH DIALYSIS","113 SALEM TNPK SUITE 4","NORWICH",CT,"063606484","011",41.5243537,-72.0759008,"8608871632","00-03","09-01",true,,,"01",,
"072515","1679549273","NEW LONDON DIALYSIS","BLDG #5, SHAW'S COVE","NEW LONDON",CT,"063204974","011",41.32830985,-71.90553415224154,"2037850152","00-03","09-01",true,,,"01",,
"342505","1801873831","PIEDMONT DIALYSIS CENTER OF WAKE FOREST UNIVERSITY","655 COTTON ST","WINSTON SALEM",NC,"271015064",,36.089894,-80.253263,"3367211360","00-03",,,,"34-2505",,,
"342569","1114904141","SALEM KIDNEY CENTER OF WAKE FOREST UNIVERSITY","2705 BOULDER PARK CT","WINSTON SALEM",NC,"271014776",,36.09707392682032,-80.20383521938449,"3367618808","00-03",,,,"34-2569",,,
"492619","1801850870","RADFORD DIALYSIS","600 EAST MAIN STREET, SUITE F","RADFORD",VA,"241411826","750",37.137221,-80.544604,"5406399561","00-03","09-01",true,,,"03",,
"342564","1164481818","HENDERSONVILLE DIALYSIS CENTER","500 BEVERLY HANKS CENTER","HENDERSONVILLE",NC,"287922610","089",35.33058648263666,-82.46735036629676,"8286936557","00-03","09-01",true,,,"04",,
"152546","1659334431","COMPREHENSIVE RENAL CARE MICHIGAN CITY","9836 W 400 N","MICHIGAN CITY",IN,"463602910","091",41.7075394,-86.8950297,"2198781989","00-03","09-01",true,,,"05",,
"342506","1316906928","ASHEVILLE KIDNEY CENTER","1600 CENTREPARK DRIVE","ASHEVILLE",NC,"288056206","021",35.5988573,-82.5290255,"8282588545","00-03","09-01",true,,,"04",,
"102634","1306814058","NORTH PALM BEACH DIALYSIS CENTER","2841 PGA BLVD","PALM BEACH GARDENS",FL,"334102910","099",26.844898072727272,-80.07858905454545,"5616305081","00-03","09-01",true,,,"04",,
"342546","1801855275","DIALYSIS CARE OF ROWAN COUNTY","111 DORSETT DRIVE","SALISBURY",NC,"281442278","159",35.689986627586975,-80.4968672852992,"7045372107","00-03","09-01",true,,,"04",,
"492591","1255395158","FAIRFAX DIALYSIS CENTER","8501 ARLINGTON BOULEVARD  SUITE 100","FAIRFAX",VA,"220314625","600",38.8648333,-77.23862597530237,"7038768445","00-03","09-01",true,,,"03",,
"342527","1548247588","STATESVILLE DIALYSIS CENTER OF WAKE FOREST UNIVERSITY","627 SIGNAL HILL DRIVE EXT","STATESVILLE",NC,"286254353",,35.7826363,-80.8872959,"7048720148","00-03",,,,"34-2527",,,
"392600","1285696138","DELAWARE VALLEY DIALYSIS CENTER","102 DAVITA DRIVE","MILFORD",PA,"183379390","103",41.3512617,-74.73236558923855,"7172967751","00-03","09-01",true,,,"03",,
"342599","1740267681","TRIAD DIALYSIS CENTER OF WAKE FOREST UNIVERSITY","4370 REGENCY DR","HIGH POINT",NC,"272659400",,36.06084481818182,-79.95894348484849,"3364540076","00-03",,,,"34-2599",,,
"552537","1942229182","DCI - REDDING","180 NORTHPOINT DRIVE","REDDING",CA,"960032510","089",40.6111976,-122.3813672,"5302461140","00-03","09-01",true,,,"09",,
"382544","1144282393","HERMISTON COMMUNITY DIALYSIS CENTER","1155 W LINDA AVENUE","HERMISTON",OR,"978389601","059",45.8456547,-119.3109786,"5412891122","00-03","09-01",true,,,"10",,
"072528","1477528271","BLOOMFIELD DIALYSIS","29 GRIFFIN ROAD SOUTH","BLOOMFIELD",CT,"060021351","003",41.8722028,-72.7351135,"8602435389","00-03","09-01",true,,,"01",,
"212637","1952405722","FMCNA DIALYSIS SERVICES OF ANNE ARUNDEL","2032 INDUSTRIAL DRIVE","ANNAPOLIS",MD,"214012916","003",38.9786401,-76.492786,"4102667288","00-03","09-01",true,,,"03",,
"022500","1770695579","RENAL CARE GROUP- ANCHORAGE","3950 LAUREL STREET","ANCHORAGE",AK,"995085333","020",61.1851394542378,-149.83488473627204,"9075633149","00-03","09-01",true,,,"10",,
"492618","1275597429","GREATER PORTSMOUTH","3110 HIGH STREET","PORTSMOUTH",VA,"237073427","740",36.83492545,-76.34023063996199,"7575307461","00-03","09-01",true,,,"03",,
"362609","1922113786","RENAL CARE GROUP WESTLAKE","26024 DETROIT ROAD","WESTLAKE",OH,"441452427","035",41.469393,-81.908214,"4408351139","00-03","09-01",true,,,"05",,
"112733","1336102938","DCA OF ADEL, LLC","701 NORTH HUTCHINSON AVENUE","ADEL",GA,"316201917",,31.1382966,-83.4238401,"2298964529","00-03",,,,,,,
"372560","1316909534","SAPULPA DIALYSIS","9647 RIDGEVIEW STREET","TULSA",OK,"741316205","037",36.13334,-95.9224992,"9182249996","00-03","09-01",true,,,"06",,
"392534","1821050972","WEST SHORE DIALYSIS","550 NORTH 12TH STREET, SUITE 110","LEMOYNE",PA,"170431242","041",40.24279975936322,-76.90870159565658,"7177373272","00-03","09-01",true,,,"03",,
"112709","1689643595","ELLIJAY DIALYSIS","449 INDUSTRIAL BLVD STE 240","ELLIJAY",GA,"305406724","123",34.6827796,-84.4930685,"7062761417","00-03","09-01",true,,,"04",,
"232612","1083634463","NORTHWEST DETROIT DIALYSIS CENTER LLC","25664 LAHSER RD","SOUTHFIELD",MI,"480335810",,42.476958978369396,-83.26080355440392,"2483587521","00-03",,,,,,,
"042564","1073590923","PINE BLUFF-US RENAL CARE","2800 WEST 28TH STREET","PINE BLUFF",AR,"716034921","069",34.2157064,-92.0140402,"8705347400","00-03","09-01",true,,,"06",,
"342604","1982663506","WEAVERVILLE DIALYSIS","329 MERRIMON AVENUE","WEAVERVILLE",NC,"287879253","021",35.678958550000004,-82.5751297444153,"8286581441","00-03","09-01",true,,,"04",,
"142537","1952360703","DAVITA GRANITE CITY DIALYSIS CENTER","9 AMERICAN VILLAGE SHOPPING CENTER","GRANITE CITY",IL,"620403706","119",38.7014389,-90.1487199,"6184525858","00-03","09-01",true,,,"05",,
"142640","1285694729","CHURCHVIEW DIALYSIS","417 WARE AVE","ROCKFORD",IL,"611076413","201",42.27307950381787,-88.97811498561862,"8153974123","00-03","09-01",true,,,"05",,
"152586","1679688428","FRESENIUS MEDICAL CARE CONNERSVILLE","6049 INDUSTRIAL AVE N","CONNERSVILLE",IN,"473317713","041",39.7047180620359,-85.13657985883873,"7658271225","00-03","09-01",true,,,"05",,
"142647","1235198235","RTC DBA ROCKFORD DIALYSIS","3339 NORTH ROCKTON AVE","ROCKFORD",IL,"611032839","201",42.30984153030303,-89.0969762121212,"8156364493","00-03","09-01",true,,,"05",,
"332645","1255417275","KINGS HARBOR HEALTH SERVICES LLC","2020 E GUN HILL RD","BRONX",NY,"104696016",,40.86092746320185,-73.83002079907394,"7183201335","00-03",,,,,,,
"362664","1043243520","DIALYSIS CLINIC, INC","7650 WELLNESS WAY","WEST CHESTER",OH,"450692852","017",39.3303357,-84.408275,"5137770855","00-03","09-01",true,,,"05",,
"142648","1538128533","WHITESIDE DIALYSIS","4406 EAST LINCOLNWAY","STERLING",IL,"610819749","195",41.8008706,-89.6684144,"8155350447","00-03","09-01",true,,,"05",,
"492617","1508820564","PENINSULA DIALYSIS CENTER","716 DENBIGH BLVD SUITE D1& D2","NEWPORT NEWS",VA,"236084414","700",37.14187582727273,-76.51714506363636,"7578751125","00-03","09-01",true,,,"03",,
"052624","1396857199","FMC OF PETALUMA","715 SOUTHPOINT BLVD, SUITE A","PETALUMA",CA,"949546836","097",38.2574597,-122.6459608,"7077659379","00-03","09-01",true,,,"09",,
"452867","1124043187","RENAL CENTER OF TYLER, LP, LLLP","510 SSW LOOP 323, SUITE 580","TYLER",TX,"757027693","423",32.343866480182974,-95.3409664833266,"9035960102","00-03","09-01",true,,,"06",,
"422594","1073560645","NRA-BAMBERG, SOUTH CAROLINA, LLC","2046 MAIN HWY","BAMBERG",SC,"290031082",,33.163453,-81.1520141,"8032451775","00-03",,,,,,,
"232586","1518929868","SAGINAW DIALYSIS","311 HOYT AVE","SAGINAW",MI,"486071105","145",43.426490510204076,-83.93958487755103,"9897712000","00-03","09-01",true,,,"05",,
"502539","1043312218","RCG CHEHALIS","1684 BISHOP RD","CHEHALIS",WA,"985328745","041",46.6400728,-122.9418043,"3607483964","00-03","09-01",true,,,"10",,
"452303","1821054883","UNIVERSITY OF TEXAS MEDICAL BRANCH AT GALVESTON","301 UNIVERSITY BLVD","GALVESTON",TX,"775551388",,29.312018350000002,-94.77627329985782,"4097476520","00-03",,,,,,,
