,id,name,quality,address,city,state,zip,phone,ownership,startdate,LAT,LON
0,682615,OSLO DIALYSIS,,100 S US HIGHWAY 1,VERO BEACH,FL,32962,(772) 567-8496,Profit,01/10/2017,27.619972,-80.411503
1,452925,SNG-PEARLAND DIALYSIS CENTER,,2850 KIRBY DRIVE,PEARLAND,TX,77584,(281) 582-8024,Profit,08/26/2017,29.555761,-95.32307
2,682579,"NKC BOCA RATON, LLC",,7525 NORTH STATE ROAD 7,PARKLAND,FL,33073,(561) 370-6290,Profit,06/22/2015,26.315083,-80.24724
3,672788,KELLER DIALYSIS,,11000 OLD DENTON ROAD,KELLER,TX,76248,(817) 337-5483,Profit,09/01/2016,32.932884,-97.224496
4,012689,BIO MEDICAL APPLICATIONS OF ALABAMA INC,,6004 BOLL WEEVIL CIRCLE,ENTERPRISE,AL,36330,(334) 393-0024,Profit,01/30/2017,31.328476,-85.844323
5,162562,FMC - MASON CITY,,910 N EISENHOWER AVE,MASON CITY,IA,50401,(641) 428-5332,Profit,08/01/2016,43.148609,-93.199795
6,262685,WESTFALL DIALYSIS,,8029 W FLORISSANT AVE,JENNINGS,MO,63136,(314) 382-2869,Profit,04/19/2017,38.723035,-90.264261
7,552808,PORT CITY DIALYSIS CENTER,,1810 S. FRESNO AVE.,STOCKTON,CA,95206,(209) 946-0738,Profit,03/22/2017,37.976342,-121.313304
8,232709,FMC - EAST ANN ARBOR HOME DIALYSIS,,4949 WASHTENAW AVE,ANN ARBOR,MI,48108,(734) 434-0059,Profit,06/01/2016,42.275686,-83.731449
9,332745,NEW YORK DIALYSIS SERVICES INC.,,595 DEGRAW STREET,BROOKLYN,NY,11217,(718) 852-0197,Profit,02/06/2017,40.635045,-73.95064
10,332758,DSI DUTCHESS DIALYSIS,,39 NORTH PLANK RD,ALBANY,NY,12255,(845) 476-3788,Profit,06/09/2017,42.665745,-73.798353
11,552812,DAVITA GOLDEN STATE DIALYSIS,,4200 N GOLDEN STATE BLVD,TURLOCK,CA,95382,(209) 634-0014,Profit,07/10/2017,37.498548,-120.863989
12,332753,"MAIN STREET DIALYSIS CENTER, LLC",,3 NORTH MAIN STREET,FREEPORT,NY,11520,(516) 771-7112,Profit,04/28/2017,40.652407,-73.58499300000003
13,332754,JULIA AND ISRAEL WALDBAUM DIALYSIS,,100 COMMUNITY DRIVE,GREAT NECK,NY,11021,(516) 465-8250,Non-Profit,11/01/2016,40.796971,-73.722697
14,100128,TAMPA GENERAL HOSPITAL ESRD,,PEDIATRIC DIALYSIS,TAMPA,FL,33601,(813) 844-4210,Non-Profit,09/01/1976,27.970086,-82.47967299999998
15,852525,TARA BOULEVARD DIALYSIS,,6540 TARA BLVD,JONESBORO,GA,30236,(770) 968-8429,Profit,06/14/2017,33.520245,-84.354314
16,152680,DAVITA-WHITEWATER VALLEY DIALYSIS,,"2302 CHESTER BLVD, SUITE B",RICHMOND,IN,47374,(765) 935-5128,Profit,04/04/2017,40.194311,-86.977774
17,061322,HEART OF THE ROCKIES REGIONAL DIALYSIS CENTER,,1000 RUSH DRIVE,SALIDA,CO,81201,(719) 530-2200,Profit,01/03/2017,38.576781,-106.121224
18,452935,"BIO-MEDICAL APPLICATIONS OF TEXAS, INC.",,400 W. MEDICAL CENTER BLVD.,WEBSTER,TX,77598,(281) 332-0046,Profit,08/26/2017,29.532072,-95.116478
19,152671,HAMMOND DIALYSIS CENTER,,7 SIBLEY STREET,HAMMOND,IN,46320,(219) 937-2819,Profit,09/08/2016,41.621663,-87.494591
20,170123,PEDIATRICS DIALYSIS SERVICE AT WESLEY,,550 N HILLSIDE,WICHITA,KS,67214,(316) 962-2000,Non-Profit,01/06/2010,37.690694,-97.342678
21,100113,SHANDS HOSPITAL - PEDIATRIC DIALYSIS,1,1600 SW ARCHER ROAD,GAINESVILLE,FL,32608,(352) 265-0255,Non-Profit,09/01/1976,29.678831,-82.345878
22,362854,"TOTAL RENAL CARE, INC.",,"6530 W. CAMPUS OVAL, SUITE 100",NEW ALBANY,OH,43054,(614) 855-3445,Profit,02/09/2017,40.083073,-82.798908
23,052405,UC DAVIS MEDICAL CENTER PEDIATRIC,,2521 STOCKTON BLVD,SACRAMENTO,CA,95817,(916) 734-3778,Non-Profit,08/03/2016,38.566592,-121.468632
24,852529,"DIALYSIS CLINIC, INC. - LEESBURG",,210 PARK STREET,LEESBURG,GA,31763,(229) 759-1911,Profit,09/01/2017,31.732058,-84.16854599999998
25,362847,NXSTAGE CINCINNATI LLC,,12065 MONTGOMERY ROAD,CINCINNATI,OH,45249,(513) 712-1300,Profit,11/02/2016,39.139902,-84.506446
26,332756,FRESENIUS KIDNEY CARE - HORNELL,,1 BETHESDA DRIVE,HORNELL,NY,14843,(607) 324-8660,Non-Profit,12/31/2016,42.334445,-77.677087
27,232711,DAVITA - GRAND BLANC HOME TRAINING,,8195 S SAGINAW ST,GRAND BLANC,MI,48439,(810) 695-1078,Profit,08/26/2016,42.914695,-83.633614
28,240049,"U OF MN MED CTR, FAIRVIEW - DIALYSIS",,2450 RIVERSIDE AVE,MINNEAPOLIS,MN,55454,(612) 273-3999,Non-Profit,09/01/1977,44.963324,-93.26832
29,222590,FREEDOM CENTER OF WORCESTER,,1 INNOVATION DRIVE,WORCESTER,MA,01605,(508) 767-3950,Profit,07/07/2016,42.269478,-71.807783
30,232708,DAVITA - STARRWOOD DIALYSIS,,3425 STARR RD STE B,ROYAL OAK,MI,48073,(248) 549-0208,Profit,06/30/2016,42.507816,-83.15389
31,342684,FRESENIUS MEDICAL CARE CENTRAL RALEIGH,4,802 SEMART DRIVE,RALEIGH,NC,27604,(919) 832-2644,Profit,10/19/2011,35.83020399999999,-78.641439
32,142807,DAVITA - SALEM HOME TRAINING,,1201 RICKER ROAD,SALEM,IL,62881,(618) 740-0778,Profit,08/30/2016,38.609096,-88.973434
33,132521,MOSCOW DIALYSIS CENTER,5,212 RODEO DR STE 110,MOSCOW,ID,83843,(208) 882-5925,Profit,11/06/2009,46.730609,-116.998909
34,442738,ISD RENAL INC,,1050 HERSCHEL DR,MOUNT JULIET,TN,37122,(615) 758-1970,Profit,03/10/2017,36.203237,-86.516504
35,672783,"KERRICHER DIALYSIS, LLC",,2400 LANDS END BLVD SUITE 131,FORT WORTH,TX,76116,(615) 341-6472,Profit,06/30/2016,32.779542,-97.346335
36,552796,DAVITA-SEVEN OAKS DIALYSIS,,4651 CORPORATE COURT,BAKERSFIELD,CA,93311,(661) 664-5887,Profit,11/07/2016,35.321213,-119.018291
37,142799,"HOME DIALYSIS SERVICES ELK GROVE, LLC",,1843 W IRVING PARK ROAD,SCHAUMBURG,IL,60193,(847) 285-1908,Profit,09/30/2016,42.029351,-88.083642
38,672804,HEIGHTS DIALYSIS,,739 E 20TH STREET,HOUSTON,TX,77008,(713) 802-0542,Profit,03/21/2017,29.780472,-95.386342
39,442735,"FMC SOUTH AIRWAYS, LLC",,5484 AIRWAYS BLVD,MEMPHIS,TN,38116,(901) 345-5755,Profit,08/22/2016,35.103543,-89.978498
40,142823,FRESENIUS KIDNEY CARE CHICAGOLAND LLC,,8901 S. KEDZIE,EVERGREEN PARK,IL,60805,(708) 422-7764,Profit,09/22/2017,41.721279,-87.70133
41,672786,CYPRESS FAIRFIELD DIALYSIS,,15103 MASON RD,CYPRESS,TX,77433,(281) 758-1380,Profit,08/25/2016,29.81904,-95.976009
42,030064,BANNER UNIVERSITY MEDICAL CENTER PEDIATRIC OUTPATIENT DIALYSIS UNIT,,PO BOX 245148,TUCSON,AZ,85724,(520) 694-7176,Non-Profit,09/20/2012,32.179196000000005,-111.125346
43,212697,NXSTAGE BALTIMORE WEST LLC,,809 PINNACLE DRIVE,LINTHICUM HEIGHTS,MD,21090,(410) 864-9800,Profit,12/10/2015,39.41532700000001,-76.350429
44,182633,FMC- LEXINGTON SOUTHWEST,,978 CHAS DRIVE,LEXINGTON,KY,40515,(859) 260-1706,Profit,02/02/2017,38.040157,-84.458443
45,252582,"DIBERVILLE HOME PROGRAM, LLC",,14215 COOK ROAD,BILOXI,MS,39532,(228) 872-0516,Profit,11/12/2015,30.433711,-88.953409
46,432515,TOTAL RENAL CARE INC,,3313 6TH AVE SE,ABERDEEN,SD,57401,(605) 225-7344,Profit,12/20/2016,45.464678,-98.468104
47,112884,"EMORY DIALYSIS, LLC",,5673 PEACHTREE DUNWOODY ROAD,ATLANTA,GA,30342,(404) 778-8075,Non-Profit,07/03/2014,33.762909,-84.422675
48,142696,DAVITA - WOODRIDGE AT HOME,,7425 JANES AVENUE,WOODRIDGE,IL,60517,(630) 968-0081,Profit,09/23/2008,41.73753,-88.044607
49,452946,"CROSKEE DIALYSIS, LLC",,10405 KATY FWY,HOUSTON,TX,77024,(615) 320-4411,Profit,08/26/2017,29.780472,-95.386342
50,142771,FMC - NORTHFIELD,,480 CENTRAL AVENUE,WINNETKA,IL,60093,(847) 441-4031,Profit,09/04/2013,42.10621,-87.74276400000002
51,312672,ALENES DIALYSIS CENTER,,220 TRIANGLE ROAD,HILLSBOROUGH,NJ,08844,(908) 369-0398,Profit,06/19/2017,40.497692,-74.670505
52,342720,FRESENIUS MEDICAL CARE - HIGH POINT,,1320 EASTCHESTER DRIVE,HIGH POINT,NC,27265,(252) 823-7046,Profit,09/18/2017,35.98547,-79.990243
53,492706,PORT WARWICK DIALYSIS,,445 ORIANA ROAD,NEWPORT NEWS,VA,23608,(757) 898-9212,Profit,02/06/2017,37.075978000000006,-76.52171899999998
54,672777,FORT BROWN DIALYSIS,,2000 BOCA CHICA BLVD,BROWNSVILLE,TX,78521,(956) 544-1158,Profit,05/16/2016,26.018326,-97.453826
55,552809,FMC POTRERO AVENUE,,626 POTRERO AVE,SAN FRANCISCO,CA,94110,(415) 648-4182,Profit,05/22/2017,37.727239,-123.032229
56,392857,"DIALYSIS CARE CENTER MECHANICSBURG, LLC",,4 FLOWERS DRIVE,MECHANICSBURG,PA,17050,(717) 795-4665,Profit,03/09/2017,40.211404,-77.00593
57,552800,DAVITA-BEVERLYWOOD DIALYSIS,,"2080 CENTURY PARK EAST, SUITE 210",LOS ANGELES,CA,90067,(310) 772-0224,Profit,10/26/2016,34.019394,-118.410825
58,452929,FRESENIUS MEDICAL CARE BEAMER,,12727 BEAMER ROAD,HOUSTON,TX,77089,(281) 922-9930,Profit,08/26/2017,29.780472,-95.386342
59,552801,DAVITA-EL DORADO DIALYSIS,,2977 REDONDO AVENUE,LONG BEACH,CA,90806,(562) 988-3418,Profit,09/19/2016,33.809102,-118.155327
60,552785,DAVITA-GLENDORA FOOTHILLS DIALYSIS,,"750 WEST ROUTE 66, SUITE Q",GLENDORA,CA,91740,(626) 335-2063,Profit,06/06/2016,34.145433000000004,-117.846961
61,362845,FMC-LIBERTY DIALYSIS NORTH COLLEGE HILL,,1555 GOODMAN AVENUE,CINCINNATI,OH,45224,(513) 521-2018,Profit,10/04/2016,39.139902,-84.506446
62,552811,DAVITA GOLDEN GATE DIALYSIS,,2700 GEARY BLVD. SUITE A,SAN FRANCISCO,CA,94118,(415) 345-1869,Profit,06/14/2017,37.727239,-123.032229
63,452926,"FRESENIUS MEDICAL CARE KINGWOOD, LLC",,9767 FM 1960 BYPASS RD W,HUMBLE,TX,77338,(281) 548-1250,Profit,08/26/2017,29.988144,-95.26831
64,382576,ROSE CITY DIALYSIS LLC,,8050 SW WARM SPRINGS ST STE 120,TUALATIN,OR,97062,(503) 612-1254,Profit,10/27/2016,45.376716,-122.770379
65,232713,SHOSHONE DIALYSIS LLC,,46360 GRATIOT AVE,CHESTERFIELD,MI,48051,(586) 949-5417,Profit,08/31/2016,42.679379,-82.806363
66,142810,DAVITA - TINLEY PARK,,16767 80TH AVE.,TINLEY PARK,IL,60477,(708) 429-4738,Profit,12/17/2016,41.568091,-87.803433
67,432310,REGIONAL DIALYSIS CENTER - RCRH,,353 FAIRMONT BLVD,RAPID CITY,SD,57701,(605) 755-2165,Non-Profit,07/27/2011,44.071071,-103.217924
68,362838,DAVITA RAVENNA DIALYSIS TOTAL RENAL CARE,,600 ENTERPRISE PARKWAY,RAVENNA,OH,44266,(330) 297-5846,Profit,06/08/2016,41.161454,-81.24203299999998
69,672810,TAUM DIALYSIS LLC,,1001 W ARBROOK BLVD,ARLINGTON,TX,76015,(817) 466-7403,Profit,05/12/2017,32.700708,-97.124691
70,672801,VINTAGE DIALYSIS,,20025 CHASEWOOK PARK DRIVE,HOUSTON,TX,77070,(281) 251-0966,Profit,02/14/2017,29.780472,-95.386342
71,442737,"TOTAL RENAL CARE, INC",,1843 FOREMAN DRIVE,COOKEVILLE,TN,38501,(931) 372-8853,Profit,12/12/2016,36.147686,-85.50523299999998
72,242604,FRESENIUS MEDICAL CARE - CLOQUET,,512 SKYLINE BLVD,CLOQUET,MN,55720,(218) 879-3051,Profit,06/17/2016,46.72507,-92.50133
73,142817,DAVITA - CALUMET CITY DIALYSIS,,1200 SIBLEY BLVD,CALUMET CITY,IL,60409,(708) 862-6454,Profit,07/03/2017,41.596495,-87.537968
74,672826,MARGETTE DIALYSIS,,10424 INTERSTATE 10 EAST,BAYTOWN,TX,77523,(281) 573-3234,Profit,09/28/2017,29.756974,-94.967955
75,222586,"NXSTAGE BOSTON NORTH, LLC",,107 AUDUBON ROAD,WAKEFIELD,MA,01880,(781) 928-9277,Profit,06/07/2015,42.50436,-71.064061
76,452936,"BIO-MEDICAL APPLICATIONS OF TEXAS, INC.",,1210 SOUTHMORE AVE,PASADENA,TX,77502,(713) 475-6617,Profit,08/26/2017,29.658263,-95.150478
77,281344,CHERRY COUNTY HOSPITAL DIALYSIS UNIT,,510 N GREEN ST,VALENTINE,NE,69201,(402) 376-2525,Non-Profit,08/19/2002,42.873836,-100.549884
78,152663,DAVITA - BRIDGE POINT,,1136 N BALDWIN AVE,MARION,IN,46952,(765) 662-1245,Profit,07/02/2014,40.954152,-85.046386
79,142805,TOTAL RENAL CARE INC.,,4747 LINCOLN MALL DRIVE,MATTESON,IL,60443,(708) 679-1050,Profit,09/28/2016,41.509322,-87.74531999999998
80,360048,UNIVERSITY OF TOLEDO MEDICAL CENTER,,"3000 ARLINGTON AVE., RM 0239",TOLEDO,OH,43614,(419) 383-4985,Profit,06/25/2009,41.664071,-83.581861
81,522608,TOTAL RENAL CARE INC,,14 COUNTY ROAD P,WISCONSIN DELLS,WI,53965,(608) 253-3597,Profit,09/19/2016,43.653153,-89.77287199999998
82,312670,OWENS DIALYSIS LLC,,554-A NEW YORK AVENUE,LYNDHURST,NJ,07071,(201) 933-4782,Profit,05/03/2017,40.797985,-74.113258
83,452944,"PREMIER DIALYSIS-DSI, LLC",,8181 N STADIUM DRIVE,HOUSTON,TX,77054,(713) 425-1969,Profit,08/26/2017,29.780472,-95.386342
84,672779,SOUTH SHORE ANNEX DIALYSIS,,16750 HIGHWAY 3,WEBSTER,TX,77598,(281) 332-4719,Profit,07/07/2016,29.532072,-95.116478
85,672790,SOUTHEAST FORT WORTH DIALYSIS,,3845 E LOOP 820 S,FORT WORTH,TX,76119,(817) 496-9035,Profit,09/26/2016,32.779542,-97.346335
86,392847,NCPDC KIDNEY CENTER LLC,,1201 GRAMPIAN BOULEVARD,WILLIAMSPORT,PA,17701,(570) 478-5228,Profit,07/29/2016,41.240019,-77.035591
87,672825,"DSI EL PASO NORTH, LLC",,3359 FRED WILSON AVE,EL PASO,TX,79904,(915) 304-5816,Profit,09/20/2017,31.84836,-106.426979
88,342719,"BIO-MEDICAL APPLICATIONS OF NORTH CAROLINA, INC.",,6646 REGAL OAKS DRIVE,CHARLOTTE,NC,28212,(704) 535-7231,Profit,05/22/2017,35.20870700000001,-80.83073900000002
89,552806,DAVITA-VISALIA VINEYARD DIALYSIS,,1140 SOUTH BEN MADDOX WAY,VISALIA,CA,93292,(559) 635-1938,Profit,03/13/2017,36.327154,-119.323409
90,142798,FMC - LEMONT,,16177 W 127TH STREET,LEMONT,IL,60439,(630) 243-0393,Profit,08/30/2016,41.667344,-87.9844
91,392861,TOTAL RENAL CARE INC,,"2500 WHARTON STREET, SUITE A",PHILADELPHIA,PA,19146,(215) 334-0250,Profit,09/13/2017,40.009376,-75.133346
92,312653,PERSHING LLC,,422 GRAND STREET,JERSEY CITY,NJ,07302,(201) 332-6413,Profit,01/20/2016,40.711417,-74.06475999999998
93,112791,NRA - VALDOSTA (NORTH) GEORGIA,2,4358 KINGS WAY,VALDOSTA,GA,31602,(229) 244-6923,Profit,01/23/2008,30.850126,-83.27883299999998
94,392845,"ETOWAH DIALYSIS, LLC",,1220 3RD STREET,WHITEHALL,PA,18052,(610) 266-1706,Profit,04/26/2016,40.679195,-75.578278
95,162520,ATLANTIC DIALYSIS,5,1500 E 10TH STREET,ATLANTIC,IA,50022,(712) 243-7485,Profit,06/20/2000,41.392887,-95.021973
96,682609,FMC-TROUT RIVER DIALYSIS,,3107 EDGEWOOD AVE W,JACKSONVILLE,FL,32209,(904) 765-5033,Profit,07/13/2016,30.337019,-81.661302
97,392864,"RENAL TREATMENT CENTERS - MID ATLANTIC, INC.",,96 JUNE DRIVE,ROARING SPRING,PA,16673,(814) 224-6290,Profit,10/16/2017,40.334785,-78.395967
98,012541,FMC DADEVILLE,5,52 WATERWORKS RD,DADEVILLE,AL,36853,(256) 825-2740,Profit,03/11/1992,32.826114000000004,-85.776201
99,062562,PARKER DIALYSIS (DVA),3,10371 S PARK GLENN WAY STE 180,PARKER,CO,80138,(303) 840-0541,Profit,01/14/2009,39.50442,-104.773035
100,182503,FMC - LOUISVILLE,4,720 EAST BROADWAY STREET,LOUISVILLE,KY,40202,(502) 584-3021,Profit,11/08/1989,38.178077,-85.666708
101,182543,FMC - SOUTHWEST,3,9616 DIXIE HWY.,VALLEY STATION,KY,40272,(502) 937-2996,Profit,12/22/1997,38.178077,-85.666708
102,012653,PHYSICIAN'S CHOICE OF LEE COUNTY,1,5009 RIVERCHASE DRIVE,PHENIX CITY,AL,36867,(334) 664-0700,Profit,04/11/2012,32.461669,-85.025021
103,102874,CORVA GULF COAST DIALYSIS CENTER,4,1121 OVERCASH DRIVE,DUNEDIN,FL,34698,(727) 733-1112,Profit,02/17/2009,28.025744,-82.81535799999997
104,012630,DAVITA WIREGRASS KIDNEY CENTER,4,1450 ROSS CLARK CIRCLE,DOTHAN,AL,36301,(334) 792-8907,Profit,12/23/2008,31.233698,-85.406823
105,682581,FMC - PORT CHARLOTTE,,2020 TAMIAMI TRAIL,PORT CHARLOTTE,FL,33948,(941) 255-0371,Profit,06/26/2015,26.989467,-82.113651
106,012657,"FRESENIUS MEDICAL CARE BIRMINGHAM HOME, LLC",4,35 WEST LAKESHORE DRIVE,BIRMINGHAM,AL,35209,(205) 290-1197,Profit,10/30/2012,33.527444,-86.799047
107,012654,BIO-MEDICAL APPLICATIONS OF ALABAMA,2,100 MITYLENE PARK LN,MONTGOMERY,AL,36117,(334) 274-4300,Profit,05/25/2012,32.346251,-86.26859300000002
108,012665,"RENAL TREATMENT CENTERS SOUTHEAST, LP",5,1023 DOUGLAS AVENUE,BREWTON,AL,36426,(251) 867-8509,Profit,07/31/2013,31.090708000000006,-87.055379
109,152572,DSI - GREENWOOD RENAL CENTER,4,"125 AIRPORT PARKWAY, SUITE 140",GREENWOOD,IN,46143,(317) 883-1280,Profit,04/01/2006,39.609531,-86.10724
110,182518,DAVITA - TAYLOR COUNTY DIALYSIS,4,1595 OLD LEBANON ROAD,CAMPBELLSVILLE,KY,42718,(270) 465-0787,Profit,04/04/1990,37.344243,-85.34671800000002
111,012670,DVA RENAL HEALTHCARE INC,3,300-B 22ND STREET SOUTH,BIRMINGHAM,AL,35233,(205) 250-6757,Profit,09/26/2013,33.527444,-86.799047
112,182568,DAVITA - BARDSTOWN DIALYSIS,3,210 W JOHN FITCH AVENUE,BARDSTOWN,KY,40004,(502) 350-1130,Profit,04/21/2004,37.794233,-85.449325
113,012545,TUSCALOOSA DIALYSIS,3,805 OLD MILL STREET,TUSCALOOSA,AL,35401,(205) 752-6363,Profit,08/11/1992,33.233083,-87.525798
114,012655,RENAL TREATMENT CENTERS SOUTHEAST LP,4,757 SOUTH THREE NOTCH STREET,ANDALUSIA,AL,36420,(334) 222-1628,Profit,06/21/2012,31.309436,-86.478031
115,112522,DIALYSIS CLINIC INC NORTHSIDE,2,870 NORTHSIDE DRIVE STE 300,ATLANTA,GA,30318,(404) 888-4520,Non-Profit,07/06/1981,33.762909,-84.422675
116,012570,NORTHPORT DIALYSIS,1,2401 HOSPITAL DRIVE,NORTHPORT,AL,35476,(205) 339-8882,Profit,12/03/1996,33.257693,-87.596404
117,112846,LAKE OCONEE DIALYSIS,3,"1000 COWLES CLINIC WAY, SUITE S-100",GREENSBORO,GA,30642,(706) 454-1440,Profit,12/22/2011,33.570499,-83.186035
118,152502,FMC - INDIANAPOLIS-EAST,3,6701 E. 21ST STREET,INDIANAPOLIS,IN,46219,(317) 358-1037,Profit,08/06/1986,39.776664,-86.145935
119,262644,GRANDVIEW DIALYSIS,3,13812 S 71 HWY,GRANDVIEW,MO,64030,(816) 763-1179,Non-Profit,08/30/2011,38.881359,-94.522744
120,062558,KIDNEY CENTER OF WESTMINSTER (ARA),4,8410 DECATUR ST STE 200,WESTMINSTER,CO,80031,(303) 430-6518,Profit,08/26/2008,39.88219,-105.064426
121,012644,JEWEL DIALYSIS,4,514 W. TOWN PLAZA,BESSEMER,AL,35020,(205) 481-4386,Profit,10/27/2011,33.370824,-86.97150400000002
122,192544,FMCNA - PONTCHARTRAIN KIDNEY CTR,2,170 GREENBRIAR DR,COVINGTON,LA,70433,(985) 893-7265,Profit,07/27/1987,30.480252,-90.112577
123,112704,DCI ALBANY WEST TOWN,3,1921 W OAKRIDGE DR,ALBANY,GA,31707,(229) 435-9295,Non-Profit,11/15/2001,31.577669,-84.17945300000002
124,012685,"SPREWELL DIALYSIS, LLC",,1724 LEIGHTON AVE,ANNISTON,AL,36207,(256) 236-5864,Profit,06/02/2016,33.67344,-85.810918
125,012609,EUFAULA DIALYSIS,5,220 SOUTH ORANGE AVE,EUFAULA,AL,36027,(334) 688-0806,Profit,04/09/2003,31.910041,-85.152556
126,012672,"FRESENIUS MEDICAL CARE WEST MADISON, LLC",4,29569 HUNTSVILLE BROWNS FERRY RD,MADISON,AL,35756,(256) 233-5757,Profit,01/22/2014,34.710533,-86.76228
127,102759,NORTH OKALOOSA DIALYSIS CENTER,3,320 W REDSTONE AVE,CRESTVIEW,FL,32536,(850) 683-5700,Profit,07/21/1999,30.747616,-86.57950500000003
128,102794,ARA - WEST JACKSONVILLE LLC,3,425 N LEE STREET SUITE 103,JACKSONVILLE,FL,32204,(904) 598-2711,Profit,10/30/2002,30.339552,-81.39666899999997
129,012643,ENDEAVOR DIALYSIS,5,1675 SPARKMAN DRIVE,HUNTSVILLE,AL,35816,(256) 722-0013,Profit,07/05/2011,34.784271000000004,-86.538996
130,152567,FMC - SEYMOUR,3,200 EAST THIRD STREET,SEYMOUR,IN,47274,(812) 524-9885,Profit,04/03/2000,38.944819,-85.892393
131,222582,FRESENIUS MEDICAL CARE MERRIMACK VALLEY,3,100 MILK STREET,METHUEN,MA,01844,(978) 686-9900,Profit,09/01/2013,42.742526,-71.179149
132,042548,DAVITA - NORTH LITTLE ROCK DIALYSIS CTR,3,4505 E MCCAIN BLVD,NORTH LITTLE ROCK,AR,72117,(501) 945-2323,Profit,05/29/1998,34.781873,-92.234937
133,102791,FMC - VENICE,4,1120 INDIAN HILLS BLVD,VENICE,FL,34293,(941) 493-5969,Profit,03/13/2002,27.042831,-82.41629499999998
134,152577,FMC -  LINTON,3,1204 N. 1000 W.,LINTON,IN,47441,(812) 847-3811,Profit,03/29/2001,39.306479,-87.411753
135,182617,DAVITA - HI HAT HOME TRAINING,,17721 KY ROUTE 122,HI HAT,KY,41636,(606) 377-6393,Profit,08/21/2012,37.550128,-82.62462099999998
136,042570,DAVITA - MALVERN DIALYSIS,5,1590 TANNER RD,MALVERN,AR,72104,(501) 332-3000,Profit,04/14/2003,34.369633,-92.819838
137,102792,FMC - BOYNTON BEACH GULF STREAM,2,3925 W BOYNTON BEACH BLVD #110,BOYNTON BEACH,FL,33436,(561) 740-4025,Profit,06/26/2002,26.528327,-80.08073399999998
138,102679,WEST TAMPA  DIALYSIS,2,4515 GEORGE RD SUITE 300,TAMPA,FL,33634,(813) 884-4008,Profit,06/23/1995,27.970086,-82.47967299999998
139,112667,DSI FORSYTH DIALYSIS,3,91 MARTIN LUTHER KING JR. DRIVE,FORSYTH,GA,31029,(478) 994-6488,Profit,10/14/1999,33.034543,-83.938062
140,222561,SOUTH COUNTY DIALYSIS CENTER,4,336 THOMPSON ROAD SUITE 1,WEBSTER,MA,01570,(508) 943-3998,Profit,09/03/2003,42.047075,-71.845805
141,252548,FMC KOSCIUSKO,5,107 RIDGEWOOD CIRCLE,KOSCIUSKO,MS,39090,(662) 289-3000,Profit,04/01/1995,33.058169,-89.589364
142,152551,FMC - SHELBYVILLE,3,2500 PARKWAY DR.,SHELBYVILLE,IN,46176,(317) 398-6695,Profit,08/01/1997,39.533819,-85.773697
143,102814,RENAL CARE GROUP - NAVARRE,3,8888 NAVARRE PKWY,NAVARRE,FL,32566,(850) 515-0810,Profit,03/16/2005,30.375401,-86.89598000000002
144,012585,ENSLEY DIALYSIS,2,2630 AVENUE E,BIRMINGHAM,AL,35218,(205) 786-1371,Profit,08/01/1998,33.527444,-86.799047
145,182501,UNIVERSITY KIDNEY CENTER LLC.,4,615 SOUTH PRESTON STREET,LOUISVILLE,KY,40202,(502) 852-5757,Non-Profit,11/16/1999,38.178077,-85.666708
146,012534,BESSEMER KIDNEY CENTER,2,975 9TH AVE SW,BESSEMER,AL,35022,(205) 424-3757,Profit,03/22/1988,33.370824,-86.97150400000002
147,682539,COASTAL DIALYSIS CENTER,4,641 UNIVERSITY BLVD #209,JUPITER,FL,33458,(561) 253-8121,Profit,06/26/2013,26.92148,-80.110101
148,152646,DAVITA - SCOTTSBURG DIALYSIS,5,1619 W. MCCLAIN AVE.,SCOTTSBURG,IN,47170,(812) 752-5249,Profit,07/07/2011,38.686793,-85.78378000000002
149,042508,DAVITA - RIVER VALLEY DIALYSIS,3,3121 W SECOND CT,RUSSELLVILLE,AR,72801,(479) 968-4687,Profit,10/08/1983,35.276382,-93.138762
150,062571,THORNTON KIDNEY CENTER LLC  (ARA),3,8451 PEARL STREET,THORNTON,CO,80229,(303) 227-9981,Profit,10/12/2011,39.918037,-104.945448
151,182507,FMC - PRESTONSBURG,3,61 DEWEY STREET,PRESTONSBURG,KY,41653,(606) 886-3893,Profit,06/26/1986,37.701641,-82.751824
152,072547,PALOMBA DRIVE DIALYSIS,,51 PALOMBA DRIVE,ENFIELD,CT,06082,(860) 749-0476,Profit,03/16/2015,41.983993,-72.555553
153,042592,DCI - LITTLE ROCK RENAL SERVICES LLC,,1910 JOHN BARROW RD,LITTLE ROCK,AR,72204,(501) 227-0983,Non-Profit,10/20/2015,34.781873,-92.234937
154,112777,MOUNTAIN PARK DIALYSIS,4,5235 MEMORIAL DR,STONE MOUNTAIN,GA,30083,(404) 296-1344,Profit,12/21/2006,33.804187,-84.17142
155,012598,DCI PHENIX CITY,4,1611 21ST COURT,PHENIX CITY,AL,36867,(334) 448-4840,Profit,02/09/2000,32.461669,-85.025021
156,682571,FMC - NICEVILLE,3,4304 LANCASTER DR,NICEVILLE,FL,32578,(850) 729-4141,Profit,01/22/2015,30.496864,-86.472303
157,012618,RRC NORTHRIDGE,,4400 WATERMELON ROAD,NORTHPORT,AL,35473,(205) 722-2968,Profit,10/25/2006,33.257693,-87.596404
158,102525,TREASURE COAST KIDNEY CENTER NORTH,4,2348 SE OCEAN BLVD,STUART,FL,34996,(772) 286-2470,Profit,09/01/1976,27.203571000000004,-80.218314
159,102834,HIALEAH ARTIFICIAL KIDNEY CENTER,4,8524 NW 103RD ST,HIALEAH,FL,33016,(305) 827-0576,Profit,06/26/2006,25.869941,-80.302865
160,102602,HERNANDO KIDNEY CENTER,3,2985  LANDOVER BLVD,SPRING HILL,FL,34608,(352) 683-3630,Profit,06/03/1988,28.479207,-82.529658
161,012663,RENAL TREATMENT CENTERS SOUTHEAST LP,4,611 EAST LAFAYETTE STREET,MARION,AL,36756,(334) 683-8519,Profit,03/27/2013,32.631968,-87.31733299999998
162,102800,"FMC-MIAMI SHORES, LLC",1,9999 NE 2ND AVE,MIAMI SHORES,FL,33138,(786) 621-4888,Profit,10/22/2003,25.867011,-80.178341
163,102603,RAI CARE CENTERS - PORT SAINT LUCIE,2,8661 S US HWY 1,PORT SAINT LUCIE,FL,34952,(772) 807-7229,Profit,06/20/1988,27.539014,-80.38716
164,112534,"SANDERSVILLE DIALYSIS CLINIC, LLC",4,614 S HARRIS STREET STE F,SANDERSVILLE,GA,31082,(478) 552-6818,Profit,07/12/1984,33.004085,-82.807838
165,102877,ARA NORTH JACKSONVILLE,2,1725 OAKHURST AVENUE SUITE 100,JACKSONVILLE,FL,32208,(904) 766-2279,Profit,04/10/2009,30.337019,-81.661302
166,222564,PDI - WORCESTER,3,19 GLENNIE STREET,WORCESTER,MA,01605,(508) 421-9539,Profit,03/10/2005,42.269478,-71.807783
167,152611,FMC - NEPHROLOGY - MARSHALL COUNTY,5,"2855 MILLER DRIVE,  STE 209",PLYMOUTH,IN,46563,(574) 936-2754,Profit,07/18/2007,41.349424,-86.319434
168,160080,MERCY MEDICAL CENTER - CLINTON,5,638 S. BLUFF BLVD.,CLINTON,IA,52732,(563) 244-3683,Non-Profit,03/04/1992,40.615992,-93.382004
169,220163,U-MASS MEMORIAL HEALTH CARE SYSTEMS,,DIALYSIS UNIT,WORCESTER,MA,01655,(774) 442-3814,Non-Profit,12/12/1989,42.269478,-71.807783
170,682591,CENTRAL FLORIDA KINDEY CENTER-EAST ORLANDO,,401 S CHICKASAW TRAIL,ORLANDO,FL,32825,(407) 434-8910,Profit,12/22/2015,28.415886,-81.29875
171,062555,KIDNEY CENTER OF LAFAYETTE (ARA),5,2655 CRESCENT DR STE C,LAFAYETTE,CO,80026,(720) 890-4661,Profit,07/10/2008,39.994814,-105.099676
172,102513,FORT MYERS DIALYSIS,3,4220 EXECUTIVE CIRCLE #38,FORT MYERS,FL,33916,(239) 274-3681,Profit,09/01/1976,26.61901,-81.831956
173,152653,DAVITA - SUMMIT CITY DIALYSIS,3,3233 EAST COLISEUM BLVD.,FORT WAYNE,IN,46805,(260) 373-1599,Profit,05/21/2012,41.088173,-85.14388000000002
174,072506,ENFIELD DIALYSIS CENTER,3,113 ELM STREET,ENFIELD,CT,06082,(860) 745-9800,Profit,09/28/1990,41.983993,-72.555553
175,072537,NORTH HAVEN DIALYSIS CENTER,4,266 STATE STREET SUITE 2,NORTH HAVEN,CT,06473,(203) 230-1946,Profit,06/01/2009,41.381327,-72.856347
176,062533,COMMERCE CITY DIALYSIS (DVA),5,6320 HOLLY ST,COMMERCE CITY,CO,80022,(303) 853-4300,Profit,02/28/2000,39.883473,-104.791893
177,102857,CASSELBERRY DIALYSIS,3,4970 SOUTH US HWY 17-92,CASSELBERRY,FL,32707,(321) 207-7135,Profit,12/20/2007,28.661183,-81.321926
178,102823,WINTER PARK HOME PD DIALYSIS,3,4100 METRIC DRIVE #200,WINTER PARK,FL,32792,(407) 681-8730,Profit,08/29/2005,28.599069,-81.347821
179,070035,NEW BRITAIN GENERAL HOSPITAL,3,DIALYSIS UNIT,NEW BRITAIN,CT,06050,(860) 224-5195,Non-Profit,08/25/1977,41.676555,-72.78616099999998
180,152568,DAVITA - DAVIESS COUNTY DIALYSIS,5,310 NE 14TH STREET,WASHINGTON,IN,47501,(812) 254-9950,Profit,07/12/2000,41.226565,-85.71364200000002
181,152641,FMC - SCOTT COUNTY DIALYSIS,3,130 N. WESTAVIA BLVD,SCOTTSBURG,IN,47170,(812) 754-0630,Profit,03/10/2010,38.686793,-85.78378000000002
182,682504,A UNIQUE KIDNEY CENTER LLC,,3105 N UNIVERSITY DR,DAVIE,FL,33024,(954) 438-6080,Profit,04/08/2011,26.079142,-80.285028
183,102701,FT LAUDERDALE DIXIE DIALYSIS,3,1299 EAST COMMERCIAL BLVD #100,OAKLAND PARK,FL,33334,(954) 776-6056,Profit,08/27/1996,26.177865,-80.15266
184,072514,MILFORD DIALYSIS,5,470 BRIDGEPORT AVENUE,MILFORD,CT,06460,(203) 301-9040,Profit,03/17/1999,41.222692,-73.063641
185,152645,DAVITA - AVON DIALYSIS,3,"9210 ROCKVILLE ROAD, STE D",AVON,IN,46234,(317) 209-2544,Profit,04/19/2011,39.765279,-86.38263
186,192641,FMCNA - COUSHATTA,4,501 WILKINSON ST,COUSHATTA,LA,71019,(318) 932-5378,Profit,12/18/2000,32.025822,-93.34059
187,152628,DAVITA - CHESTERTON,4,"711 PLAZA DRIVE, SUITE 6",PORTER,IN,46304,(219) 926-6049,Profit,10/03/2008,41.627544,-87.08274399999998
188,012639,FMC MONTEVALLO,3,3883 HIGHWAY 25,MONTEVALLO,AL,35115,(205) 665-4440,Profit,08/30/2010,33.14517,-86.90499200000002
189,012684,"FRESENIUS MEDICAL CARE ALBERTVILLE, LLC",,173 BUSINESS PARK DR,ALBERTVILLE,AL,35951,(256) 878-4480,Profit,05/06/2016,34.26313,-86.21066
190,182628,"FMC - NAK BEREA, LLC",5,509 RICHMOND ROAD N,BEREA,KY,40403,(859) 985-8112,Profit,02/13/2015,37.60178,-84.240461
191,102828,RENAL CARE PARTNERS HOME PROGRAM,2,4970 SW 52ND ST #304,DAVIE,FL,33314,(954) 791-7301,Profit,11/28/2005,26.079142,-80.285028
192,852521,"DSI SNELLVILLE, LLC",,3370 SUGAR LOAF PARKWAY,LAWRENCEVILLE,GA,30044,(770) 225-0827,Profit,02/22/2017,33.952879,-83.992234
193,672796,CORYELL DIALYSIS,,224 MEMORIAL DRIVE,GATESVILLE,TX,76528,(254) 404-2090,Profit,11/07/2016,31.438667,-97.746027
194,102658,PINNACLE DIALYSIS OF BOCA RATON,4,2900 N MILITARY TRAIL SUITE 195,BOCA RATON,FL,33431,(561) 241-6667,Profit,06/17/1993,26.372855,-80.10629200000002
195,152545,DAVITA -  BLUE RIVER VALLEY RENAL CENTER,4,2309 S MILLER STREET   STE 100,SHELBYVILLE,IN,46176,(317) 398-0486,Profit,01/10/1997,39.533819,-85.773697
196,152649,DAVITA - APPLESEED,,1833 MAGNAVOX WAY,FORT WAYNE,IN,46804,(260) 432-1036,Profit,11/28/2011,41.088173,-85.14388000000002
197,012574,FMC CHAMBERS,5,802 HOSPITAL STREET,LAFAYETTE,AL,36862,(334) 864-9914,Profit,06/10/1997,32.927240000000005,-85.937122
198,182599,FMC - OF HARDIN COUNTY,2,"1324 WOODLAND DRIVE, STE B",ELIZABETHTOWN,KY,42701,(270) 763-0396,Profit,06/29/2009,37.692224,-85.82682
199,102739,UNIVERSAL KIDNEY CENTER INC,3,4875 NE 20TH TERRACE,FORT LAUDERDALE,FL,33308,(954) 958-9300,Profit,10/14/1998,26.141305,-80.143896
200,162523,NEWTON DIALYSIS,3,204 N 4TH AVE E  SUITE 134,NEWTON,IA,50208,(641) 792-2600,Profit,04/26/2001,41.696527,-93.040466
201,102593,ZEPHYRHILLS DIALYSIS,3,36819 EILAND BLVD,ZEPHYRHILLS,FL,33542,(813) 788-7041,Profit,03/04/1988,28.251666,-82.165444
202,102574,RAI CARE CENTERS - FORT PIERCE,2,2501 OHIO AVE,FORT PIERCE,FL,34950,(772) 465-6551,Profit,05/10/1985,27.409604,-80.353879
203,102678,OCALA REGIONAL KIDNEY CENTER EAST,3,2870 SE 1ST AVE,OCALA,FL,34471,(352) 351-9140,Profit,12/27/1994,29.180314000000006,-82.148787
204,012599,FMC PORT CITY,3,"201 ST. JOSEPH STREET, SUITE B",MOBILE,AL,36602,(251) 652-1025,Profit,02/07/2001,30.668426,-88.100226
205,102813,COASTAL KIDNEY CENTER,4,510 N MCARTHUR AVE,PANAMA CITY,FL,32401,(850) 914-0824,Profit,12/13/2004,30.232699,-85.87854300000002
206,102892,PALM BREEZE DIALYSIS,4,14942 TAMIAMI TRAIL SUITE G,NORTH PORT,FL,34287,(941) 429-0443,Profit,04/02/2010,27.058166,-82.198044
207,072535,BLACK ROCK DIALYSIS,5,427 STILLSON RD,FAIRFIELD,CT,06824,(203) 382-9566,Profit,10/08/2008,41.17594,-73.272046
208,112591,FMCNA CARTERSVILLE,5,14 ROVING ROAD SE,CARTERSVILLE,GA,30121,(770) 386-8168,Profit,12/22/1993,34.183803999999995,-84.803485
209,042507,DAVITA - OUACHITA DIALYSIS,2,1900 MALVERN AVE STE 102,HOT SPRINGS,AR,71901,(501) 624-0196,Profit,04/12/1982,34.658855,-92.968998
210,102787,RENAL CARE GROUP - CLERMONT,2,312 MOWHAWK RD,CLERMONT,FL,34715,(352) 243-1200,Profit,01/03/2002,28.558302,-81.764779
211,012612,FMC GARDENDALE,3,592 FIELDSTOWN ROAD,GARDENDALE,AL,35071,(205) 608-3653,Profit,12/17/2003,33.676587,-86.809844
212,072529,VERNON DIALYSIS CENTER,3,460 HARTFORD TURNPIKE,VERNON ROCKVILLE,CT,06066,(860) 896-1537,Profit,09/01/2006,41.992948,-73.195432
213,163509,UNIVERSITY OF IOWA HOSPITAL & CLINICS - NORTH LIBERTY,3,5 LIONS DRIVE,NORTH LIBERTY,IA,52317,(319) 467-7190,Non-Profit,09/01/1998,41.74437,-91.614508
214,182606,DAVITA - VERSAILLES DIALYSIS,2,"480 LEXINGTON ROAD STE, E",VERSAILLES,KY,40383,(859) 256-0110,Profit,09/02/2010,38.050275,-84.733856
215,012516,DSI SOUTH DIALYSIS,3,3201 3RD AVE SOUTH,BIRMINGHAM,AL,35222,(205) 502-5300,Profit,12/02/1982,33.527444,-86.799047
216,162554,GREEN COUNTRY DIALYSIS,4,5250 UTICA RIDGE RD,DAVENPORT,IA,52807,(563) 355-7913,Profit,09/24/2012,41.554104,-90.603997
217,112504,BMA OF ATLANTA INC,5,1720 PHOENIX PARKWAY,COLLEGE PARK,GA,30349,(770) 996-5889,Profit,09/01/1976,33.638149,-84.46008
218,160079,MERCY MEDICAL CENTER - CEDAR RAPIDS,,701 10TH ST SE,CEDAR RAPIDS,IA,52403,(319) 398-6432,Non-Profit,03/12/1985,41.967048,-91.67776
219,152535,FMC - NEPHROLOGY - LA PORTE,5,2910 MONROE ST,LA PORTE,IN,46350,(219) 324-0944,Profit,10/01/1995,41.607896,-86.713606
220,072549,WALLINGFORD DIALYSIS CARE LLC,,720 N MAIN STREET EXT,WALLINGFORD,CT,06492,(978) 922-3080,Profit,01/06/2016,41.449917,-72.818334
221,102879,FMC - OCEANWAY,1,12961 NORTH MAIN ST SUITE 305,JACKSONVILLE,FL,32218,(904) 757-7425,Profit,06/03/2009,30.337019,-81.661302
222,012506,DOTHAN DIALYSIS,4,216 GRACELAND DR.,DOTHAN,AL,36305,(334) 793-4077,Profit,11/28/1977,31.218564,-85.37661700000002
223,182550,FMC - DANVILLE,4,975 HUSTONVILLE RD. SUITE #1,DANVILLE,KY,40422,(859) 236-2214,Profit,02/26/2002,37.653857,-84.781077
224,102610,FMC DIALYSIS SERVICES - NORTH JACKSONVILLE,2,10614 LEM TURNER RD,JACKSONVILLE,FL,32218,(904) 768-8576,Profit,09/02/1988,30.337019,-81.661302
225,682605,FMC-AUBURNDALE,,365 HAVENDALE BLVD,AUBURNDALE,FL,33823,(863) 551-3159,Profit,05/09/2016,28.010947,-81.748305
226,072507,NEW HAVEN DIALYSIS,3,15 CENTER STREET,NEW HAVEN,CT,06510,(203) 859-7770,Profit,10/12/1993,41.310809000000006,-72.924953
227,172542,NE WICHITA DIALYSIS CENTER,3,2630 N WEBB RD,WICHITA,KS,67226,(316) 636-5719,Profit,01/23/2003,37.690694,-97.342678
228,012575,RCG WALKER,1,3510 3RD STREET NE,JASPER,AL,35504,(205) 221-8775,Profit,01/08/1998,33.854951,-87.27074
229,682506,FMC - PANAMA CITY,3,2100 HARRISON AVE,PANAMA CITY,FL,32405,(850) 522-5407,Profit,04/18/2011,30.232699,-85.87854300000002
230,102836,JACKSONVILLE BEACH DIALYSIS,3,1711 5TH STREET SOUTH,JACKSONVILLE BEACH,FL,32250,(904) 247-9974,Profit,11/15/2006,30.339552,-81.39666899999997
231,102831,HILLIARD DIALYSIS CENTER LLC,3,551858 US HWY 1 #118,HILLIARD,FL,32046,(904) 845-2612,Profit,03/27/2006,30.686897,-81.92116899999998
232,182521,FMC - DIALYSIS SERVICES OF AUDUBON,3,"2355 POPLAR LEVEL ROAD, SUITE G 2-10",LOUISVILLE,KY,40217,(502) 637-1771,Profit,11/18/1991,38.178077,-85.666708
233,132514,LIBERTY DIALYSIS - IDAHO FALLS,5,2381 E SUNNYSIDE ROAD,IDAHO FALLS,ID,83404,(208) 523-8500,Profit,11/14/2006,43.487517,-112.03571200000002
234,072550,FRESENIUS MEDICAL CARE WINDSOR,,1 EMERSON DRIVE,WINDSOR,CT,06095,(860) 285-8612,Profit,06/01/2016,41.83809,-72.577836
235,152579,FMC - BLOOMINGTON MONROE,4,575 SOUTH PATTERSON DRIVE,BLOOMINGTON,IN,47403,(812) 333-5600,Profit,07/15/1986,39.1637,-86.524264
236,012668,"BAGBY DIALYSIS, LLC",3,671 OZARK ROAD,ABBEVILLE,AL,36310,(334) 585-0131,Profit,08/21/2013,31.596562,-85.30430799999998
237,172536,WYANDOTTE WEST DIALYSIS,3,11014 HASKELL AVE,KANSAS CITY,KS,66109,(913) 721-9780,Profit,03/11/1999,39.122539,-94.741781
238,112527,WASHINGTON DIALYSIS FACILITY,5,154 WASHINGTON PLAZA,WASHINGTON,GA,30673,(706) 678-5855,Profit,10/26/1983,33.705159,-82.670919
239,152534,FMC - INDIANAPOLIS-SOUTH,3,1350 E COUNTY LINE RD SUITE L,INDIANAPOLIS,IN,46227,(317) 865-8520,Profit,01/01/1996,39.776664,-86.145935
240,012525,FMC WEST MOBILE,4,6601 WALL STREET,MOBILE,AL,36695,(251) 633-2681,Profit,12/02/1985,30.668426,-88.100226
241,152598,FMC - LIBERTY DIALYSIS - CRAWFORDSVILLE,1,1710 LAFAYETTE ROAD,CRAWFORDSVILLE,IN,47933,(765) 359-1613,Profit,06/26/2002,40.04328,-86.896694
242,012521,DCI DOTHAN,4,1630 COLUMBIA HWY,DOTHAN,AL,36303,(334) 793-3519,Non-Profit,03/11/1985,31.218564,-85.37661700000002
243,222529,BROOKLINE DIALYSIS,2,322 WASHINGTON STREET,BROOKLINE,MA,02445,(617) 734-7794,Profit,10/17/1994,42.323853,-71.142002
244,152564,FMC - EAST CHICAGO DIALYSIS CENTER,3,1207 EAST CHICAGO AVENUE,EAST CHICAGO,IN,46312,(219) 397-7751,Profit,02/02/2000,41.65045900000001,-87.451123
245,072546,U.S.RENAL CARE BRANFORD DIALYSIS,5,322 EAST MAIN STREET,BRANFORD,CT,06405,(203) 483-0710,Profit,07/09/2014,41.277654,-72.81609499999998
246,152676,"RANDOLPH DIALYSIS, LLC",,6721 OLD TRAIL ROAD,FORT WAYNE,IN,46809,(260) 478-8582,Profit,11/02/2016,41.088173,-85.14388000000002
247,102596,DSI SARASOTA DIALYSIS,5,1921 WALDEMERE ST STE 107,SARASOTA,FL,34239,(941) 917-6444,Profit,04/06/1988,27.286278000000006,-82.53313299999998
248,012501,GADSDEN DIALYSIS,2,409 SOUTH FIRST STREET,GADSDEN,AL,35901,(256) 547-2457,Profit,09/01/1976,34.009563,-86.01564300000003
249,012647,CROWN DIALYSIS,3,3007 27TH STREET NORTH,BIRMINGHAM,AL,35207,(205) 297-0143,Profit,01/03/2012,33.527444,-86.799047
250,152609,FMC - CARMEL,3,"12400 NORTH MERIDIAN ST., STE 200",CARMEL,IN,46032,(317) 575-8312,Profit,06/01/2007,39.965479,-86.14836899999997
251,102749,RCG - SACRED HEART - PED DIALYSIS,,5151 N 9TH AVE,PENSACOLA,FL,32504,(850) 416-7426,Profit,01/26/1999,30.441266,-87.189943
252,042532,FMCNA - PINE BLUFF,1,2910 MARKET ST,PINE BLUFF,AR,71601,(870) 536-8050,Profit,04/21/1993,34.211591,-92.017555
253,102767,FMC DIALYSIS SERVICES - FT LAUDERDALE,2,3863 W BROWARD BLVD,FT. LAUDERDALE,FL,33312,(954) 321-7772,Profit,02/09/2000,26.141305,-80.143896
254,102888,GATEWAY DIALYSIS,4,5705 LEE BLVD #16,LEHIGH ACRES,FL,33971,(239) 479-5251,Profit,03/24/2010,26.612695,-81.63884499999998
255,222513,CHICOPEE DIALYSIS CENTER,4,I 391 INDUSTRIAL PARK,CHICOPEE,MA,01013,(413) 535-2529,Profit,01/17/1991,42.175668,-72.572257
256,102628,GULF COAST DIALYSIS INC.,4,3300 TAMIAMI TRAIL SUITE 101A,PORT CHARLOTTE,FL,33952,(941) 625-9985,Profit,03/22/1991,26.989467,-82.113651
257,182554,FMC -  DIALYSIS OF MAYFIELD,3,1029 MEDICAL CENTER CIRCLE STE 301,MAYFIELD,KY,42066,(270) 247-7291,Profit,05/23/1996,36.735935,-88.644607
258,012648,PCD GADSDEN,3,800 GOODYEAR AVENUE,GADSDEN,AL,35903,(256) 456-1242,Profit,11/18/2011,34.009563,-86.01564300000003
259,102765,TALLAHASSEE SOUTH DIALYSIS,3,2410 S ADAMS ST,TALLAHASSEE,FL,32301,(850) 224-8757,Profit,12/06/1999,30.469411,-84.325176
260,162506,WEST DES MOINES DIALYSIS,4,6800 LAKE DR #185,WEST DES MOINES,IA,50266,(515) 221-2944,Profit,01/01/1996,41.19735,-92.712736
261,182570,DAVITA - LOUISVILLE DIALYSIS,3,8037 DIXIE HIGHWAY,LOUISVILLE,KY,40258,(502) 937-9111,Profit,09/28/2004,38.178077,-85.666708
262,152644,DAVITA - NEWBURGH DIALYSIS,3,"4311 HWY 261, SUITE A",NEWBURGH,IN,47630,(812) 853-2010,Profit,02/02/2011,37.949202,-87.40459200000002
263,102586,GREATER MIAMI DIALYSIS,5,160 NW 176TH ST #100,MIAMI,FL,33169,(305) 653-6033,Profit,12/16/1987,25.901064,-80.168458
264,102645,COMPLETE DIALYSIS CARE,4,7467 W SAMPLE RD,CORAL SPRINGS,FL,33065,(954) 753-0248,Profit,05/18/1992,26.270783,-80.259291
265,852504,DSI DEKALB DIALYSIS,,4570B MEMORIAL DRIVE,DECATUR,GA,30032,(404) 720-8154,Profit,10/14/2015,33.771455,-84.297857
266,682573,OCALA WEST HOME TRAINING,,8615 SW 103RD STREET RD,OCALA,FL,34481,(352) 854-3099,Profit,01/27/2015,29.180314000000006,-82.148787
267,100038,MEMORIAL REGIONAL HOSP - PEDIATRIC DIALYSIS,,3501 JOHNSON ST,HOLLYWOOD,FL,33021,(954) 265-0100,Non-Profit,09/01/1976,26.031105,-80.164574
268,012627,HOME DIALYSIS OPTIONS OF BALDWIN COUNTY,,"27880 N. MAIN ST, SUITE A",DAPHNE,AL,36526,(251) 626-1086,Profit,10/21/2008,30.625545,-87.895979
269,152550,FMC - DEKALB COUNTY DIALYSIS,2,1144 WEST 15TH STREET,AUBURN,IN,46706,(260) 927-1309,Profit,06/09/1997,41.366726,-85.05436800000003
270,012512,FMC SELMA,3,905 MEDICAL CENTER PARKWAY,SELMA,AL,36701,(334) 874-9021,Profit,08/25/1980,32.416985,-87.03471
271,012604,RCG CLANTON,4,275 HEALTH CENTER DRIVE,CLANTON,AL,35045,(205) 280-4331,Profit,03/27/2002,32.841704,-86.623008
272,112508,"DIALYSIS CENTER OF MACON, LLC",3,890 SECOND STREET,MACON,GA,31201,(478) 743-0584,Profit,06/03/2015,32.830953,-83.64891800000002
273,102882,LEHIGH ACRES DIALYSIS CENTER LLC,3,3227 LEE BOULEVARD,LEHIGH ACRES,FL,33971,(239) 303-1724,Profit,06/22/2009,26.612695,-81.63884499999998
274,112683,PERRY DIALYSIS CENTER,5,D/B/A PERRY DIALYSIS CENTER,PERRY,GA,31069,(478) 987-7120,Profit,08/04/2000,32.469832000000004,-83.71928199999998
275,852506,BIO-MEDICAL APPLICATIONS OF GEORGIA,,110 LOGAN COURT,ALBANY,GA,31707,(229) 883-1119,Profit,04/20/2016,31.577669,-84.17945300000002
276,152664,DAVITA - ELKHART,2,1401 N MICHIGAN ST,ELKHART,IN,46514,(574) 262-5295,Profit,09/11/2014,41.691167,-85.965132
277,012537,FMC PRICHARD,3,4016 HWY 45,WHISTLER,AL,36613,(251) 330-1623,Profit,04/23/1990,30.773095,-88.130721
278,062556,KIDNEY CENTER OF LAKEWOOD (ARA),4,6166 W ALAMEDA AVE,DENVER,CO,80226,(303) 922-6371,Profit,07/15/2008,39.761849,-104.880625
279,162507,FMC - DAVENPORT,4,120 W. LOCUST ST.,DAVENPORT,IA,52803,(563) 323-3300,Profit,04/01/1996,41.554104,-90.603997
280,072532,U.S.RENAL CARE NORTH HAVEN DIALYSIS,3,510 WASHINGTON AVENUE,NORTH HAVEN,CT,06473,(203) 234-7071,Profit,06/04/2007,41.381327,-72.856347
281,262593,ST LOUIS RENAL CARE - FOREST PARK,3,1400 STRASSNER,SAINT LOUIS,MO,63144,(314) 785-1060,Profit,04/01/2002,38.61940900000001,-90.347608
282,112890,"INNOVATIVE HOME DIALYSIS OF GEORGIA, LLC",,3753 MARIETTA HIGHWAY,CANTON,GA,30114,(770) 345-4103,Profit,07/22/2014,34.234390000000005,-84.53890200000002
283,102702,NEW SMYRNA BEACH ARTIFICIAL KIDNEY CENTER,3,821 STATE ROAD 44,NEW SMYRNA BEACH,FL,32168,(386) 409-8855,Profit,09/04/1996,29.02936,-80.95486
284,072511,GREATER WATERBURY DAVITA DIALYSIS,5,209 HIGHLAND AVENUE,WATERBURY,CT,06708,(203) 574-7933,Profit,12/01/1995,41.5585,-73.03668499999998
285,682595,CAPE CORAL HOME TRAINING,,3637 DEL PRADO BLVD S,CAPE CORAL,FL,33904,(239) 542-7076,Profit,03/01/2016,26.655205,-82.00428000000002
286,062523,LOVELAND DIALYSIS (FMC),3,2940 GINNALA DR,LOVELAND,CO,80538,(970) 663-9155,Profit,12/09/1996,40.41708,-105.061855
287,222515,SOUTH SUBURBAN DIALYSIS FACILITY,4,(BMA QUINCY),QUINCY,MA,02169,(617) 847-1700,Profit,04/10/1991,42.260915,-71.00939699999998
288,112776,DSI GRAY DIALYSIS,5,1002 BOULDER DRIVE,GRAY,GA,31032,(478) 986-3066,Profit,12/20/2006,33.851807,-83.98558100000002
289,012543,DEMOPOLIS DIALYSIS,3,511 S CEDAR STREET,DEMOPOLIS,AL,36732,(334) 289-9700,Profit,05/20/1992,32.417456,-87.892213
290,152596,DAVITA - WESTVIEW DIALYSIS,3,3749 COMMERCIAL DR.,INDIANAPOLIS,IN,46222,(317) 299-4693,Profit,12/19/2006,39.776664,-86.145935
291,682515,BIG LAKE KIDNEY CENTER LLC,3,3240 HIGHWAY 441 SOUTH,OKEECHOBEE,FL,34974,(863) 824-0225,Profit,11/08/2011,27.461658,-80.916572
292,682561,ST AUGUSTINE HOME TRAINING,,252 SOUTHPARK CIR E,SAINT AUGUSTINE,FL,32086,(904) 823-1594,Profit,10/07/2014,29.895928,-81.311586
293,682530,SILVER SPRINGS SHORES DIALYSIS,2,9310 SPRING RD,OCALA,FL,34472,(352) 687-0403,Profit,02/04/2013,29.180314000000006,-82.148787
294,102898,POINCIANA DIALYSIS,2,1002 CYPRESS PARKWAY,POINCIANA,FL,34759,(321) 697-5658,Profit,02/14/2011,28.118729,-81.47923399999998
295,072527,FMC DIALYSIS SERVICES FORESTVILLE,4,135 MIDDLE STREET,BRISTOL,CT,06010,(860) 584-2155,Profit,01/30/2002,41.681578,-72.940749
296,012687,"BIO-MEDICAL APPLICATIONS OF ALABAMA, INC",,"2024 4TH AVE SOUTH, SUITE 100",BIRMINGHAM,AL,35233,(205) 321-5844,Profit,09/21/2016,33.527444,-86.799047
297,682554,DCI UNIVERSITY OF FLORIDA HOME PROGRAM,,3760 NW 83RD ST #3,GAINESVILLE,FL,32606,(352) 377-6790,Non-Profit,05/14/2014,29.678831,-82.345878
298,682598,LAND O LAKES DIALYSIS,,2100 VIA BELLA BLVD,LAND O LAKES,FL,34639,(813) 948-8157,Profit,03/09/2016,28.561456,-82.552686
299,102579,INVERNESS DIALYSIS CENTER,1,1510 HIGHWAY 41 NORTH,INVERNESS,FL,34450,(352) 637-0500,Profit,12/04/1986,28.825869,-82.34244699999998
300,102646,BRADENTON DIALYSIS,1,3501 CORTEZ RD W,BRADENTON,FL,34210,(941) 727-4209,Profit,05/06/1992,27.490921000000004,-82.574862
301,072543,HAMDEN DIALYSIS,4,3000 DIXWELL AVENUE SUITE 100,HAMDEN,CT,06518,(203) 281-5361,Profit,12/12/2011,41.397329,-72.922226
302,152562,FMC - NEOMEDICA - MUNSTER,3,314 RIDGE ROAD,MUNSTER,IN,46321,(219) 836-9317,Profit,11/10/1999,41.54751,-87.503268
303,102824,DSI SOUTH TAMPA LLC,3,731 WEST LUMSDEN,BRANDON,FL,33511,(813) 661-7474,Profit,10/05/2005,27.935985,-82.299255
304,042560,DAVITA - ASHLEY DIALYSIS CTR,5,1019 FRED LAGRONE DR,CROSSETT,AR,71635,(870) 305-1225,Profit,03/15/2000,33.148043,-92.016978
305,102557,FMC DIALYSIS SERVICES - SAINT AUGUSTINE,1,1680 OSCEOLA ELEMENTARY ROAD SUITE B,SAINT AUGUSTINE,FL,32084,(904) 824-6191,Profit,12/20/1982,30.198922,-81.394766
306,112630,DCI SYLVESTER,3,102 PINEVIEW DRIVE,SYLVESTER,GA,31791,(229) 776-0250,Non-Profit,10/23/1996,31.529137,-83.89497800000002
307,102764,LAKELAND SOUTH DIALYSIS,2,4774 SOUTH FLORIDA AVENUE,LAKELAND,FL,33813,(863) 646-0462,Profit,12/10/1999,28.055964000000003,-81.953682
308,102878,ADVANCED DIALYSIS CENTER OF FT LAUDERDALE,3,911 E OAKLAND PARK BLVD,OAKLAND PARK,FL,33334,(954) 318-7000,Profit,06/03/2009,26.177865,-80.15266
309,182588,FMC - NICHOLASVILLE DIALYSIS,5,115 ORCHARD PLACE DR.,NICHOLASVILLE,KY,40356,(859) 881-0332,Profit,10/17/2007,37.893076,-84.56655
310,102853,SOUTHWEST FLORIDA DIALYSIS CENTER,3,520 MANATEE AVE EAST,BRADENTON,FL,34208,(941) 747-5500,Profit,12/07/2007,27.490921000000004,-82.574862
311,682522,ST PETERSBURG KIDNEY CARE,4,800 3RD AVE S.,SAINT PETERSBURG,FL,33701,(727) 821-3201,Profit,07/16/2012,28.139752,-82.44442
312,102612,BMA - JACKSONVILLE,3,1944 ATLANTIC BLVD,JACKSONVILLE,FL,32207,(904) 396-7203,Profit,11/09/1988,30.244657,-81.54655799999998
313,182578,FMC - NA OF GRAYSON,3,286 STATE HIGHWAY 1947,GRAYSON,KY,41143,(606) 474-0475,Profit,03/22/2006,38.330867,-82.928499
314,072540,FMC OF WESTERN HARTFORD,3,"725 PARK AVENUE,",BLOOMFIELD,CT,06002,(860) 726-0099,Profit,11/22/2010,41.84493,-72.740951
315,012632,MUSCLE SHOALS DIALYSIS,5,712 STATE STREET,MUSCLE SHOALS,AL,35661,(256) 386-7028,Profit,09/16/2009,34.742657,-87.633767
316,112638,BAXLEY DIALYSIS,3,539 FAIR STREET,BAXLEY,GA,31513,(912) 366-0202,Profit,05/07/1997,31.764019,-82.35014
317,012659,"BIO-MEDICAL APPLICATIONS OF ALABAMA, INC.",3,9540 PARKWAY E,BIRMINGHAM,AL,35215,(205) 838-2652,Profit,01/10/2013,33.527444,-86.799047
318,012629,DAVITA RENAISSANCE,5,1840 DARBY DRIVE,FLORENCE,AL,35630,(256) 764-2313,Profit,10/15/2008,34.830349,-87.666096
319,262580,CHILLICOTHE DIALYSIS,3,588 E BUSINESS 36,CHILLICOTHE,MO,64601,(660) 707-1092,Profit,04/26/2000,39.786738,-93.53242
320,132511,IDAHO KIDNEY CENTER - POCATELLO,5,444 HOSPITAL WAY #600,POCATELLO,ID,83201,(208) 478-5600,Profit,10/05/2005,42.883262,-112.440988
321,062550,ALAMOSA DIALYSIS (DVA),5,612 DEL SOL DR,ALAMOSA,CO,81101,(719) 589-2022,Profit,04/01/2005,37.477266,-105.841969
322,072524,"MIDDLESEX DIALYSIS CENTER, LLC.",5,"100 MAIN STREET, SUITE A",MIDDLETOWN,CT,06457,(860) 346-5600,Profit,11/15/2000,41.548611,-72.656784
323,182610,FMC - MASONIC HOME DIALYSIS,3,3501 MOYERS CIRCLE SUITE 200,MASONIC HOME,KY,40041,(502) 721-1083,Profit,02/14/2011,37.567513,-85.259496
324,852520,"TOTAL RENAL CARE, INC.",,401 TOWN PARK BLVD,EVANS,GA,30809,(706) 854-9502,Profit,10/26/2016,33.567644,-82.140555
325,063301,THE CHILDRENS HOSPITAL KIDNEY CTR.,,13123 E 16TH AVE #328,AURORA,CO,80045,(720) 777-6263,Non-Profit,02/02/1992,39.688002,-104.68974
326,112530,COLUMBUS HOME DIALYSIS,3,2821 WARM SPRINGS ROAD,COLUMBUS,GA,31904,(706) 323-2415,Non-Profit,08/15/1983,32.510197,-84.874946
327,852510,ODIORNE DIALYSIS,,"2460 WESLEY CHAPEL RD, STE 25D",DECATUR,GA,30035,(770) 987-1439,Profit,05/24/2016,33.771455,-84.297857
328,152507,DAVITA - BATESVILLE DIALYSIS,3,232 STATE ROAD 129 SO.,BATESVILLE,IN,47006,(812) 934-5666,Profit,08/04/1987,39.297704,-85.213458
329,102569,KISSIMMEE DIALYSIS,1,802 JOHN YOUNG PARKWAY,KISSIMMEE,FL,34741,(407) 847-4423,Profit,02/29/1984,28.302854,-81.417852
330,682552,WINTER HAVEN SOUTH DIALYSIS,1,7220 CYPRESS GARDENS BLVD,WINTER HAVEN,FL,33884,(863) 324-5040,Profit,05/07/2014,28.045835,-81.732742
331,152651,DAVITA - JEFFERSONVILLE DIALYSIS,3,365 QUARTER MASTER COURT,JEFFERSONVILLE,IN,47130,(812) 288-2296,Profit,01/26/2012,38.333402,-85.697211
332,682619,"RENVIVA DIALYSIS CENTER OF CLEARWATER, LLC",,401 CORBETT,CLEARWATER,FL,33756,(727) 281-4490,Profit,04/10/2017,27.969183,-82.790027
333,072523,TORRINGTON DIALYSIS,4,C/O JOSEPH MARCANTONIO KIDNEY CENTER,TORRINGTON,CT,06790,(860) 496-0661,Profit,10/05/2000,41.834255,-73.13152
334,182514,FMC - WEST LOUISVILLE,4,2600 WEST BROADWAY SUITE 112,LOUISVILLE,KY,40211,(502) 772-7363,Profit,05/30/1988,38.178077,-85.666708
335,682512,RENOVATION OF LIFE DIALYSIS CENTER,3,14505 COMMERCE WAY #600,MIAMI LAKES,FL,33016,(305) 362-8399,Profit,10/05/2011,25.91684,-80.320545
336,102504,SOUTH BROWARD ARTIFICIAL KIDNEY CTR,3,4401 HOLLYWOOD BLVD,HOLLYWOOD,FL,33021,(954) 962-2211,Profit,09/01/1976,26.031105,-80.164574
337,112819,FMC CROSSROADS,1,1719 MAGNOLIA WAY,AUGUSTA,GA,30919,(706) 228-7253,Profit,09/29/2009,33.365531,-82.073422
338,682572,CLAY COUNTY DIALYSIS,2,1784 BLANDING BLVD,MIDDLEBURG,FL,32068,(904) 291-1537,Profit,02/03/2015,30.121995,-81.924293
339,682545,ARLINGTON DIALYSIS CENTER,3,7645 MERRILL RD #204,JACKSONVILLE,FL,32277,(904) 744-6130,Profit,02/10/2014,30.337019,-81.661302
340,152658,DAVITA - EAGLE HIGHLANDS,3,6925 SHORE TERRACE,INDIANAPOLIS,IN,46254,(317) 295-0423,Profit,12/03/2013,39.776664,-86.145935
341,222526,BOSTON DIALYSIS,3,DIALYSIS UNIT,BOSTON,MA,02118,(617) 859-7000,Profit,06/23/1993,42.33196,-71.020173
342,102642,SUN CITY CENTER DIALYSIS,2,783 CORTARO DR,RUSKIN,FL,33573,(813) 633-2847,Profit,11/04/1991,27.691485,-82.523206
343,112828,CONYERS DIALYSIS,4,1501 MILSTEAD RD NE,CONYERS,GA,30012,(770) 761-8097,Profit,03/16/2010,33.653815,-84.016228
344,182605,FMC - SHEPHERDSVILLE,5,421 ADAM SHEPHERD PARKWAY,SHEPHERDSVILLE,KY,40165,(502) 921-0977,Profit,05/12/2010,37.988053,-85.709198
345,012603,FMC FAIRFIELD (STEEL CITY),3,6508 E. J. OLIVER BLVD,FAIRFIELD,AL,35064,(205) 780-5122,Profit,10/16/2001,33.474715,-86.91933900000002
346,682559,NXSTAGE KIDNEY CARE - ORLANDO SOUTH,3,14522 LANDSTAR BLVD #102,ORLANDO,FL,32824,(407) 454-5440,Profit,08/13/2014,28.500324,-81.36434100000002
347,112533,BMA OF COVINTON INC,5,7215 INDUSTRIAL BLVD,COVINGTON,GA,30014,(770) 788-7464,Profit,05/15/1984,33.605079,-83.847436
348,152667,FMC - VIGO COUNTY,,1705 E INDUSTRIAL DRIVE,TERRE HAUTE,IN,47802,(812) 298-8043,Profit,07/10/2015,39.465542,-87.375924
349,102636,USF DIALYSIS CENTER,3,10770 N 46TH STREET #A100,TAMPA,FL,33617,(813) 632-7918,Non-Profit,04/11/1991,27.970086,-82.47967299999998
350,100001,SHANDS JACKSONVILLE - ESRD,1,655 W 8TH ST,JACKSONVILLE,FL,32209,(904) 244-5448,Non-Profit,09/01/1976,30.317241,-81.773797
351,682569,FMC - PALM BAY,3,450 MALABAR RD SE #101,PALM BAY,FL,32907,(321) 409-0874,Profit,12/22/2014,27.985624,-80.662621
352,102891,FMC - TRADITION,5,1748 SW ST LUCIE WEST BLVD,PORT SAINT LUCIE,FL,34986,(772) 336-3793,Profit,05/13/2010,27.280951,-80.383762
353,682510,MIAMI REGIONAL DIALYSIS CENTER WEST LLC,4,900 PARK CENTRE BLVD #400-C,MIAMI GARDENS,FL,33169,(305) 625-7125,Profit,09/14/2011,25.948877,-80.24358199999998
354,182561,FMC - CALDWELL COUNTY DIALYSIS,5,401 S. JEFFERSON STREET,PRINCETON,KY,42445,(270) 365-7588,Profit,01/21/2003,37.106472,-87.884867
355,682503,FMC - NORTH SARASOTA DIALYSIS CENTER,4,8037 COOPER CREEK BLVD,UNIVERISTY PARK,FL,34201,(941) 351-1641,Profit,05/02/2011,25.932497,-81.700962
356,152594,FMC - LAWRENCE COUNTY,4,3253 SHAWNEE DR S,BEDFORD,IN,47421,(812) 275-1084,Profit,01/01/1988,38.860239,-86.489518
357,682529,DOWNTOWN PENSACOLA DIALYSIS,1,700 E CERVANTES ST #A,PENSACOLA,FL,32501,(850) 433-1534,Profit,01/30/2013,30.441266,-87.189943
358,012651,FMC FORESTDALE,1,1004 FORESTDALE BLVD,BIRMINGHAM,AL,35214,(205) 798-8321,Profit,03/14/2012,33.527444,-86.799047
359,682607,LAKE CITY HOME THERAPIES,,215 SW PROSPERITY PLACE,LAKE CITY,FL,32024,(386) 758-2202,Profit,05/26/2016,30.174448,-82.643266
360,112742,WEST GEORGIA DIALYSIS,3,1216 STARK AVENUE,COLUMBUS,GA,31906,(706) 320-0103,Profit,09/30/2004,32.482616,-84.906472
361,162552,CEDAR RAPIDS DIALYSIS,3,5945 COUNCIL ST NE,CEDAR RAPIDS,IA,52402,(319) 294-7088,Profit,09/07/2012,41.967048,-91.67776
362,052665,DAVITA-SANTA MONICA DIALYSIS,3,"1260 15TH STREET, SUITE 102",SANTA MONICA,CA,90404,(310) 393-4744,Profit,09/01/1987,34.023413,-118.481666
363,102872,KIDNEY SPA LLC,3,219 NW 12TH AVE #C4,MIAMI,FL,33128,(305) 329-2900,Profit,02/02/2009,25.901064,-80.168458
364,062546,DENVER DIALYSIS (DVA),5,2900 DOWNING ST STE C,DENVER,CO,80205,(303) 292-0303,Non-Profit,04/27/2005,39.761849,-104.880625
365,172537,PRATT DIALYSIS CENTER,4,203 S WATSON SUITE 110,PRATT,KS,67124,(620) 672-7006,Profit,03/17/1999,37.698576,-98.76594
366,102582,WEST BOCA DIALYSIS CENTER,4,19801 HAMPTON DR,BOCA RATON,FL,33434,(561) 488-0202,Profit,05/06/1987,26.372855,-80.10629200000002
367,112676,FMC MUSCOGEE COUNTY,4,1851 MANCHESTER EXPRESSWAY,COLUMBUS,GA,31904,(706) 323-6162,Profit,01/12/2000,32.561007000000004,-84.893637
368,012527,DCI ENTERPRISE,5,3861 SALEM ROAD,ENTERPRISE,AL,36330,(334) 347-8233,Non-Profit,07/04/1986,31.35936,-85.8693
369,102884,ORLANDO PARK DIALYSIS,2,"5397 WEST COLONIAL DRIVE, SUITE #120",ORLANDO,FL,32808,(407) 532-3109,Profit,07/28/2009,28.415886,-81.29875
370,062529,LOWRY DIALYSIS CENTER (DVA),5,7465 E 1ST AVE STE A,DENVER,CO,80230,(303) 367-0946,Profit,09/22/1998,39.761849,-104.880625
371,102653,JOHN CUNIO DIALYSIS CENTER,4,2561 CORAL WAY,MIAMI,FL,33145,(305) 860-8111,Non-Profit,11/04/1992,25.70855,-80.295105
372,153510,DAVITA-UNIVERSITY DIALYSIS OF INDY,,550 N UNIVERSITY BLVD,INDIANAPOLIS,IN,46202,(317) 635-8729,Non-Profit,01/01/1997,39.776664,-86.145935
373,102704,CENTRAL FLORIDA KIDNEY CENTER - OSCEOLA,2,14522 LANDSTAR BLVD,ORLANDO,FL,32824,(407) 870-1880,Non-Profit,09/06/1996,28.415886,-81.29875
374,112716,FMC WEST CHATHAM DIALYSIS CENTER,3,113 MINUS AVENUE,GARDEN CITY,GA,31408,(912) 965-0305,Profit,05/22/2002,32.087221,-81.176614
375,102694,BMA - AVON PARK,2,4833 SUN N LAKES BLVD,SEBRING,FL,33872,(863) 385-1850,Profit,02/09/1996,27.471438,-81.451574
376,012582,FMC WILCOX,3,229 CAMDEN BYPASS,CAMDEN,AL,36726,(334) 682-5030,Profit,11/04/1998,32.012374,-87.292107
377,102566,BMA - METROPOLITAN MIAMI,3,5550 W FLAGLER ST,MIAMI,FL,33134,(786) 388-1305,Profit,09/21/1983,25.929996,-80.16517900000002
378,012634,FMC FOLEY,5,230 EAST FERN AVENUE,FOLEY,AL,36535,(251) 943-1500,Profit,09/14/2009,30.397068,-87.66846
379,103502,MAYO CLINIC OUTPATIENT DIALYSIS,3,5658 WORRALL WAY,JACKSONVILLE,FL,32224,(904) 956-2020,Non-Profit,01/02/2002,30.317241,-81.773797
380,102670,LIGHTHOUSE POINT DIALYSIS,3,200 SW NATURA AVE,DEERFIELD BEACH,FL,33441,(954) 426-3350,Profit,06/20/1994,26.311713,-80.125422
381,012646,STEEL CITY DIALYSIS,3,1809 AVENUE H,BIRMINGHAM,AL,35218,(205) 785-2972,Profit,09/12/2014,33.527444,-86.799047
382,152566,FMC - GREENFIELD,3,1051 NORTH STATE STREET,GREENFIELD,IN,46140,(317) 462-4743,Profit,03/01/2000,41.737253,-85.275914
383,182615,DAVITA - DIALYSIS OF WARREN COUNTY,2,391 SUWANNEE TRAIL ST.,BOWLING GREEN,KY,42103,(270) 746-5805,Profit,03/07/2012,36.970919,-86.438462
384,682587,DSI NORTH TAMPA DIALYSIS,,3421 NORTH LAKEVIEW DRIVE,TAMPA,FL,33618,(813) 261-1864,Profit,11/19/2015,27.970086,-82.47967299999998
385,062582,WEST LAKEWOOD DIALYSIS CENTER (DVA),4,"11700 W 2ND PL, STE 325",LAKEWOOD,CO,80228,(303) 987-4672,Profit,12/04/2013,39.698942,-105.117551
386,682562,ST PETERSBURG KIDNEY CARE SOUTH,4,4050 34TH ST S,SAINT PETERSBURG,FL,33711,(727) 867-1279,Profit,10/24/2014,27.761976,-82.64405500000002
387,112691,DSI CARTERSVILLE RENAL CENTER,4,419 E. MAIN STREET,CARTERSVILLE,GA,30120,(678) 721-9090,Profit,03/28/2001,34.183803999999995,-84.803485
388,131316,BEAR LAKE DIALYSIS CENTER,,164 S FIFTH ST,MONTPELIER,ID,83254,(208) 847-4325,Non-Profit,06/20/2006,42.32602,-111.298756
389,012626,FMC NORTHWEST ALABAMA KIDNEY CENTER,4,638 TAHOE ROAD,WINFIELD,AL,35594,(205) 487-2800,Profit,06/25/2008,33.931561,-87.79187399999998
390,112509,DCI ALBANY,4,337 FIFTH AVE.,ALBANY,GA,31701,(229) 888-3996,Non-Profit,09/01/1976,31.577669,-84.17945300000002
391,102605,CENTRAL TAMPA DIALYSIS,2,4204 N MACDILL AVE SOUTH BLDG,TAMPA,FL,33607,(813) 871-3202,Profit,07/07/1988,27.970086,-82.47967299999998
392,102564,RENAL CARE CENTER - SEBRING,2,40 MEDICAL CENTER AVE,SEBRING,FL,33870,(863) 385-7351,Profit,06/01/1983,27.471438,-81.451574
393,112779,NORTH GWINNETT DIALYSIS,4,185 OLD PEACHTREE ROAD NW,SUWANEE,GA,30024,(678) 714-4941,Profit,02/14/2007,34.048632,-84.06644399999998
394,152575,DAVITA - RENAL CARE OF HUNTINGTON,4,3040 WEST PARK DRIVE,HUNTINGTON,IN,46750,(260) 355-0250,Profit,12/19/2001,40.880825,-85.50549699999998
395,102871,FMC - MANDARIN,1,9143 PHILIPS HWY SUITE 110,JACKSONVILLE,FL,32256,(904) 538-0270,Profit,01/23/2009,30.337019,-81.661302
396,112762,RAI DEANS BRIDGE,4,2841 DEANS BRIDGE ROAD,AUGUSTA,GA,30906,(706) 790-5909,Profit,02/07/2006,33.365531,-82.073422
397,262630,FMC - CENTERPOINT,3,19401 E 37TH TERRACE COURT SOUTH SUITE 200,INDEPENDENCE,MO,64057,(816) 795-6559,Profit,05/22/2008,40.404782,-92.412479
398,152681,DAVITA-FORT WAYNE NORTH DIALYSIS,,415 E DUPONT ROAD,FORT WAYNE,IN,46825,(260) 637-0431,Profit,07/10/2017,41.088173,-85.14388000000002
399,102722,SUWANNEE RIVER KIDNEY CENTER,2,319 W WADE ST,TRENTON,FL,32693,(352) 463-2008,Profit,06/09/1997,29.688243,-82.787634
400,062505,NORTHERN COLORADO KIDNEY CENTER (FMC),4,2107 S. TIMBERLINE RD,FORT COLLINS,CO,80525,(970) 482-2161,Profit,05/16/1983,40.585033,-105.108308
401,152624,FMC - TREE CITY DIALYSIS,2,999 N. MICHIGAN AVE.,GREENSBURG,IN,47240,(812) 663-2367,Profit,06/16/2008,39.351019,-85.501189
402,152614,DSI - NORTH GRANVILLE DIALYSIS CLINIC,5,3001 NORTH GRANVILLE AVE.,MUNCIE,IN,47303,(765) 288-3740,Profit,12/12/2007,40.198978,-85.393346
403,152524,DSI - NW INDIANAPOLIS RENAL CENTER,3,6488 CORPORATE DRIVE,INDIANAPOLIS,IN,46268,(317) 328-9667,Profit,12/31/2005,39.776664,-86.145935
404,182635,SAGUARO DIALYSIS LLC,,50 CHURCH VIEW STREET,SHELBYVILLE,KY,40065,(502) 647-0127,Non-Profit,02/02/2017,38.205898,-85.228181
405,062568,PUEBLO WEST DIALYSIS (FMC),3,73 N ASPEN SKI WAY,PUEBLO WEST,CO,81007,(719) 547-3888,Profit,09/15/2010,38.350364,-104.72769
406,222589,US RENAL CARE WEYMOUTH DIALYSIS,,587 WASHINGTON STREET,WEYMOUTH,MA,02188,(781) 340-3938,Profit,06/08/2016,42.206676,-70.94584499999998
407,682622,HERNANDO HOME TRAINING,,4251 MARINER BLVD,SPRING HILL,FL,34609,(352) 686-2755,Profit,05/30/2017,28.479207,-82.529658
408,012592,BIRMINGHAM CENTRAL DIALYSIS,2,728 RICHARD ARRINGTON BLVD S,BIRMINGHAM,AL,35233,(205) 250-6760,Profit,08/01/1998,33.527444,-86.799047
409,152613,DAVITA - SALEM DIALYSIS CENTER,4,"1201 N. JIM DAY ROAD, STE. 103",SALEM,IN,47167,(812) 883-0207,Profit,06/12/2007,39.859593,-86.644428
410,012513,FMC LANGDALE,4,8 MEDICAL PARK,VALLEY,AL,36854,(334) 756-4192,Profit,02/12/1981,33.647037,-86.641281
411,112555,HINESVILLE DIALYSIS,4,522 EG MILES PARKWAY,HINESVILLE,GA,31313,(912) 368-4850,Profit,09/29/1988,31.826979,-81.621675
412,182620,KUMAR DIALYSIS FLORENCE,1,47 CAVALIER BLVD  STE 140,FLORENCE,KY,41042,(859) 283-2090,Profit,05/23/2013,38.987219,-84.64701600000002
413,112608,SOUTH BRUNSWICK DIALYSIS,5,2930 SPRINGDALE ROAD,BRUNSWICK,GA,31520,(912) 267-1507,Profit,05/10/1995,31.13617,-81.466915
414,102651,PALM BAY KIDNEY CENTER,3,220 MEDPLEX PKWY NE,PALM BAY,FL,32907,(321) 722-2709,Non-Profit,12/08/1992,27.985624,-80.662621
415,012667,"BIO MEDICAL APPLICATIONS OF ALABAMA, INC.",,917 B PLANTATION BLVD,FAIRHOPE,AL,36532,(251) 929-3666,Profit,08/07/2013,30.521914,-87.882336
416,102738,DADELAND DIALYSIS,4,9175 SW 87TH AVE,MIAMI,FL,33176,(305) 273-3830,Profit,11/10/1998,25.775163,-80.20861500000002
417,182597,DAVITA - MADISONVILLE DIALYSIS CENTER,4,255 E. NORTH STREET,MADISONVILLE,KY,42431,(270) 821-7824,Profit,09/20/1978,37.30223400000001,-87.474285
418,162561,SIOUX CITY DIALYSIS,,5865 SUNNYBROOK DR,SIOUX CITY,IA,51106,(712) 274-8068,Profit,09/27/2016,42.563879,-96.330495
419,112886,"ATHENS RENAL CENTER, LLC",2,2047 PRINCE AVENUE,ATHENS,GA,30606,(706) 549-2133,Profit,06/26/2014,33.949597,-83.370088
420,072545,FARMINGTON DIALYSIS,5,"11 SOUTH RD, SUITE 110",FARMINGTON,CT,06032,(860) 678-0587,Profit,12/12/2012,41.73044,-72.842901
421,112735,EISENHOWER PARKWAY DIALYSIS,1,2525 SECOND STREET,MACON,GA,31206,(478) 738-0420,Profit,09/02/2003,32.830953,-83.64891800000002
422,682525,FRESENIUS KIDNEY CARE-ST PETERSBURG,2,446 4TH STREET S,SAINT PETERSBURG,FL,33701,(727) 896-5500,Profit,09/07/2012,28.139752,-82.44442
423,152512,DAVITA - MARION COUNTY,3,3834  SOUTH EMERSON AVENUE BUILDING B,INDIANAPOLIS,IN,46203,(317) 787-3171,Profit,06/12/1989,39.776664,-86.145935
424,112576,DCI DAWSON,3,806 FORREST DRIVE,DAWSON,GA,39842,(229) 995-2433,Non-Profit,07/24/1991,31.733352000000004,-84.473833
425,102770,RCG - BAPTIST NORTH,3,1040 EAST NINE MILE RD,PENSACOLA,FL,32514,(850) 202-8202,Profit,06/12/2000,30.348228,-87.26649
426,102833,FMC - BELLEAIR HOME THERAPIES,4,617 LAKEVIEW RD SUITE C,CLEARWATER,FL,33756,(727) 441-2913,Profit,06/05/2006,27.979475,-82.766265
427,682543,PLANTATION HOME TRAINING,2,8144 W BROWARD BLVD,PLANTATION,FL,33324,(954) 473-9138,Profit,11/18/2013,26.148889,-80.26354
428,112721,FMC DIALYSIS SERVICES WOODSTOCK,4,110 LONDONDERRY COURT,WOODSTOCK,GA,30188,(770) 592-3439,Profit,07/03/2002,34.10217100000001,-84.516173
429,152571,FMC - TERRE HAUTE NORTH,3,351 MAIDEN LANE,TERRE HAUTE,IN,47804,(812) 238-1400,Profit,01/01/1980,39.463763,-87.4506
430,102778,FMC DIALYSIS SERVICES - WINTER PARK,2,6848 ALOMA AVE,WINTER PARK,FL,32792,(407) 673-5191,Profit,03/02/2001,28.599069,-81.347821
431,012666,"RTC-SOUTHEAST, LP",3,1612 NOBLE STREET,ANNISTON,AL,36201,(256) 237-3794,Profit,08/09/2013,33.67344,-85.810918
432,162536,SANFORD HEALTH DIALYSIS HOSPERS,4,112 SUNRISE DRIVE,HOSPERS,IA,51238,(712) 752-8330,Non-Profit,11/21/2006,43.073813,-95.903234
433,152511,"DAVITA - LAWRENCEBURG DIALYSIS,LLC",3,721 RUDOLPH WAY,GREENDALE,IN,47025,(812) 537-4240,Profit,04/28/1989,39.147574,-84.829835
434,112854,LAKE HARTWELL DIALYSIS,3,1065 E. FRANKLIN STREET,HARTWELL,GA,30643,(706) 376-3285,Profit,08/30/2012,34.304305,-82.916857
435,152595,DSI - COFFEE CREEK DIALYSIS,4,"3100 VILLAGE POINT, SUITE 101",CHESTERTON,IN,46304,(219) 395-8020,Profit,10/17/2006,41.599826,-87.054994
436,012608,RCG ONEONTA,5,"150 GILBREATH DRIVE, SUITE 1",ONEONTA,AL,35121,(205) 625-6903,Profit,03/26/2003,33.946774,-86.49051700000003
437,102592,APOPKA ARTIFICIAL KIDNEY CENTER,3,1065 W ORANGE BLOSSOM TRL,APOPKA,FL,32712,(407) 880-2121,Profit,02/15/1988,28.696095,-81.553794
438,112836,RAI CARE CENTERS OF STOCKBRIDGE,4,500 EAGLES LANDING PKWY,STOCKBRIDGE,GA,30281,(770) 474-6068,Profit,11/04/2010,33.543235,-84.257522
439,012583,BESSEMER DIALYSIS,3,901 WESTLAKE MALL,BESSEMER,AL,35020,(205) 424-1848,Profit,08/01/1998,33.370824,-86.97150400000002
440,102616,DELTONA DIALYSIS,1,1200 DELTONA BLVD STE 26,DELTONA,FL,32725,(386) 574-0225,Profit,01/13/1989,28.905121,-81.210978
441,102510,DIALYSIS ASSOC OF THE PALM BEACHES,3,2611 POINSETTIA AVE,WEST PALM BEACH,FL,33407,(561) 833-0759,Profit,09/01/1976,26.702551,-80.049709
442,152527,DAVITA - VALPARAISO,3,606 E LINCOLNWAY,VALPARAISO,IN,46383,(219) 531-1299,Profit,03/30/1994,41.479823,-87.05226400000002
443,102754,BRIGHT DIALYSIS,2,2000 HARTMAN RD,FORT PIERCE,FL,34947,(772) 467-1117,Profit,10/11/1999,27.430257,-80.335924
444,682592,GAINESVILLE NEWBERRY DIALYSIS,,1177 NW 64TH TERRACE,GAINESVILLE,FL,32605,(352) 332-0679,Profit,01/04/2016,29.678831,-82.345878
445,012542,RAINBOW CITY DIALYSIS,4,2800 RAINBOW DRIVE,RAINBOW CITY,AL,35906,(256) 413-3245,Profit,05/05/1992,33.928777000000004,-86.084228
446,012661,"RTC-SOUTHEAST, LP",3,300 MEDICAL CENTER DRIVE,GADSDEN,AL,35903,(256) 492-4970,Profit,05/02/2013,34.009563,-86.01564300000003
447,072551,HERALD SQUARE DIALYSIS LLC,,ONE HERALD SQUARE,NEW BRITAIN,CT,06051,(860) 223-4963,Profit,10/03/2016,41.676555,-72.78616099999998
448,152648,DAVITA - FORT WAYNE WEST,3,"4916 ILLINOIS ROAD, SUITE 118",FORT WAYNE,IN,46804,(260) 434-0483,Profit,11/29/2011,41.088173,-85.14388000000002
449,042590,DAVITA - SOUTH LITTLE ROCK,1,6115 BASELINE RD,LITTLE ROCK,AR,72209,(501) 570-0543,Profit,12/29/2014,34.725432,-92.358556
450,102822,LAKE GRIFFIN EAST DIALYSIS,5,401 E NORTH AVE,LEESBURG,FL,34748,(352) 315-0062,Profit,07/19/2005,28.822828,-81.88583
451,112882,"USRC VOLDOSTA HOME PROGRAM, LLC",,3564 N. CROSSING CIRCLE,VALDOSTA,GA,31602,(229) 671-4298,Profit,04/16/2014,30.850126,-83.27883299999998
452,102673,WEST TALLAHASSEE DIALYSIS,3,5857 W TENNESSEE ST,TALLAHASSEE,FL,32304,(850) 350-0002,Profit,10/27/1994,30.455109000000004,-84.253419
453,102638,ORMOND BEACH DIALYSIS,3,495 S NOVA RD SUITE 109,ORMOND BEACH,FL,32174,(386) 676-2405,Profit,07/19/1991,29.294626,-81.09496800000002
454,012515,FMC OPELIKA,5,2609 VILLAGE PROFESSIONAL DR,OPELIKA,AL,36801,(334) 749-5085,Profit,09/07/1982,32.660739,-85.37889
455,062516,WESTMINSTER DIALYSIS (DVA),4,9053 HARLAN ST STE 90,WESTMINSTER,CO,80030,(303) 427-2400,Profit,11/19/1990,39.88219,-105.064426
456,072503,NEW HAVEN HOME DIALYSIS,,136 SHERMAN AVENUE,NEW HAVEN,CT,06511,(203) 773-0853,Profit,09/21/1983,41.310809000000006,-72.924953
457,112514,BRUNSWICK DIALYSIS,4,53 SCRANTON CONNECTOR,BRUNSWICK,GA,31525,(912) 264-8657,Profit,07/14/1977,31.168713,-81.488022
458,102861,GOLDTREE KIDNEY CENTER LLC,2,1407 SOUTHEAST GOLDTREE DRIVE STE A,PORT SAINT LUCIE,FL,34952,(772) 335-8677,Profit,04/23/2008,27.539014,-80.38716
459,102732,NORTH MELBOURNE DIALYSIS INC,3,14 SUNTREE PLACE SUITE 102,MELBOURNE,FL,32940,(321) 253-9033,Profit,05/08/1998,28.155562,-80.584661
460,012550,GREENE COUNTY DIALYSIS,4,544 HIGHWAY 43,EUTAW,AL,35462,(205) 372-4000,Profit,06/30/1994,32.846247,-87.90033199999998
461,102547,FMC - SOUTH SAINT PETERSBURG,4,650 34TH ST S,SAINT PETERSBURG,FL,33711,(727) 321-2527,Profit,10/01/1980,27.761976,-82.64405500000002
462,112693,GAINESVILLE DIALYSIS,3,2545 FLINTRIDGE ROAD,GAINESVILLE,GA,30501,(770) 536-7194,Profit,05/09/2001,34.269047,-83.80324300000002
463,152589,DAVITA - NEW ALBANY DIALYSIS,4,"2669 CHARLESTOWN RD., SUITE F",NEW ALBANY,IN,47150,(812) 542-1250,Profit,12/30/2004,38.307456,-85.827053
464,012500,FMC CAPITOL CITY,3,255 S JACKSON STREET,MONTGOMERY,AL,36104,(334) 263-1028,Profit,09/01/1976,32.346251,-86.26859300000002
465,102687,AVENTURA DIALYSIS CENTER,3,19056 NE 29TH AVE,AVENTURA,FL,33180,(305) 692-9006,Profit,09/20/1995,28.333421,-81.352159
466,152583,FMC - HUNTINGTON DIALYSIS,5,"2859 NORTH PARK AVENUE, STE. 111 & 112",HUNTINGTON,IN,46750,(260) 355-0510,Profit,06/24/2002,40.86811,-85.515569
467,682511,LAKES DIALYSIS CENTER,1,7980 NW 155 ST 2ND FLOOR,MIAMI LAKES,FL,33016,(305) 817-8508,Profit,07/27/2011,25.91684,-80.320545
468,012571,DCI GEORGIANA,4,P O BOX 618,GEORGIANA,AL,36033,(334) 376-0277,Non-Profit,12/31/1996,31.639134,-86.746762
469,220036,SAINT ELIZABETH'S MEDICAL CENTER OF BOSTON,3,DIALYSIS UNIT - CCP 7,BRIGHTON,MA,02135,(617) 789-2592,Non-Profit,08/05/1977,42.33196,-71.020173
470,012688,"FRESENIUS MEDICAL CARE TRUSSVILLE, LLC",,3671 ROOSEVELT BLVD,BIRMINGHAM,AL,35235,(205) 655-0961,Profit,09/28/2016,33.527444,-86.799047
471,222553,FRESENIUS MEDICAL CARE OF MASHPEE,3,34 BATES ROAD,MASHPEE,MA,02649,(508) 539-7080,Profit,06/01/2001,41.612716,-70.467933
472,262508,CREVE COEUR DIALYSIS CENTER,3,1009 EXECUTIVE PKWY #100,CREVE COEUR,MO,63141,(314) 434-4770,Profit,07/24/1981,38.66218,-90.443064
473,182547,DAVITA - OWENSBORO DIALYSIS CENTER,3,1930 EAST PARRISH AVENUE,OWENSBORO,KY,42303,(270) 926-0120,Profit,08/03/2000,37.757172,-87.117398
474,160093,MERCY DIALYSIS - VINTON,3,502 NORTH 9TH AVENUE,VINTON,IA,52349,(319) 472-6359,Non-Profit,09/09/2009,42.164025,-92.026196
475,062530,MONTROSE DIALYSIS (DCI),5,846 SOUTH 5TH STREET,MONTROSE,CO,81401,(970) 240-3302,Non-Profit,08/28/1998,38.469058,-107.860649
476,852524,USRC MONROE,,2161 W SPRING ST,MONROE,GA,30655,(678) 635-3641,Profit,05/31/2017,33.797477,-83.71874100000002
477,152539,DAVITA- QUAD COUNTIES DIALYSIS CENTER,3,528 N GRANDSTAFF DR,AUBURN,IN,46706,(260) 927-0100,Profit,08/26/1996,41.366726,-85.05436800000003
478,112761,FMS LAWRENCEVILLE,5,1115 HERRINGTON ROAD,LAWRENCEVILLE,GA,30044,(770) 962-3546,Profit,01/31/2006,33.952879,-83.992234
479,152679,"HOME DIALYSIS SERVICES MERRILLVILLE, LLC",,200 EAST 80TH PLACE SUITE 2,MERRILLVILLE,IN,46410,(219) 472-0379,Profit,02/06/2017,41.472687,-87.31806999999998
480,062528,FOUR CORNERS DIALYSIS CLINIC CORTEZ (DVA),5,610 E MAIN STE C,CORTEZ,CO,81321,(970) 565-4302,Profit,04/29/1998,37.373648,-108.71328
481,012502,TUSCALOOSA UNIVERSITY DIALYSIS,3,220 15TH STREET,TUSCALOOSA,AL,35401,(205) 345-6004,Profit,10/21/1977,33.233083,-87.525798
482,112848,DARIEN DIALYSIS,3,5873 HWY 17 NORTH,DARIEN,GA,31305,(912) 437-1211,Profit,02/17/2012,31.343489,-81.424103
483,102719,FMC - MILTON,3,5934 BERRY HILL ROAD #2,MILTON,FL,32570,(850) 626-9448,Profit,04/07/1997,30.609249,-86.95091
484,452930,"BIO-MEDICAL APPLICATIONS OF TEXAS, INC.",,3 WINDCREST NATIONAL,MAGNOLIA,TX,77354,(281) 513-6054,Profit,08/26/2017,30.208059,-95.744646
485,682527,DORAL KIDNEY CENTER,4,7755 NW 48TH ST #120,DORAL,FL,33166,(305) 436-5279,Profit,10/03/2012,25.815177,-80.357989
486,102595,WEST KENDALL DIALYSIS CENTER,4,12000 SW 131ST AVE,MIAMI,FL,33186,(305) 254-4840,Profit,04/01/1988,25.588232,-80.385789
487,682565,FMC - SPACE COAST,3,577 BARNES BLVD #100,ROCKLEDGE,FL,32955,(321) 636-9067,Profit,11/10/2014,28.319682,-80.732801
488,102652,FMC DIALYSIS SERVICES - LIVE OAK,2,10543 SUWANNEE PLAZA BLVD,LIVE OAK,FL,32060,(386) 364-6604,Profit,08/31/1992,30.295625,-82.98410799999998
489,262568,ST CHARLES DIALYSIS,3,2125 BLUESTONE DR.,SAINT CHARLES,MO,63303,(636) 940-8840,Profit,08/10/1998,38.795702,-90.515364
490,102632,TAMARAC ARTIFICIAL KIDNEY CENTER,3,7140 W MCNAB RD,TAMARAC,FL,33321,(954) 720-5336,Profit,09/18/1990,26.203932,-80.255305
491,222517,WEYMOUTH DIALYSIS,4,330 LIBBEY INDUSTRIAL PARKWAY,WEYMOUTH,MA,02189,(781) 331-7700,Profit,08/13/1991,42.206676,-70.94584499999998
492,012505,PCD MONTGOMERY,4,1001 FOREST AVENUE,MONTGOMERY,AL,36106,(334) 269-9416,Profit,12/14/1977,32.346251,-86.26859300000002
493,072538,MANCHESTER DIALYSIS CENTER,4,319 MAIN STREET,MANCHESTER,CT,06040,(860) 432-9499,Non-Profit,09/16/2009,41.781503,-72.51832399999998
494,102517,MELBOURNE KIDNEY CENTER,3,1400 S APOLLO BLVD,MELBOURNE,FL,32901,(321) 724-0461,Non-Profit,09/01/1976,27.930161,-80.488395
495,012649,PCD OF UNION SPRINGS,3,112 W CONECUH AVE,UNION SPRINGS,AL,36089,(334) 738-0330,Profit,12/14/2011,32.139892,-85.714625
496,112804,NEPHRON CORPORATION,4,710 BREEDLOVE DR,MONROE,GA,30655,(678) 635-7211,Non-Profit,12/15/2008,33.797477,-83.71874100000002
497,012622,DAVITA TALLADEGA,3,726 E BATTLE STREET,TALLADEGA,AL,35160,(256) 362-2332,Profit,12/19/2007,33.443442,-86.086793
498,012681,"BIO-MEDICAL APPLICATIONS OF ALABAMA, INC",,11839 HIGHWAY 231-431 NORTH,MERIDIANVILLE,AL,35759,(256) 828-3128,Profit,09/23/2015,34.874913,-86.580559
499,102838,LAURAL MANOR DIALYSIS CENTER,3,1950 LAUREL MANOR DRIVE #190,THE VILLAGES,FL,32162,(352) 259-0250,Profit,11/06/2006,28.858671,-81.920775
500,152610,"FMC - LIBERTY DIALYSIS - LEBANON, LLC",2,2485 N. LEBANON STREET,LEBANON,IN,46052,(765) 485-0533,Profit,05/31/2007,40.03162,-86.456951
501,682544,JOHNSON DIALYSIS CENTER - DAVIE,2,3105 N UNIVERSITY DR,DAVIE,FL,33024,(954) 362-7087,Profit,12/23/2013,26.079142,-80.285028
502,012528,FMC CAHABA VALLEY,3,120 CAHABA VALLEY PARKWAY,PELHAM,AL,35124,(205) 988-0469,Profit,09/17/1986,33.321899,-86.742177
503,102803,ST PETERSBURG SOUTH DIALYSIS,3,2850 34TH STREET S,SAINT PETERSBURG,FL,33711,(727) 864-4050,Profit,04/09/2004,27.761976,-82.64405500000002
504,012600,ATMORE DIALYSIS CENTER,3,807 EAST CRAIG STREET,ATMORE,AL,36502,(251) 368-5593,Profit,03/14/2001,31.131087,-87.459254
505,102775,ORANGE CITY DIALYSIS,3,2575 S VOLUSIA AVE #400,ORANGE CITY,FL,32763,(386) 774-0101,Profit,11/30/2000,28.926057,-81.287079
506,112875,"TOTAL RENAL CARE, INC.",3,5615 OLD NATIONAL HWY,ATLANTA,GA,30349,(404) 762-9243,Profit,08/07/2013,33.762909,-84.422675
507,182590,FMC - NORTHEAST LOUISVILLE,4,3701 CHAMBERLAIN LANE,LOUISVILLE,KY,40241,(502) 327-1144,Profit,04/02/2008,38.178077,-85.666708
508,182565,FMC - NA HARLAN,3,136 VILLAGE CENTER RD,HARLAN,KY,40831,(606) 574-0005,Profit,06/30/2003,36.831579,-83.275859
509,102609,BMA - PORT SAINT LUCIE,2,1680 SE LYNGATE DR #101,PORT SAINT LUCIE,FL,34952,(772) 335-2407,Profit,07/11/1988,27.539014,-80.38716
510,112754,DSI MACON HEMLOCK DIALYSIS,2,657 HEMLOCK ST STE 100,MACON,GA,31201,(478) 742-8001,Profit,12/22/2005,32.844839,-83.689402
511,682517,LAKE VISTA DIALYSIS,1,3187 US HWY 98 N,LAKELAND,FL,33805,(863) 603-2130,Profit,04/24/2012,27.957379,-81.951054
512,222530,NEW BEDFORD DIALYSIS,3,237-B STATE ROAD,NORTH DARTMOUTH,MA,02747,(508) 992-0629,Profit,01/06/1995,41.661303,-70.937913
513,102666,MARIANNA DIALYSIS CENTER,4,2930 OPTIMIST DR,MARIANNA,FL,32448,(850) 482-5328,Profit,04/25/1994,30.780419,-85.242661
514,152522,DAVITA - HAMMOND DIALYSIS,3,222 DOUGLAS STREET,HAMMOND,IN,46320,(219) 932-1199,Profit,07/20/1992,41.621663,-87.494591
515,112615,DCI DEKALB,4,558 MEDLOCK ROAD,DECATUR,GA,30030,(404) 371-0499,Non-Profit,08/21/1995,33.771455,-84.297857
516,152586,FMC - CONNERSVILLE,3,"6049 INDUSTRIAL AVENUE, NORTH",CONNERSVILLE,IN,47331,(765) 827-1225,Profit,09/24/2003,39.658023,-85.141747
517,152618,FMC - GREENCASTLE,4,316 MEDIC WAY,GREENCASTLE,IN,46135,(765) 653-0000,Profit,02/25/2008,39.642017,-86.84611899999999
518,102741,CLEWISTON DIALYSIS CENTER,4,851 W VENTURA AVE,CLEWISTON,FL,33440,(863) 983-8855,Profit,10/21/1998,26.752811,-80.939194
519,102757,ARCADIA DIALYSIS CENTER,4,1341 E OAK ST,ARCADIA,FL,34266,(863) 491-8550,Profit,07/07/1999,27.131275,-81.738804
520,102795,FMC DIALYSIS SERVICES - NORTH BOYNTON BEACH,5,4965 LECHALET BLVD,BOYNTON BEACH,FL,33436,(561) 734-5585,Profit,12/16/2002,26.528327,-80.08073399999998
521,152516,FMC - GRANT COUNTY DIALYSIS,3,1797 WEST KEM ROAD,MARION,IN,46952,(765) 662-9792,Profit,01/01/1986,40.12272700000001,-86.291958
522,152670,SCHERERVILLE DIALYSIS CENTER,,1534 US HIGHWAY 41,SCHERERVILLE,IN,46375,(219) 322-5448,Profit,09/02/2016,41.485168,-87.443384
523,682593,FMC - CORAL GABLES LLC,,238 PALERMO AVENUE,MIAMI,FL,33134,(305) 443-0112,Profit,08/27/2015,25.91684,-80.320545
524,012520,FMC TROY,2,606 BOTTS AVE,TROY,AL,36081,(334) 566-7266,Profit,11/19/1984,31.802066,-85.964912
525,112889,"FRESENIUS MEDICAL CARE BRASELTON, LLC",2,2349 SPARTA WAY,BUFORD,GA,30519,(770) 965-1190,Profit,09/05/2014,34.120015,-83.99182900000002
526,112841,MCAFEE DIALYSIS,2,1987 CANDLER RD SUITE C,DECATUR,GA,30032,(404) 284-8596,Profit,04/20/2011,33.771455,-84.297857
527,682519,PLANTATION DIALYSIS - ELLENTON,3,3820 US HIGHWAY 301 N,ELLENTON,FL,34222,(941) 722-3733,Profit,06/06/2012,27.526709000000004,-82.526589
528,152620,DAVITA - CARMEL DIALYSIS,3,180 EAST CARMEL DRIVE,CARMEL,IN,46032,(317) 575-8916,Profit,04/02/2008,39.965479,-86.14836899999997
529,153521,DAVITA-HOME DIALYSIS OF INDIANAPOLIS,2,"8803 N. MERIDIAN ST., STE 150",INDIANAPOLIS,IN,46260,(317) 574-1798,Non-Profit,01/30/2009,39.776664,-86.145935
530,162512,"SOUTHEASTERN RENAL DIALYSIS, LC - W BURLINGTON",5,1213 S. GEAR,WEST BURLINGTON,IA,52655,(319) 758-0691,Profit,09/30/1997,40.821828,-91.176194
531,012652,LEEDS DIALYSIS,3,1650 MAXEY DRIVE,LEEDS,AL,35094,(205) 699-5383,Profit,02/29/2012,33.541333,-86.562058
532,152638,FMC - PERU DIALYSIS,2,25 WEST 2ND STREET,PERU,IN,46970,(765) 472-1531,Profit,07/06/2009,40.776156,-86.086549
533,102662,JACKSONVILLE KIDNEY CENTER,3,1107 MYRA ST STE 101,JACKSONVILLE,FL,32204,(904) 354-3333,Profit,09/10/1993,30.337019,-81.661302
534,682617,"CLERMONT DIALYSIS CENTER, LLC",,1625 HANCOCK ROAD,CLERMONT,FL,34711,(352) 243-2083,Profit,03/13/2017,28.558302,-81.764779
535,112669,"SOUTH AUGUSTA DIALYSIS CLINIC, LLC",4,3206 PEACH ORCHARD ROAD,AUGUSTA,GA,30906,(706) 798-5774,Profit,10/15/1999,33.365531,-82.073422
536,012565,SOUTH BALDWIN DIALYSIS CENTER,2,150 W PEACHTREE AVE,FOLEY,AL,36535,(251) 943-4155,Profit,04/02/1996,30.397068,-87.66846
537,102707,ORLANDO NORTH DIALYSIS,2,5135 ADANSON ST STE 700,ORLANDO,FL,32804,(407) 539-3998,Profit,09/20/1996,28.415886,-81.29875
538,102529,PHYSICIANS DIALYSIS TRINITY,1,9332 STATE ROAD 54,TRINITY,FL,34655,(727) 848-0106,Profit,09/16/1978,28.180840000000003,-82.658271
539,682500,DSI - VIERA DIALYSIS,3,8041 SPYGLASS HILL RD,VIERA,FL,32940,(321) 254-4553,Profit,02/16/2011,26.782614,-80.072151
540,072521,SOUTH NORWALK DIALYSIS,5,31 STEVENS STREET,NORWALK,CT,06856,(203) 838-6017,Profit,07/28/2000,41.092739,-73.41979599999998
541,152565,FMC - PORTAGE DIALYSIS CENTER,4,5950 US HIGHWAY 6,PORTAGE,IN,46368,(219) 762-5731,Profit,01/01/2000,41.591614,-87.178938
542,162511,TRI- STATE DIALYSIS - MANCHESTER,3,709 W. MAIN,MANCHESTER,IA,52057,(563) 927-7370,Profit,06/19/1997,42.48535,-91.454856
543,182612,AMERICAN HOME DIALYSIS,3,721 SOUTH PRESTON STREET,LOUISVILLE,KY,40202,(502) 584-3338,Profit,05/10/2011,38.178077,-85.666708
544,072533,DAVITA WATERBURY HEIGHTS DIALYSIS,5,150 MATTATUCK HEIGHTS,WATERBURY,CT,06705,(203) 419-0488,Profit,01/11/2008,41.5585,-73.03668499999998
545,682556,GOLDEN GLADES DIALYSIS,4,15600 NW 15TH AVE #D,MIAMI,FL,33169,(305) 621-1328,Profit,05/29/2014,25.901064,-80.168458
546,112712,"FRESENIUS MEDICAL CARE HONEYCREEK DIALYSIS, LLC",3,11415 BROWN BRIDGE ROAD,COVINGTON,GA,30016,(770) 786-1005,Profit,04/10/2002,33.605079,-83.847436
547,012606,FMC CHASE,3,1849 KEATS DRIVE NORTHWEST,HUNTSVILLE,AL,35810,(256) 852-8900,Profit,09/19/2002,34.784271000000004,-86.538996
548,102501,FMC - PENSACOLA,3,1305 W MORENO ST,PENSACOLA,FL,32501,(850) 434-1176,Profit,09/01/1976,30.426725,-87.268114
549,852512,"DIALYSIS CLINIC, INC.",,240 PONCE DE LEON AVE NE,ATLANTA,GA,30308,(404) 815-4667,Profit,07/11/2016,33.762909,-84.422675
550,162558,FIVE SEASONS DIALYSIS,3,"1002 4TH AVENUE SE, SUITE A",CEDAR RAPIDS,IA,52403,(319) 363-1538,Profit,10/17/2014,41.967048,-91.67776
551,102776,MIAMI NORTH DIALYSIS,5,860 NE 125TH ST,NORTH MIAMI,FL,33161,(305) 893-7887,Profit,10/23/2000,25.929996,-80.16517900000002
552,012559,FMC UNIVERSITY SOUTH ALABAMA,3,700 CLINIC DRIVE,MOBILE,AL,36688,(251) 460-6797,Profit,01/14/1995,30.668426,-88.100226
553,112694,FMC DOUGLAS COUNTY,4,4645 TIMBER RIDGE ROAD,DOUGLASVILLE,GA,30135,(678) 838-3233,Profit,05/23/2001,33.738328,-84.707237
554,162560,OTTUMWA DIALYSIS,,1005 PENNSYLVANIA AVE #101,OTTUMWA,IA,52501,(641) 682-1531,Profit,10/16/2015,41.022337,-92.423402
555,222572,"HERITAGE DIALYSIS CENTER, LLC",3,67 COOPER STREET,AGAWAM,MA,01001,(413) 786-2022,Profit,11/24/2009,42.064731,-72.653477
556,112685,US RENAL CARE MURRAY COUNTY DIALYSIS,5,108 HOSPITAL DRIVE,CHATSWORTH,GA,30705,(706) 517-4818,Profit,09/13/2000,34.724493,-84.737036
557,012568,FMC PARKWAY,4,1311 N MEMORIAL PKWY STE 100,HUNTSVILLE,AL,35801,(256) 536-5563,Profit,09/03/1996,34.784271000000004,-86.538996
558,012637,DCI HIGHLAND PARK,3,1912 CHERRY STREET,MONTGOMERY,AL,36107,(334) 264-1060,Non-Profit,07/16/2010,32.346251,-86.26859300000002
559,062557,KIDNEY CENTER OF LONGMONT (ARA),5,1960 KEN PRATT BLVD STE A,LONGMONT,CO,80501,(303) 485-7100,Profit,07/08/2008,40.169853,-105.101841
560,182580,DAVITA - LOUISA  DIALYSIS,3,2145 HIGHWAY 2565,LOUISA,KY,41230,(606) 638-3403,Profit,09/08/2006,38.156244,-82.66556700000002
561,182574,DAVITA - LEITCHFIELD DIALYSIS,4,"912 WALLACE AVE.,  SUITE 106",LEITCHFIELD,KY,42754,(270) 230-0153,Profit,05/25/2005,37.469367,-86.305082
562,012686,"FRESENIUS MEDICAL CARE ANNISTON HOME, LLC",,"2017 QUINTARD AVENUE, SUITE A",ANNISTON,AL,36201,(256) 237-7340,Profit,06/01/2016,33.67344,-85.810918
563,102705,RCG - FT WALTON BEACH,3,925 MAR WALT DR STE 2,FORT WALTON BEACH,FL,32547,(850) 864-4411,Profit,09/16/1996,30.424738,-86.62033199999998
564,012690,BIO MEDICAL APPLICATIONS OF ALABAMA INC,,118 OBRANNAN PARK DRIVE,DOTHAN,AL,36303,(334) 340-4055,Profit,02/09/2017,31.233698,-85.406823
565,012656,DCI MITYLENE PARK,3,29 MITYLENE PARK LANE,MONTGOMERY,AL,36117,(334) 356-2061,Non-Profit,10/11/2012,32.346251,-86.26859300000002
566,152561,DAVITA - EAST CHICAGO,4,4320 FIR STREET SUITE 404,EAST CHICAGO,IN,46312,(219) 397-1199,Profit,06/23/1999,41.65045900000001,-87.451123
567,102835,FKC - BELLEAIR DIALYSIS CENTER,3,617 LAKEVIEW ROAD SUITE B,CLEARWATER,FL,33756,(727) 441-8590,Profit,08/16/2006,27.969183,-82.790027
568,682505,PORT SAINT JOE DIALYSIS,3,3871 HIGHWAY 98 E #101,PORT SAINT JOE,FL,32456,(850) 229-2662,Profit,05/06/2011,30.780419,-85.242661
569,062570,KIDNEY CENTER OF BEAR CREEK (ARA),4,11058 WEST JEWELL AVE,LAKEWOOD,CO,80232,(303) 233-4204,Profit,06/13/2011,39.698942,-105.117551
570,062584,SOUTH DENVER DIALYSIS (FMC),3,3410 S GALENA ST SUITE 100,DENVER,CO,80231,(303) 671-2419,Profit,04/30/2014,39.761849,-104.880625
571,012552,BIO-MEDICAL APPLICATIONS OF ALABAMA INC,5,65 NORTH CATHERINE STREET,MOBILE,AL,36604,(251) 441-0868,Profit,07/25/2013,30.668426,-88.100226
572,172547,RAI - PARALLEL PARKWAY - KANSAS CITY DIALYSIS,3,6401 PARALLEL PARKWAY,KANSAS CITY,KS,66102,(913) 299-1044,Profit,11/28/2007,39.122539,-94.741781
573,682526,JACKSONVILLE ARLINGTON DIALYSIS,2,929 UNIVERSITY BLVD N,JACKSONVILLE,FL,32211,(904) 743-1689,Profit,09/11/2012,30.337019,-81.661302
574,102845,WEST PENSACOLA DIALYSIS CENTER,4,598 FAIRFIELD DRIVE,PENSACOLA,FL,32506,(850) 453-6066,Profit,07/06/2007,30.441266,-87.189943
575,012660,PHYSICIANS CHOICE DIALYSIS OF ATTALLA,4,801 GILBERT FERRY RD SE,ATTALLA,AL,35954,(256) 691-0766,Profit,01/09/2013,33.986189,-86.121037
576,052600,SATELLITE DIALYSIS SAN JOSE,3,393 BLOSSOM HILL ROAD SUITE 110,SAN JOSE,CA,95123,(408) 629-9802,Non-Profit,09/14/1984,37.321956,-121.919509
577,152615,DAVITA GREENSBURG DIALYSIS,2,1531 N. COMMERCE EAST DRIVE,GREENSBURG,IN,47240,(812) 662-6570,Profit,11/19/2007,39.351019,-85.501189
578,152593,FMC - CIRCLE CITY,2,"1420 N. SENATE AVE., SUITE B",INDIANAPOLIS,IN,46202,(317) 632-1273,Profit,07/14/2006,39.776664,-86.145935
579,012553,PCD ELMORE COUNTY,3,125 HOSPITAL DRIVE,WETUMPKA,AL,36092,(334) 514-2037,Profit,01/30/1995,32.539138,-86.20485699999998
580,012638,FMC HOOVER,4,2104 LORNA RIDGE LANE,HOOVER,AL,35216,(205) 979-3708,Profit,08/03/2010,33.376949,-86.80557900000002
581,112588,WAYNESBORO DIALYSIS,4,163 S. LIBERTY ST,WAYNESBORO,GA,30830,(706) 554-4668,Profit,10/18/1993,33.091279,-82.01429
582,112664,"SWAINSBORO DIALYSIS CLINIC, LLC",3,3 MEDICAL CENTER DRIVE,SWAINSBORO,GA,30401,(478) 237-8186,Profit,09/08/1999,32.583105,-82.348834
583,062574,RED HAWK DIALYSIS (DVA),5,4348 WOODLAND BLVD STE 131,CASTLE ROCK,CO,80104,(303) 663-2875,Profit,05/03/2012,39.25480200000001,-104.904069
584,182582,DAVITA - TURFWAY DIALYSIS,3,"11 SPIRAL DRIVE, SUITE 15A",FLORENCE,KY,41042,(859) 371-1263,Profit,02/05/2007,38.987219,-84.64701600000002
585,102546,FMC - SANFORD,3,419 E FIRST ST,SANFORD,FL,32771,(407) 688-6765,Profit,12/15/1980,28.789425,-81.275624
586,162563,FMC - ALGONA,,215 W CALL ST,ALGONA,IA,50511,(641) 428-4132,Profit,08/01/2016,43.073979,-94.229926
587,102743,AMELIA ISLAND DIALYSIS,3,1525 LIME ST STE 120,FERNANDINA BEACH,FL,32034,(904) 491-1998,Profit,01/25/1999,30.658744,-81.449155
588,012560,FMC HAMILTON,3,1256 MILITARY STREET SOUTH,HAMILTON,AL,35570,(205) 921-6231,Profit,12/11/1995,34.13871,-87.970837
589,102512,BMA - GAINESVILLE,1,1775 NW 80TH BLVD,GAINESVILLE,FL,32606,(352) 332-8998,Profit,09/01/1976,29.678831,-82.345878
590,852516,PHYSICIANS CHOICE DIALYSIS HOME,,711 TALBOTTEN ROAD,COLUMBUS,GA,31904,(610) 495-8900,Profit,08/08/2016,32.510197,-84.874946
591,102768,CENTRAL FLORIDA KIDNEY CENTER - LONGWOOD,4,745 W SR 434 STE A,LONGWOOD,FL,32750,(407) 332-4448,Non-Profit,04/03/2000,28.701725,-81.348291
592,012526,RCG PRINCETON,3,708 COTTON AVE SW,BIRMINGHAM,AL,35211,(205) 785-3500,Profit,09/18/1985,33.527444,-86.799047
593,012509,FMC NORTH ALABAMA,3,1311 N MEMORIAL PKWY #200,HUNTSVILLE,AL,35801,(256) 536-8571,Profit,07/16/1979,34.784271000000004,-86.538996
594,012538,RCG ANDALUSIA,5,1208 WEST BYPASS,ANDALUSIA,AL,36420,(334) 427-0147,Profit,06/26/1991,31.309436,-86.478031
595,102727,SEBASTIAN DIALYSIS,3,1424 US HWY 1 SUITE C,SEBASTIAN,FL,32958,(772) 589-9182,Profit,09/24/1997,27.787857,-80.482403
596,102695,PHYSICIANS DIALYSIS - HUDSON,5,14153 YOSEMITE DR STE 102,HUDSON,FL,34667,(727) 862-0603,Profit,02/29/1996,28.359149,-82.68969399999997
597,102581,SEMINOLE DIALYSIS CENTER,2,6450 SEMINOLE BLVD,SEMINOLE,FL,33772,(727) 393-5551,Profit,02/05/1987,26.583865000000007,-80.100098
598,182530,DCI - FRANKFORT,3,"1038 BURLINGTON LANE SUITE B,C,D",FRANKFORT,KY,40601,(502) 223-5918,Non-Profit,06/27/1994,38.192651,-84.86636999999997
599,012549,BIO-MEDICAL APPLICATIONS OF ALABAMA INC.,3,1205 BELLEVILLE AVE.,BREWTON,AL,36426,(251) 867-3650,Profit,03/17/1994,31.090708000000006,-87.055379
600,042527,FKC - LAKE VILLAGE,1,505 SAINT MARYS STREET,LAKE VILLAGE,AR,71653,(870) 265-3837,Profit,09/28/1990,33.357652,-91.851096
601,042563,DAVITA - HEMPSTEAD COUNTY DIALYSIS UNIT,5,1803 S LAUREL,HOPE,AR,71801,(870) 777-4040,Profit,09/28/2001,33.667612,-93.591163
602,102675,RTC - VENICE,3,816 PINEBROOK RD,VENICE,FL,34285,(941) 486-9057,Profit,11/16/1994,27.042831,-82.41629499999998
603,102715,BOCA/DELRAY RENAL ASSOCIATES INC,1,1905 CLINT MOORE RD STE 306,BOCA RATON,FL,33496,(561) 988-7100,Profit,01/13/1997,26.372855,-80.10629200000002
604,012551,SHEFFIELD DIALYSIS,4,1120 S JACKSON HWY STE 107,SHEFFIELD,AL,35660,(256) 381-8004,Profit,01/01/1995,34.755494,-87.701265
605,012517,DVA HEALTHCARE RENAL CARE INC,4,15953 ATHENS LIMESTONE DRIVE,ATHENS,AL,35613,(256) 233-4730,Profit,01/21/1983,34.778334,-86.949534
606,103300,JOHNS HOPKINS ALL CHILDREN'S HOSPITAL DIALYSIS,,501 6TH AVE S,SAINT PETERSBURG,FL,33701,(727) 767-4166,Non-Profit,09/27/1982,28.139752,-82.44442
607,102839,MIAMI GARDENS DIALYSIS,3,3363 NW 167TH ST,OPA LOCKA,FL,33056,(305) 627-9311,Profit,12/13/2006,25.913038,-80.20066800000002
608,012508,BIRMINGHAM EAST DIALYSIS,2,1105 EAST PARK DRIVE,BIRMINGHAM,AL,35235,(205) 833-6003,Profit,06/28/1979,33.527444,-86.799047
609,152585,FMC - SHADELAND STATION,4,7155 SHADELAND STATION STE 130,INDIANAPOLIS,IN,46256,(317) 578-8401,Profit,03/03/2003,39.776664,-86.145935
610,012640,PICKENS COUNTY DIALYSIS,3,289 WILLIAM E HILL DRIVE,CARROLLTON,AL,35447,(205) 367-1194,Profit,01/05/2011,33.277949,-88.167949
611,062572,SOUTHWEST DENVER DIALYSIS (DVA),4,8601 W CROSS DR SUITE C2,DENVER,CO,80123,(303) 933-2367,Profit,11/23/2011,39.761849,-104.880625
612,112568,SOUTH FULTON DIALYSIS,2,2685 METROPOLITAN PARKWAY SW,ATLANTA,GA,30315,(404) 761-2630,Profit,08/22/1990,33.762909,-84.422675
613,152514,DAVITA - MADISON,3,220 CLIFTY DRIVE  UNIT K,MADISON,IN,47250,(812) 265-2278,Profit,09/01/1990,38.781279,-85.381414
614,102850,REGENCY DIALYSIS CENTER,3,9535 REGENCY SQUARE BLVD,JACKSONVILLE,FL,32225,(904) 725-0526,Profit,09/26/2007,30.337019,-81.661302
615,152515,FMC - NORTHEAST INDIANA KIDNEY CTR - FORT WAYNE,3,"7836 W. JEFFERSON BLVD.,  SUITE LL10",FORT WAYNE,IN,46804,(260) 432-4225,Profit,01/01/1979,41.088173,-85.14388000000002
616,062535,LAKEWOOD CROSSING DIALYSIS (DVA),5,1057 S WADSWORTH BLVD STE 100,LAKEWOOD,CO,80226,(720) 962-6199,Profit,10/11/2000,39.698942,-105.117551
617,062511,THORNTON DIALYSIS (DVA),5,8800 FOX DR,THORNTON,CO,80260,(303) 430-7020,Profit,09/04/1997,39.918037,-104.945448
618,102549,PORT CHARLOTTE ARTIFICIAL KIDNEY CT,2,4300 KINGS HWY #406-D17,PORT CHARLOTTE,FL,33980,(941) 625-2822,Profit,08/03/1981,26.989467,-82.113651
619,182603,DAVITA - BOURBON COUNTY DIALYSIS,4,213 LETTON DRIVE,PARIS,KY,40361,(859) 988-1117,Profit,02/11/2010,38.21158300000001,-84.26865699999998
620,112505,ROME DIALYSIS,3,15 JOHN MADDOX DRIVE,ROME,GA,30165,(706) 291-2656,Profit,09/01/1976,34.26774,-85.187533
621,042525,DAVITA - OUACHITA VALLEY DIALYSIS,4,1114 WASHINGTON NW,CAMDEN,AR,71701,(870) 837-1330,Profit,07/13/1990,33.608596,-92.742087
622,153515,DAVITA-INDY CAPITOL DIALYSIS,3,2140 N CAPITOL AVENUE,INDIANAPOLIS,IN,46202,(317) 921-7536,Non-Profit,04/26/2002,39.776664,-86.145935
623,682600,WEST ORANGE WINTER GARDEN DIALYSIS CENTER LLC,,1210 E PLANT ST,WINTER GARDEN,FL,34787,(407) 297-8408,Profit,03/07/2016,28.564785,-81.54316
624,160112,MILTON & ETHEL WARNER DIALYSIS UNIT - SPENCER,4,1200 FIRST AVE EAST,SPENCER,IA,51301,(712) 264-6464,Non-Profit,09/13/1994,43.147025,-95.152691
625,102875,AVENTURA KIDNEY CENTER,4,22 SW 11TH STREET,HALLANDALE BEACH,FL,33009,(954) 458-0887,Profit,02/04/2009,25.983324,-80.140389
626,062581,KIDNEY CENTER OF NORTHRIDGE (ARA),3,"1865 W 121ST AVE, STE 300C",WESTMINSTER,CO,80234,(303) 429-9550,Profit,08/23/2013,39.88219,-105.064426
627,182538,DAVITA - EASTERN KENTUCKY DIALYSIS,3,167  WEDDINGTON BRANCH ROAD,PIKEVILLE,KY,41501,(606) 432-4477,Profit,06/09/1997,37.503755,-82.54129300000002
628,112600,DCI NORTH COLUMBUS,4,2424 B WARM SPRINGS ROAD,COLUMBUS,GA,31904,(706) 322-1959,Non-Profit,01/02/1995,32.510197,-84.874946
629,192689,DAVITA - GARDEN DISTRICT DX,3,2620 JENA,NEW ORLEANS,LA,70115,(504) 269-6004,Profit,06/12/2007,30.068636,-89.93900699999998
630,222550,NORTH SHORE REGIONAL DIALYSIS CENTER,4,133 BRIMBAL AVE,BEVERLY,MA,01915,(978) 921-2052,Profit,05/27/1999,42.558498,-70.843822
631,682578,FLORIDA DIALYSIS CENTER OF CELEBRATION LLC,3,5051 WEST IRLO BRONSON MEMORIAL HIGHWAY,KISSIMMEE,FL,34746,(407) 397-2588,Profit,05/27/2015,28.231144,-81.47669
632,102747,CONTINENTAL DIALYSIS CARE,2,2000 CONTINENTAL DR STE A,WEST PALM BEACH,FL,33407,(561) 840-4141,Profit,03/22/1999,26.748301,-80.12660799999998
633,172559,LAWRENCE HOME TRAINING,,3510 CLINTON PKWY SUITE 110,LAWRENCE,KS,66047,(785) 841-0490,Profit,09/24/2015,39.61091,-97.535619
634,152503,FMC - OHIO VALLEY DIALYSIS CENTER,2,230 BELLEMEADE AVENUE,EVANSVILLE,IN,47713,(812) 425-4111,Profit,01/01/1991,37.987734,-87.53470300000002
635,012557,PCD EAST MONTGOMERY,4,6890 WINTON BLOUNT BLVD,MONTGOMERY,AL,36117,(334) 260-0671,Profit,06/01/1995,32.346251,-86.26859300000002
636,112746,DIALYSIS OF LITHONIA,3,2485 PARK CENTRAL BLVD,DECATUR,GA,30035,(678) 418-9808,Profit,03/16/2005,33.771455,-84.297857
637,682602,EAST TALLAHASSEE HOME TRAINING,,2417 MILL CREEK LN,TALLAHASSEE,FL,32308,(850) 297-0435,Profit,04/04/2016,30.455109000000004,-84.253419
638,112849,FRESENIUS MEDICAL CARE ACWORTH,4,3372 ACWORTH SUMMIT BLVD,ACWORTH,GA,30101,(770) 529-1141,Profit,05/03/2012,34.056421,-84.667457
639,012692,BIO MEDICAL APPLICATIONS OF ALABAMA INC,,2834 SPRING AVENUE SW,DECATUR,AL,35603,(256) 885-1740,Profit,02/22/2017,34.573039,-86.99168399999998
640,152560,FMC-INDIANAPOLIS MIDTOWN,3,3007 DR ANDREW J BROWN AVENUE,INDIANAPOLIS,IN,46205,(317) 924-8104,Non-Profit,06/14/1999,39.776664,-86.145935
641,152554,FMC - FLOYD COUNTY,4,807 TALAINA PLACE,NEW ALBANY,IN,47150,(812) 944-3265,Profit,05/30/1998,38.307456,-85.827053
642,172561,EMPORIA DIALYSIS,,1616 INDUSTRIAL ROAD STE 2004,EMPORIA,KS,66801,(620) 340-8043,Profit,10/31/2016,38.402869,-96.192906
643,012536,FMC MONTCLAIR,4,3918 MONTCLAIR RD,BIRMINGHAM,AL,35213,(205) 871-0999,Profit,09/12/1990,33.527444,-86.799047
644,112518,DIALYSIS FACILITIES INC WAYCROSS,3,220 UVALDA ST,WAYCROSS,GA,31501,(912) 285-2487,Profit,09/05/1979,31.211006,-82.357658
645,012695,BIO MEDICAL APPLICATIONS OF ALABAMA,,8000 CHARLOTTE DRIVE SW,HUNTSVILLE,AL,35802,(256) 881-1133,Profit,07/06/2017,34.784271000000004,-86.538996
646,152531,FMC - INDIANAPOLIS-WEST,3,805 BEACHWAY DRIVE  SUITE 100,INDIANAPOLIS,IN,46224,(317) 484-3550,Profit,11/04/1994,39.776664,-86.145935
647,042595,DAVITA - POCAHONTAS,,404 CAMP RD,POCAHONTAS,AR,72455,(870) 248-0138,Profit,06/14/2016,36.26357,-90.970231
648,112870,OSAGE DIALYSIS LLC,5,6225 ATLANTA HIGHWAY,ALPHARETTA,GA,30004,(770) 569-1275,Profit,06/25/2013,34.070648,-84.27590699999998
649,013300,CHILDRENS HOSPITAL DIALYSIS,,1600 7TH AVENUE SOUTH,BIRMINGHAM,AL,35233,(205) 638-9275,Non-Profit,11/17/1982,33.527444,-86.799047
650,152669,FMC - GRIFFITH,,926 N. BROAD STREET,GRIFFITH,IN,46319,(219) 838-7777,Profit,08/26/2016,41.527844,-87.423991
651,152542,FMC - NEPHROLOGY  - BLACKTHORN,3,6201 NIMTZ PARKWAY,SOUTH BEND,IN,46628,(574) 246-7000,Profit,02/03/1997,41.67685,-86.26904300000002
652,152634,FMC - MUNCIE DIALYSIS,3,4021 WEST KILGORE AVE.,MUNCIE,IN,47304,(765) 284-3049,Profit,02/05/2009,40.203128,-85.45129399999998
653,152601,FMC - LIBERTY DIALYSIS - LAFAYETTE II,1,1020 N 18TH STREET,LAFAYETTE,IN,47904,(765) 420-8000,Profit,01/01/1980,39.291581,-86.88533699999998
654,112511,FMC OF DEKALB GWINNETT INC,3,497 WINN WAY SUITE 160,DECATUR,GA,30030,(404) 294-7070,Profit,09/01/1977,33.771455,-84.297857
655,182532,FMC - CENTRAL RICHMOND,3,1036 CENTER DR STE C,RICHMOND,KY,40475,(859) 623-6040,Profit,10/12/1994,37.721163,-84.290988
656,112813,SHAMROCK DIALYSIS,3,1016 CLAXTON DAIRY ROAD STE 1A,DUBLIN,GA,31021,(478) 275-4200,Profit,12/23/2008,32.486090000000004,-82.774174
657,162557,ANKENY DIALYSIS,4,2625 N ANKENY BLVD,ANKENY,IA,50023,(515) 963-3174,Profit,09/17/2014,41.72789,-93.603196
658,152665,DAVITA - MUNCIE,,820 E MCGALLIARD,MUNCIE,IN,47303,(765) 282-1266,Profit,10/01/2014,40.198978,-85.393346
659,072508,CENTRAL CT DIALYSIS CENTER,5,377 RESEARCH PARKWAY,MERIDEN,CT,06450,(203) 639-2880,Profit,01/13/1994,41.536777,-72.794543
660,102700,BMA - NORTH ORLANDO,4,750 S NORTH LAKE BLVD STE 1024,ALTAMONTE SPRINGS,FL,32701,(407) 831-7070,Profit,07/01/1996,28.660946000000006,-81.39559799999998
661,112526,DOUGLASVILLE DIALYSIS,4,3899 LONGVIEW DRIVE,DOUGLASVILLE,GA,30135,(770) 949-8403,Profit,10/04/1982,33.738328,-84.707237
662,221302,SOUTH BERKSHIRE COUNTY DIALYSIS CENTER,3,"10 MAPLE AVENUE, SUITE 200",GREAT BARRINGTON,MA,01230,(413) 854-9910,Non-Profit,02/25/2009,42.221851,-73.333044
663,112844,DUBLIN DIALYSIS CENTER,3,"2400 BELLEVUE RD, STE 29 A",DUBLIN,GA,31021,(478) 304-1501,Profit,11/09/2011,32.550373,-82.864072
664,062544,BELCARO DIALYSIS (DVA),4,755 S COLORADO BLVD,DENVER,CO,80246,(303) 777-2844,Profit,11/19/2004,39.761849,-104.880625
665,223504,UMASS MEMORIAL MEDICAL CENTER ESRD,,119 BELMONT STREET,WORCESTER,MA,01605,(508) 334-6596,Non-Profit,03/03/2004,42.269478,-71.807783
666,012669,"FARRAGUT DIALYSIS, INC",2,2958 DORCHESTER DRIVE,MONTGOMERY,AL,36116,(334) 280-4980,Profit,08/22/2013,32.346251,-86.26859300000002
667,682588,DIALYZE DIRECT FL,,1601 CLINT MOORE AVE #160,BOCA RATON,FL,33487,(561) 609-3100,Profit,09/09/2015,26.372855,-80.10629200000002
668,852513,"BIO-MEDICAL APPLICATIONS OF GA, INC",,234 KINGS BAY ROAD,KINGSLAND,GA,31548,(912) 510-4345,Profit,07/14/2016,30.845932,-81.791078
669,182535,FMC - SHELBYVILLE,3,150 STONECREST RD.,SHELBYVILLE,KY,40065,(502) 633-6333,Profit,11/20/1996,38.23902800000001,-85.228266
670,102716,FMC - YBOR CITY,2,2525 E. HILLSBOROUGH AVE,TAMPA,FL,33610,(813) 231-6859,Profit,02/07/1997,27.970086,-82.47967299999998
671,112587,DCI EAST ALBANY,3,1314 RADIUM SPRINGS RD,ALBANY,GA,31705,(229) 434-1175,Non-Profit,08/18/1993,31.577669,-84.17945300000002
672,102528,RAI CARE CENTERS - CLEARWATER,4,1057 S FORT HARRISON AVENUE,CLEARWATER,FL,33756,(727) 441-1608,Profit,06/30/1978,27.979475,-82.766265
673,192504,FMCNA - WEST LAFAYETTE,1,2804 AMBASSADOR CAFFERY PKWY,LAFAYETTE,LA,70506,(337) 984-7299,Profit,08/31/1977,30.211573,-92.031394
674,682611,APOLLO RENAL CENTER MIAMI LLC,,955 NW 3RD ST,MIAMI,FL,33128,(305) 545-3090,Profit,11/16/2016,25.91684,-80.320545
675,072541,WILLARD AVENUE DIALYSIS,3,445E WILLARD AVENUE,NEWINGTON,CT,06111,(860) 667-1700,Profit,03/09/2011,41.686993,-72.730839
676,152556,FMC - NOBLESVILLE DIALYSIS,4,165 SHERIDAN ROAD,NOBLESVILLE,IN,46060,(317) 770-8900,Profit,09/23/1998,40.036979,-86.007192
677,682612,LAKE SEMINOLE DIALYSIS,,10791 PARK BLVD NORTH,SEMINOLE,FL,33772,(727) 319-0180,Profit,11/09/2016,27.842568,-82.784511
678,102542,BMA - CLEARWATER,3,26338 US HWY 19 N,CLEARWATER,FL,33761,(727) 723-8123,Profit,06/25/1980,27.979475,-82.766265
679,102880,WINTER GARDEN DIALYSIS,3,1222 WINTER GARDEN VINELAND ROAD,WINTER GARDEN,FL,34787,(407) 877-0364,Profit,05/27/2009,28.542144,-81.597044
680,062524,PRINTERS PLACE DIALYSIS CENTER (DVA),3,2802  INTERNATIONAL CIR,COLORADO SPRINGS,CO,80910,(719) 630-0602,Profit,11/08/1996,38.867255,-104.760749
681,102830,MIDDLEBURG DIALYSIS LLC,4,2070 PALMETTO ST,MIDDLEBURG,FL,32068,(904) 406-5560,Profit,03/20/2006,30.121995,-81.924293
682,012611,FMC DALLAS COUNTY,3,200 SOUTH PARK PL,SELMA,AL,36701,(334) 872-8460,Profit,12/19/2003,32.492902,-87.00249699999998
683,012619,TUSCALOOSA NEPHROLOGY ASSOC HOME DIALYSIS,2,1850 MCFARLAND BLVD NORTH,TUSCALOOSA,AL,35406,(205) 248-2076,Profit,12/19/2006,33.233083,-87.525798
684,682541,GREENACRES DIALYSIS CENTER,3,5702 LAKE WORTH ROAD #1,GREENACRES,FL,33463,(561) 357-9547,Profit,08/12/2013,26.627577,-80.137208
685,102655,TITUSVILLE DIALYSIS AND KIDNEY CENTER,3,801 GARDEN ST,TITUSVILLE,FL,32796,(321) 567-0122,Profit,02/24/1993,28.573368,-80.819404
686,012693,"RENAL TREATMENT CENTERS SOUTHEAST, LP",,218 MAIN STREET,TRUSSVILLE,AL,35173,(205) 655-0871,Profit,05/11/2017,33.64074,-86.580135
687,160058,UNIVERSITY OF IOWA HOSPITAL & CLINICS DIALYSIS,3,200 HAWKINS DRIVE,IOWA CITY,IA,52242,(319) 356-3047,Non-Profit,06/01/1975,41.656041,-91.531272
688,102769,RENAL CARE GROUP - NORTH TAMPA,2,12674 TELECOM DRIVE,TAMPA,FL,33637,(813) 971-7580,Profit,06/09/2000,27.970086,-82.47967299999998
689,163507,UNIVERSITY OF IOWA HOSPITAL & CLINICS - GRINNELL,3,803 BROAD ST,GRINNELL,IA,50112,(641) 236-7419,Non-Profit,07/28/1997,41.738154,-92.724915
690,112837,NEPHRON CORPORATION,5,6060 SINGLETON ROAD SUITE A,NORCROSS,GA,30093,(770) 771-0200,Profit,11/16/2010,33.940135999999995,-84.21055600000003
691,102788,FORT MYERS NORTH DIALYSIS,3,16101 NORTH CLEVELAND AVE,FORT MYERS,FL,33903,(239) 656-4403,Profit,12/28/2001,26.61901,-81.831956
692,682531,GAINESVILLE HOME DIALYSIS,,4960 W NEWBERRY RD #280,GAINESVILLE,FL,32607,(352) 378-4960,Profit,02/12/2013,29.678831,-82.345878
693,112858,TROUP COUNTY DIALYSIS,3,140 GLENN BASS ROAD,LAGRANGE,GA,30240,(706) 882-0193,Profit,03/01/2012,33.030397,-85.03787
694,042589,FMCNA - EAST LITTLE ROCK,3,5320 WEST 12TH ST,EAST LITTLE ROCK,AR,72204,(501) 660-7867,Profit,09/23/2013,34.978711,-92.026214
695,102559,FLORIDA KIDNEY CENTER,2,7309 WEST OAKLAND PARK BLVD,LAUDERHILL,FL,33319,(954) 578-7678,Profit,04/01/1983,26.161065,-80.22369599999998
696,182614,DAVITA - SHELBYVILLE ROAD DIALYSIS,4,"4600 SHELBYVILLE ROAD, STE 310",LOUISVILLE,KY,40207,(502) 893-4791,Profit,10/12/2011,38.178077,-85.666708
697,182540,FMC - PIKEVILLE,2,146 ADAMS LANE,PIKEVILLE,KY,41501,(606) 432-1707,Profit,07/30/1997,37.503755,-82.54129300000002
698,162559,E.A. MOTTO DIALYSIS,2,1228 E RUSHOLME ST #1000,DAVENPORT,IA,52803,(563) 322-0101,Profit,10/01/2014,41.554104,-90.603997
699,062510,GREELEY DIALYSIS (FMC),3,2343 W 27TH ST STE 503,GREELEY,CO,80634,(970) 330-6100,Profit,04/08/1987,40.414406,-104.771245
700,112659,FRESENIUS MEDICAL CARE HENRY COUNTY,3,"1365 ROCK QUARRY ROAD, ST 100",STOCKBRIDGE,GA,30281,(770) 474-5234,Profit,02/11/1999,33.543235,-84.257522
701,012507,FMC MOBILE,4,2620 OLD SHELL RD,MOBILE,AL,36607,(251) 476-2762,Profit,01/04/1979,30.668426,-88.100226
702,852503,DIALYSIS CENTER OF MILLEDGEVILLE,,1520 N. COLUMBIA STREET,MILLEDGEVILLE,GA,31061,(478) 414-0123,Profit,10/27/2015,33.115387,-83.308885
703,162539,COUNCIL BLUFFS DIALYSIS CENTER,3,300 W BROADWAY SUITE 150,COUNCIL BLUFFS,IA,51503,(712) 388-0261,Profit,04/29/2008,41.238785,-95.854239
704,102543,KEY WEST DIALYSIS,3,1122 KEY PLAZA,KEY WEST,FL,33040,(305) 294-8453,Profit,07/14/1980,24.535414000000006,-82.00692
705,012556,"NNA OF ALABAMA, INC",3,7067 VETERANS PKWY SUITE 120,PELL CITY,AL,35125,(205) 338-4515,Profit,06/01/1995,33.560781,-86.268757
706,682550,OCOEE HOME TRAINING,4,1552 BOREN DR #100,OCOEE,FL,34761,(407) 877-2012,Profit,05/06/2014,28.578576,-81.534116
707,682621,BROOKSVILLE DIALYSIS,,7326 BROAD ST,BROOKSVILLE,FL,34601,(352) 540-6185,Profit,02/15/2017,28.577393,-82.331867
708,222567,FRESENIUS MEDICAL CARE OF PLYMOUTH CORDAGE,3,10 CORDAGE PARK CIRCLE,PLYMOUTH,MA,02360,(508) 732-9272,Profit,01/20/2006,41.897892,-70.62403
709,102793,OCALA REGIONAL KIDNEY CENTER NORTH,2,2620 WEST HWY 316,CITRA,FL,32113,(352) 591-4680,Profit,07/29/2002,29.166303000000006,-81.534873
710,012594,BOAZ DIALYSIS,4,16 CENTRAL HENDERSON ROAD,BOAZ,AL,35957,(256) 840-5931,Profit,06/30/1999,34.199020000000004,-86.155151
711,132512,LIBERTY DIALYSIS - MERIDIAN,5,3525 E LOUISE DR SUITE 100,MERIDIAN,ID,83642,(208) 846-9815,Profit,10/14/2005,43.617852,-116.397129
712,012595,RCG FORT PAYNE,5,2202 JORDAN ROAD SW,FORT PAYNE,AL,35968,(256) 845-9979,Profit,05/01/1999,34.409655,-85.73790799999998
713,103503,SHANDS AT UNIV OF FL OUTPATIENT DIALYSIS,2,2409 SW ARCHER RD,GAINESVILLE,FL,32608,(352) 265-6890,Non-Profit,09/08/2007,29.678831,-82.345878
714,012694,RENAL TREATMENT CENTERS SOUTHEAST LP,,1830 LEE AVE SW,CULLMAN,AL,35055,(615) 341-5893,Profit,07/06/2017,34.179337,-86.840793
715,163504,UNIVERSITY OF IOWA HOSPITAL & CLINICS - MUSCATINE,5,3465 MULBERRY AVE,MUSCATINE,IA,52761,(563) 262-9303,Non-Profit,08/16/1996,41.420129,-91.06984
716,102761,DSI - TAMPA CENTRAL,3,4705 N ARMENIA AVE,TAMPA,FL,33603,(813) 353-8100,Profit,09/01/1999,27.970086,-82.47967299999998
717,102894,KIDNEY KARE OUTPATIENT SERVICES,2,326 E DANIA BEACH BLVD,DANIA,FL,33004,(954) 923-3855,Profit,07/07/2010,26.057233,-80.164589
718,102648,MIAMI LAKES ARTIFICIAL KIDNEY CTR,3,14600 NW 60TH AVE,MIAMI,FL,33014,(786) 639-0496,Profit,07/07/1992,25.948877,-80.24358199999998
719,112725,WRIGHTSVILLE DIALYSIS,4,2240 WEST ELM STREET,WRIGHTSVILLE,GA,31096,(478) 864-8701,Profit,08/14/2002,32.736379,-82.666108
720,102634,NORTH PALM BEACH DIALYSIS CENTER,3,2841 PGA BLVD,PALM BEACH GARDENS,FL,33410,(561) 630-5081,Profit,01/08/1991,26.848788,-80.167124
721,182573,FMC - JACKSON,1,"1550  US HIGHWAY 15 SOUTH, STE 30",JACKSON,KY,41339,(606) 693-4770,Profit,05/23/2005,37.565234,-83.37472
722,102810,FMC - ATLANTIS,3,5503 SOUTH CONGRESS AVE,ATLANTIS,FL,33462,(561) 967-0633,Profit,09/25/2004,26.597342,-80.10387
723,012676,"RENAL TREATMENT CENTERS SOUTHEAST, LP",3,"5406 HIGHWAY 280, SUITE D107",BIRMINGHAM,AL,35242,(205) 981-2045,Profit,08/25/2014,33.527444,-86.799047
724,182537,ARA - UNIVERSITY KIDNEY CENTER 3RD STREET,4,635 SOUTH 3RD STREET,LOUISVILLE,KY,40202,(502) 561-1314,Profit,04/23/1997,38.178077,-85.666708
725,102545,WINTER HAVEN DIALYSIS,3,1625 UNITY WAY NW,WINTER HAVEN,FL,33881,(863) 294-8851,Profit,01/28/1981,28.045835,-81.732742
726,162548,MARSHALLTOWN MARY GREELEY DIALYSIS,5,3120 2ND ST.,MARSHALLTOWN,IA,50158,(641) 752-1819,Non-Profit,06/01/2011,42.0343,-92.906266
727,102571,BELLE GLADE DIALYSIS CENTER,3,933 SE 1ST ST,BELLE GLADE,FL,33430,(561) 996-0602,Profit,08/22/1984,26.762142,-80.733244
728,112640,GREENSBORO DAVITA DIALYSIS CENTER,4,1220 SILOAM ROAD,GREENSBORO,GA,30642,(706) 453-7222,Profit,10/07/1997,33.570499,-83.186035
729,072519,UCONN DIALYSIS CENTER,3,230 FARMINGTON AVENUE,FARMINGTON,CT,06032,(860) 678-1459,Non-Profit,12/29/1999,41.73044,-72.842901
730,152655,DAVITA - MISHAWAKA DIALYSIS,3,1420 TRINITY PLACE,MISHAWAKA,IN,46545,(574) 231-7204,Profit,05/15/2013,41.671733,-86.166296
731,102692,SAINT AUGUSTINE DIALYSIS,2,264 SOUTHPARK CIR E,SAINT AUGUSTINE,FL,32086,(904) 808-0445,Profit,01/10/1996,29.895928,-81.311586
732,152521,DAVITA - GARY,3,4802 BROADWAY,GARY,IN,46408,(219) 887-1199,Profit,07/30/1992,41.595883,-87.344853
