,id,name,address,address2,city,state,zip,county,phone,CMS Region,ownership,startdate,LAT,LON
0,011500,BAPTIST HOSPICE,301 INTERSTATE PARK,,MONTGOMERY,AL,36109,Montgomery,(334) 395-5000,4,Other,03/23/1984,32.346251,-86.26859300000002
1,011501,SOUTHERNCARE NEW BEACON N. BIRMINGHAM,"4735 NORREL DRIVE, SUITE 129",,TRUSSVILLE,AL,35173,Jefferson,(205) 939-8799,4,For-Profit,05/24/1984,33.64074,-86.580135
2,011502,COMFORT CARE COASTAL HOSPICE - BALDWIN,374 GREENO ROAD,,FAIR HOPE,AL,36532,Baldwin,(251) 462-1428,4,Other,07/03/1984,30.293833000000006,-87.586681
3,011503,SAAD HEALTHCARE,"1515 UNIVERSITY BOULEVARD, SOUTH",,MOBILE,AL,36609,Mobile,(251) 343-9600,4,For-Profit,01/08/1986,30.668426,-88.100226
4,011505,HOSPICE FAMILY CARE,3304 WESTMILL DRIVE SOUTHWEST,,HUNTSVILLE,AL,35805,Madison,(256) 650-1212,4,Non-Profit,10/30/1986,34.784271000000004,-86.538996
5,011506,SOUTHERNCARE NEW BEACON - JASPER,"300 NORTH AIRPORT ROAD, UNITS 3 AND 4",,JASPER,AL,35504,Walker,(205) 387-9339,4,For-Profit,11/19/1986,33.854951,-87.27074
6,011508,SOUTHERNCARE NEW BEACON OF ANNISTON,"1419 LEIGHTON AVENUE, UNIT A",,ANNISTON,AL,36207,Calhoun,(205) 236-5334,4,For-Profit,12/22/1987,33.67344,-85.810918
7,011510,HOSPICE OF CULLMAN COUNTY,"1912 ALABAMA HWY 157, POB 1, 2ND FLOOR",,CULLMAN,AL,35058,Cullman,(205) 739-5185,4,Other,02/18/1988,34.179337,-86.840793
8,011511,"HOSPICE OF THE VALLEY, INC","216 JOHNSON STREET, SE  P O BOX 2745",,DECATUR,AL,35601,Morgan,(205) 350-5585,4,Non-Profit,03/03/1988,34.573039,-86.99168399999998
9,011512,SOUTHERNCARE NEW BEACON SCOTTSBORO,1602 S BROAD STREET,,SCOTTSBORO,AL,35768,Jackson,(205) 574-4622,4,For-Profit,04/07/1988,34.644641,-86.04820500000002
10,011513,HOSPICE OF MARSHALL COUNTY/SHEPHERD'S COVE,408 MARTLING ROAD,,ALBERTVILLE,AL,35951,Marshall,(256) 891-7724,4,Other,04/14/1988,34.26313,-86.21066
11,011514,CARE FIRST HOSPICE,"1400 URBAN CENTER DRIVE, SUITE 240",,BIRMINGHAM,AL,35242,Shelby,(205) 313-2800,4,For-Profit,06/02/1988,33.527444,-86.799047
12,011516,HOSPICE OF LIMESTONE COUNTY,"405 SOUTH MARION STREET, P O BOX 626",,ATHENS,AL,35611,Limestone,(205) 232-5017,4,Non-Profit,02/09/1989,34.778334,-86.949534
13,011517,HOSPICE OF WEST ALABAMA,3851 LOOP ROAD,,TUSCALOOSA,AL,35404,Tuscaloosa,(205) 345-0067,4,Non-Profit,02/08/1989,33.233083,-87.525798
14,011522,GENTIVA HOSPICE - DOTHAN,2740 HEADLAND AVENUE,,DOTHAN,AL,36303,Houston,(334) 792-1100,4,For-Profit,11/03/1989,31.233698,-85.406823
15,011523,HOSPICE OF MONTGOMERY,1111 HOLLOWAY PARK,,MONTGOMERY,AL,36117,Montgomery,(334) 279-6677,4,Non-Profit,11/22/1989,32.346251,-86.26859300000002
16,011524,CHATTAHOOCHEE HOSPICE INC,6 MEDICAL PARK NORTH,,VALLEY,AL,36854,Chambers,(334) 736-8043,4,For-Profit,01/05/1990,33.647037,-86.641281
17,011526,LAKESIDE HOSPICE INC,4010 MASTERS ROAD,,PELL CITY,AL,35128,St. Clair,(205) 884-1111,4,Non-Profit,03/28/1991,33.560781,-86.268757
18,011527,AMEDISYS HOSPICE OF BIRMINGHAM,"2204 LAKESHORE DRIVE, SUITE 160",,HOMEWOOD,AL,35209,Jefferson,(205) 868-9221,4,Other,05/02/1991,33.459024,-86.809414
19,011528,COMPASSUS-AUBURN,"665 OPELIKA ROAD, SUITE 200",,AUBURN,AL,36830,Lee,(334) 826-1899,4,Combination Government  &  Non-Profit,12/11/1991,32.607721999999995,-85.48954499999998
20,011530,"HOSPICE OF THE SHOALS, INC",115 FAIRGROUND ROAD,,FLORENCE,AL,35630,Lauderdale,(256) 767-6699,4,Other,03/23/1993,34.830349,-87.666096
21,011534,HOSPICE OF NORTHWEST ALABAMA,1315 US HIGHWAY 43     P O BOX 1216,,WINFIELD,AL,35594,Marion,(205) 487-8140,4,Other,03/15/1994,33.852068,-87.832808
22,011538,HOSPICE OF CLAY COUNTY,83825 HIGHWAY 9  P O BOX 1270,,ASHLAND,AL,36251,Clay,(205) 354-2131,4,Other,12/12/1994,33.269892,-85.833706
23,011543,ALACARE HOME HEALTH  &  HOSPICE,2970A LORNA ROAD,,BIRMINGHAM,AL,35209,Jefferson,(205) 979-2659,4,For-Profit,06/20/1995,33.527444,-86.799047
24,011546,COMMUNITY HOSPICE OF BALDWIN COUNTY,1450 N MCKENZIE STREET FOLEY AL,,FOLEY,AL,36535,Baldwin,(251) 334-9435,4,Non-Profit,02/28/1996,30.397068,-87.66846
25,011548,JOURNEY HOSPICE OF ALABAMA,4128 CROSSHAVEN DRIVE,,TUSCALOOSA,AL,35406,Tuscaloosa,(205) 349-3065,4,Non-Profit,08/22/1996,33.233083,-87.525798
26,011549,"HOMESTEAD HOSPICE OF CAHABA, LLC","410 CHURCH STERET, SUITE B",,SELMA,AL,36701,Dallas,(334) 418-0566,4,For-Profit,10/18/1996,32.416985,-87.03471
27,011554,SOUTHERNCARE GADSDEN,412 SOUTH 5TH STREET,,GADSDEN,AL,35901,Etowah,(256) 546-5568,4,For-Profit,09/04/1997,34.009563,-86.01564300000003
28,011558,ALABAMA HOSPICE CARE OF MOBILE,"4318 DOWNTOWNER LOOP NORTH, SUITE R",,MOBILE,AL,36606,Mobile,(251) 334-6253,4,For-Profit,10/03/1997,30.668426,-88.100226
29,011561,ASERACARE HOSPICE,482 MCQUEEN SMITH ROAD,,PRATTVILLE,AL,36066,Autauga,(334) 872-1104,4,For-Profit,12/09/1997,32.462235,-86.461264
30,011562,ASERACARE HOSPICE-JACKSON,4115 COLLEGE AVENUE,,JACKSON,AL,36545,Clarke,(251) 246-4113,4,For-Profit,10/23/1997,31.619137,-87.91873199999998
31,011566,ASERACARE HOSPICE-DECATUR,715 6TH AVENUE SE,,DECATUR,AL,35601,Autauga,(256) 350-8688,4,For-Profit,10/08/1997,34.573039,-86.99168399999998
32,011567,ASERACARE HOSPICE-MONROEVILLE,1979 S HWY 21 BYPASS,,MONROEVILLE,AL,36460,Monroe,(334) 575-3409,4,For-Profit,10/22/1997,31.519207,-87.411806
33,011576,COMFORT CARE HOSPICE LLC,"547 U.S. HIGHWAY 80 WEST, SUITE 2",,DEMOPOLIS,AL,36732,Marengo,(334) 289-2106,4,For-Profit,03/23/2000,32.499435,-87.825006
34,011577,COVENANT HOSPICE INC - DOTHAN,104 ROCK BRIDGE ROAD,,DOTHAN,AL,36303,Houston,(334) 794-7847,4,For-Profit,12/21/2000,31.233698,-85.406823
35,011578,SOUTHERNCARE DEMOPOLIS,927 HIGHWAY 80 WEST,,DEMOPOLIS,AL,36732,Marengo,(334) 289-9522,4,For-Profit,01/04/2001,32.417456,-87.892213
36,011579,COMPASSUS-GADSDEN,1735 HIGHWAY 77,,SOUTHSIDE,AL,35907,Etowah,(256) 782-3560,4,For-Profit,02/16/2001,33.890840999999995,-86.01801999999998
37,011582,COMFORT CARE HOSPICE OF GREENVILLE,23 JAMESON LANE,,GREENVILLE,AL,36037,Butler,(334) 383-9688,4,For-Profit,06/12/2001,31.843074,-86.636928
38,011583,COMMUNITY HOSPICE CARE,805 FRIENDSHIP ROAD,,TALLASSEE,AL,36078,Elmore,(334) 783-6541,4,Non-Profit,06/13/2001,32.623945,-85.809392
39,011586,ASERACARE HOSPICE-HAMILTON,"1215 MILITARY STREET SOUTH - SUITE B, PO BOX 1357",,HAMILTON,AL,35570,Marion,(205) 921-9091,4,For-Profit,02/06/2002,34.13871,-87.970837
40,011591,"HOPE HOSPICE, INC","1100 EAST PARK DRIVE, SUITE 303",,BIRMINGHAM,AL,35235,Jefferson,(205) 583-4673,4,For-Profit,10/02/2002,33.527444,-86.799047
41,011592,HOSPICE OF TENNESSEE VALLEY INC,115 HELTON COURT,,FLORENCE,AL,35630,Lauderdale,(256) 246-0420,4,For-Profit,12/18/2002,34.830349,-87.666096
42,011597,COMFORT CARE HOSPICE OF ANDALUSIA,"820 SOUTH THREE NOTCH STREET, SUITE C",,ANDALUSIA,AL,36420,Covington,(334) 427-4000,4,Non-Profit,05/14/2003,31.309436,-86.478031
43,011598,"HOMETOWN HOSPICE, INC",1447 COLLEGE AVE,,JACKSON,AL,36545,Clarke,(251) 246-2727,4,Other,05/29/2003,32.884019,-85.815046
44,011600,CAMELLIA HOSPICE - DEMOPOLIS,"211 YEAGER PARKWAY, SUITE A",,PELHAM,AL,35124,Shelby,(205) 620-5244,4,For-Profit,07/22/2003,33.321899,-86.742177
45,011602,GENTIVA HOSPICE - PHENIX CITY,"3615 SOUTH RAILROAD STREET, SUITE 3",,PHENIX CITY,AL,36867,Russell,(334) 298-8898,4,For-Profit,06/05/2003,32.461669,-85.025021
46,011603,"DAYSPRING HOSPICE, LLC",201 WEST LEE STREET,,ENTERPRISE,AL,36331,Coffee,(334) 347-2999,4,Other,07/24/2003,31.35936,-85.8693
47,011604,"LEGACY HOSPICE OF THE EAST, LLLP",344 FRANKLIN STREET,,GILBERTOWN,AL,36908,Choctaw,(251) 843-5355,4,For-Profit,08/28/2003,31.927593,-88.33263000000002
48,011605,KINDRED HOSPICE-MOBILE,"2800 DAUPHIN STREET, SUITE 103",,MOBILE,AL,36606,Mobile,(251) 478-9900,4,For-Profit,08/28/2003,30.668426,-88.100226
49,011607,COMFORT CARE HOSPICE OF PELHAM,"245 CAHABA VALLEY PKWY, SUITE 110",,PELHAM,AL,35124,Shelby,(205) 685-0421,4,Other,10/16/2003,33.321899,-86.742177
50,011608,AMERICAN HOMECARE HOSPICE - SYLACAUGA,3235 OLD SYLACAUGA HWY,,SYLACAUGA,AL,35150,Talladega,(256) 245-9212,4,For-Profit,11/12/2003,33.177585,-86.26010500000002
51,011612,COLUMBUS HOSPICE OF ALABAMA,1521 FIFTH AVENUE,,PHENIX CITY,AL,36867,Russell,(334) 664-0075,4,For-Profit,01/23/2004,32.461669,-85.025021
52,011617,COMFORT CARE HOSPICE OF TALLADEGA,702 EAST BATTLE STREET SUITE C,,TALLADEGA,AL,35160,Talladega,(256) 761-1250,4,For-Profit,04/22/2004,33.430539,-86.098251
53,011619,COMPASSUS-MONTGOMERY,4253 WETUMPKA HIGHWAY,,MONTGOMERY,AL,36110,Montgomery,(334) 517-6112,4,For-Profit,08/11/2004,32.346251,-86.26859300000002
54,011621,LAKE MARTIN HOSPICE,"301 MARIARDEN ROAD, SUITE F - PO BOX 629",,DADEVILLE,AL,36853,Tallapoosa,(256) 825-7821,4,Other,11/02/2004,32.826114000000004,-85.776201
55,011622,"HOSPICE OF NORTH ALABAMA, LLC","3311 BOB WALLACE AVE, SUITE 101",,HUNTSVILLE,AL,35805,Madison,(256) 533-4300,4,Other,11/03/2004,34.779183,-86.614576
56,011623,AMEDISYS HOSPICE OF MONTGOMERY,8160 DECKER LANE,,MONTGOMERY,AL,36117,Montgomery,(334) 395-7789,4,For-Profit,01/05/2005,32.346251,-86.26859300000002
57,011624,AFFINITY HOSPICE,"216 AQUARIUS DRIVE, SUITE 306",,BIRMINGHAM,AL,35209,Jefferson,(205) 949-0400,4,For-Profit,03/08/2005,33.527444,-86.799047
58,011626,"ABC HOSPICE, INC",266 INDUSTRIAL DRIVE,,RAINSVILLE,AL,35986,DeKalb,(866) 847-8660,4,For-Profit,04/14/2005,34.494442,-85.836548
59,011628,COMMUNITY HOSPICE OF DALE MEDICAL CENTER,368 JAMES STREET,,OZARK,AL,36360,Dale,(334) 774-1380,4,Combination Government  &  Non-Profit,05/10/2005,31.451615000000004,-85.645035
60,011629,"HOSPICE SERVICES OF ALABAMA, LLC","1000 SOUTHLAKE PARK, SUITE 100",,BIRMINGHAM,AL,35244,Jefferson,(205) 682-9996,4,Other,05/25/2005,33.527444,-86.799047
61,011630,COMPASSUS-BIRMINGHAM,2435 1ST AVENUE SOUTH,,IRONDALE,AL,35210,Jefferson,(205) 968-9223,4,For-Profit,08/17/2005,33.539995000000005,-86.661677
62,011631,"HOMESTEAD HOSPICE OF SOUTHERN ALABAMA, LLC",116 EDWINA STREET,,EVERGREEN,AL,36401,Conecuh,(251) 981-0224,4,For-Profit,09/12/2005,31.373364,-86.855205
63,011632,KELLER HOSPICE,"1404 EAST AVALON AVENUE, SUITE C",,MUSCLE SHOALS,AL,35661,Colbert,(256) 314-1204,4,For-Profit,10/20/2005,34.742657,-87.633767
64,011634,HEARTLITE HOSPICE,111 EAST LAUREL STREET,,SCOTTSBORO,AL,35768,Jackson,(256) 259-1754,4,Other,11/02/2005,34.644641,-86.04820500000002
65,011635,COMFORT CARE HOSPICE OF SCOTTSBORO,"23730 JOHN T REID PKWY, SUITE A",,SCOTTSBORO,AL,35768,Jackson,(256) 259-0906,4,Other,11/02/2005,34.644641,-86.04820500000002
66,011636,COMPASSUS-TROY,199 US HWY 231 NORTH,,TROY,AL,36081,Pike,(334) 566-4357,4,For-Profit,11/17/2005,31.802066,-85.964912
67,011637,VITAS INNOVATIVE HOSPICE CARE OF FULTONDALE,"2215 DECATUR HWY, STE 101",,GARDENDALE,AL,35071,Jefferson,(205) 502-5959,4,For-Profit,11/01/2005,33.676587,-86.809844
68,011638,EXPECT CARE HOSPICE,1220 20TH STREET SOUTH,,BIRMINGHAM,AL,35205,Jefferson,(205) 444-0126,4,For-Profit,11/02/2005,33.527444,-86.799047
69,011639,SOUTHERNCARE TUSCALOOSA,3835 WATERMELON RD,,NORTHPORT,AL,35476,Tuscaloosa,(205) 469-0273,4,For-Profit,12/06/2005,33.257693,-87.596404
70,011640,COMFORT CARE HOSPICE OF BREWTON,"215 BELLEVILLE AVENUE, SUITE A",,BREWTON,AL,36426,Escambia,(251) 867-6232,4,Other,12/15/2005,31.090708000000006,-87.055379
71,011642,SPRINGHILL HOME HEALTH AND HOSPICE,22 NORTH MOBILE STREET,,MOBILE,AL,36607,Mobile,(251) 433-8172,4,For-Profit,01/18/2006,30.668426,-88.100226
72,011643,COMFORT CARE  HOSPICE OF CULLMAN,"1910 CHEROKEE AVENUE, SW",,CULLMAN,AL,35055,Cullman,(256) 739-4409,4,For-Profit,01/05/2006,34.179337,-86.840793
73,011653,SOUTHERNCARE DAPHNE,"26179 CAPITAL DRIVE, SUITE A",,DAPHNE,AL,36526,Baldwin,(251) 621-2844,4,For-Profit,01/03/2007,30.625545,-87.895979
74,011654,COMFORT CARE HOSPICE OF DECATUR,"2424 DANVILLE ROAD, SUITE M",,DECATUR,AL,35603,Morgan,(256) 905-0280,4,Other,04/12/2007,34.573039,-86.99168399999998
75,011655,SOUTHERNCARE GREENVILLE,501 E COMMERCE STREET,,GREENVILLE,AL,36037,Butler,(334) 382-1406,4,Other,04/13/2007,31.811964,-86.554606
76,011656,FIRST CHOICE HOSPICE,966 NORTH CLAXTON AVENUE,,ELBA,AL,36323,Coffee,(334) 897-0650,4,For-Profit,04/11/2007,31.415484000000006,-86.08144899999998
77,011657,ALABAMA HOSPICE CARE OF BIRMINGHAM,5243 OLD SPRINGVILLE ROAD SUITE 101,,PINSON,AL,35126,Jefferson,(205) 228-0600,4,Other,04/12/2007,33.703291,-86.669741
78,011660,OASIS HEALTHCARE - MOODY,2005 AGAPE CIRCLE,,MOODY,AL,35004,St. Clair,(205) 640-3303,4,For-Profit,06/29/2007,33.603417,-86.49379499999998
79,011661,COOSA VALLEY HOSPICE,315 WEST HICKORY STREET,,SYLACAUGA,AL,35150,Talladega,(256) 249-5602,4,Government,07/16/2007,33.177585,-86.26010500000002
80,011662,ALABAMA HOSPICE CARE OF JASPER,"1458 JONES DAIRY ROAD, SUITE 200",,JASPER,AL,35501,Walker,(205) 385-0200,4,For-Profit,07/12/2007,33.837311,-87.25988100000002
81,011663,"SOUTHEAST HOSPICE NETWORK, LLC","4330 HIGHWAY 78E, SUITE 120-121",,JASPER,AL,35501,Walker,(205) 387-2300,4,For-Profit,09/28/2007,33.837311,-87.25988100000002
82,011664,COMPASSUS HOSPICE AND PALLIATIVE CARE - BIRMINGHAM,"1400 URBAN CENTER DRIVE, SUITE 100",,BIRMINGHAM,AL,35212,Jefferson,(205) 437-8655,4,For-Profit,10/10/2007,33.527444,-86.799047
83,011668,COMFORT CARE HOSPICE OF GADSDEN,"500 SOUTH 5TH STREET, SUITES 1100  &  1110",,GADSDEN,AL,35901,Etowah,(256) 413-9045,4,Other,02/21/2008,34.009563,-86.01564300000003
84,011669,AMEDISYS HOSPICE OF FLORENCE,"412 SOUTH COURT STREET, SUITE 302",,FLORENCE,AL,35630,Lauderdale,(256) 760-7877,4,For-Profit,03/24/2014,34.889364,-87.65045699999997
85,011670,CAMELLIA HOSPICE,101 CHURCH STREET,,RAINBOW CITY,AL,35906,Etowah,(256) 467-3568,4,For-Profit,04/10/2008,33.928777000000004,-86.084228
86,011671,ALABAMA HOSPICE CARE OF OXFORD,1631 HAMRICK DRIVE EAST,,OXFORD,AL,36203,Calhoun,(256) 831-2031,4,For-Profit,06/12/2008,33.597601,-85.87117099999998
87,011673,COMFORT CARE HOSPICE OF MONTGOMERY,315 SAINT LUKES DRIVE,,MONTGOMERY,AL,36117,Montgomery,(334) 514-0244,4,Other,07/23/2008,32.346251,-86.26859300000002
88,011674,GENTIVA HOSPICE - HUNTSVILLE,"5000 BRADFORD DRIVE, SUITE 3A",,HUNTSVILLE,AL,35805,Madison,(256) 837-1290,4,For-Profit,08/28/2008,34.784271000000004,-86.538996
89,011675,KINDRED HOSPICE - HOOVER,"2000B SOUTHBRIDGE PARKWAY, SUITE 150",,BIRMINGHAM,AL,35209,Jefferson,(205) 870-4340,4,For-Profit,08/27/2008,33.527444,-86.799047
90,011676,GOOD SAMARITAN HOSPICE OF MADISON,"540 HUGHES ROAD, SUITE 12",,MADISON,AL,35758,Madison,(256) 772-8108,4,Other,12/10/2008,34.710533,-86.76228
91,011677,ALABAMA HOSPICE CARE OF TUSCALOOSA,3064 PALISADES COURT,,TUSCALOOSA,AL,35405,Tuscaloosa,(205) 383-3356,4,For-Profit,12/30/2008,33.233083,-87.525798
92,011678,COMPASSUS-FLORENCE,507 E DR HICKS BOULEVARD,,FLORENCE,AL,35634,Lauderdale,(256) 757-2414,4,For-Profit,12/30/2008,34.830349,-87.666096
93,011680,FIRST CHOICE HOSPICE-OZARK,1864 ANDREWS AVENUE  SUITE A,,OZARK,AL,36360,Dale,(334) 774-3113,4,For-Profit,09/03/2009,31.512,-85.632747
94,011681,FIRST CHOICE HOSPICE ANDALUSIA,1015 S THREE NOTCH ST,,ANDALUSIA,AL,36420,Covington,(334) 897-0650,4,For-Profit,06/16/2011,31.309436,-86.478031
95,011682,CAMELLIA HOSPICE OF ALABAMA,"415-E CHURCH STREET, SUITE 3",,HUNTSVILLE,AL,35801,Madison,(256) 436-0402,4,For-Profit,05/29/2013,34.784271000000004,-86.538996
96,011683,CITIZENS BAPTIST HOSPICE,403 MEDICAL OFFICE PARK,,TALLADEGA,AL,35160,Talladega,(256) 268-2422,4,Other,06/18/2014,33.120452,-86.437761
97,011684,ST JOSEPH HOSPICE OF SOUTH ALABAMA LLC,"23 MIDTOWN PARK W, UNIT B",,MOBILE,AL,36607,Mobile,(251) 675-7555,4,For-Profit,10/31/2014,30.668426,-88.100226
98,021500,MAT-SU REGIONAL HOSPICE,"950 EAST BOGARD ROAD, SUITE 132",,WASILLA,AK,99654,Matanuska-Susitna,(907) 861-6000,10,For-Profit,11/25/1993,61.57524,-149.45684
99,021505,HOSPICE AND HOME CARE OF JUNEAU,419 SIXTH STREET,,JUNEAU,AK,99801,Juneau,(907) 463-6111,10,Non-Profit,02/23/2006,58.3727,-134.178781
100,021506,PROVIDENCE IN HOME SERVICES,"4001 DALE STREET, SUITE 101",,ANCHORAGE,AK,99508,Anchorage,(907) 563-0130,10,Non-Profit,03/15/2006,61.177549,-149.27435400000005
101,021507,FAIRBANKS MEMORIAL HOSPITAL HOSPICE SERVICES,2001 GILLAM WAY,,FAIRBANKS,AK,99701,Fairbanks,(907) 458-3090,10,Non-Profit,01/14/2013,64.692317,-146.601733
102,021508,FRONTIER HOME HEALTH AND HOSPICE,3909 ARCTIC BLVD SUITE 102,,ANCHORAGE,AK,99503,Anchorage,(907) 272-1275,10,Other,11/05/2015,61.177549,-149.27435400000005
103,031500,HOSPICE OF THE VALLEY - CENTRAL,"1510 EAST FLOWER STREET, BUILDING 2",,PHOENIX,AZ,85014,Maricopa,(602) 287-7000,9,Non-Profit,11/17/1983,33.572162,-112.087966
104,031501,AMEDISYS HOSPICE,"1585 EAST RIVER ROAD, SUITE 201",,TUCSON,AZ,85718,Pima,(520) 205-7700,9,Non-Profit,11/01/1983,32.154289,-110.871062
105,031502,NORTHERN ARIZONA HOSPICE,"203 SOUTH CANDY LANE, SUITE 10A",,COTTONWOOD,AZ,86326,Yavapai,(337) 233-1307,9,Other,07/25/1984,34.719747,-112.001252
106,031505,HOSPICE OF THE VALLEY EAST,2020 EAST WOODSIDE COURT,,GILBERT,AZ,85297,Maricopa,(480) 730-5980,9,Non-Profit,01/04/1989,33.310209,-111.742191
107,031508,HOSPICE OF YUMA,1824 SOUTH 8TH AVENUE,,YUMA,AZ,85364,Yuma,(928) 343-2222,9,Non-Profit,11/17/1989,32.516261,-114.521811
108,031512,"NORTHLAND HOSPICE AND PALLIATIVE CARE, INC",452 NORTH SWITZER CANYON DRIVE,,FLAGSTAFF,AZ,86001,Coconino,(928) 779-1227,9,For-Profit,06/16/1992,35.185217,-111.620726
109,031514,T M C HOSPICE AKA PEPPI'S HOUSE,2715 NORTH WYATT DRIVE,,TUCSON,AZ,85712,Pima,(520) 324-1027,9,Other,07/09/1992,32.154289,-110.871062
110,031515,HOSPICE OF THE VALLEY - WEST,9435 WEST PEORIA AVENUE,,PEORIA,AZ,85345,Maricopa,(623) 583-4848,9,Non-Profit,09/29/1992,33.787708,-112.3111
111,031517,SCOTTSDALE HOSPICE OF THE VALLEY,16117 NORTH 76TH STREET,,SCOTTSDALE,AZ,85260,Maricopa,(480) 663-6500,9,Other,11/10/1992,33.668727000000004,-111.823682
112,031519,"HOSPICE FAMILY CARE, INC. - TUCSON","6300 EAST EL DORADO PLAZA, A-100",,TUCSON,AZ,85715,Pima,(704) 662-0416,9,For-Profit,06/08/1993,32.154289,-110.871062
113,031520,BANNER HOSPICE,"275 EAST GERMANN ROAD, SUITE 110N",,GILBERT,AZ,85297,Maricopa,(480) 657-1100,9,For-Profit,01/12/1994,33.310209,-111.742191
114,031521,HOSPICE COMPASSUS-CASA GRANDE,"1675 EAST MONUMENT PLAZA DRIVE, SUITE A",,CASA GRANDE,AZ,85122,Pinal,(520) 421-7143,9,For-Profit,04/08/1994,32.89762,-111.79599
115,031522,MT GRAHAM REGIONAL MEDICAL CENTER HOSPICE SERVICES,"1600 SOUTH 20TH AVENUE, BUILDING E",,SAFFORD,AZ,85546,Graham,(928) 348-4063,9,Non-Profit,07/21/1994,32.832106,-109.701233
116,031523,HOSPICE COMPASSUS-PAYSON,"511 SOUTH MUDSPRING ROAD, SUITE #1",,PAYSON,AZ,85541,Gila,(928) 472-6340,9,For-Profit,07/15/1994,34.257833000000005,-111.349615
117,031529,CASA DE LA PAZ HOSPICE,185 SOUTH MOORMAN AVENUE,,SIERRA VISTA,AZ,85635,Cochise,(520) 263-3835,9,Non-Profit,02/01/1995,31.56541,-110.314508
118,031531,BANNER HOSPICE PHOENIX OFFICE,"202 EAST EARLL DRIVE, SUITE 160",,PHOENIX,AZ,85012,Maricopa,(602) 279-0677,9,For-Profit,12/05/1995,33.572162,-112.087966
119,031536,HOSPICE FAMILY CARE - PRESCOTT,"3195 STILLWATER DRIVE, SUITE A",,PRESCOTT,AZ,86305,Yavapai,(704) 662-0416,9,For-Profit,09/21/1996,34.579376,-112.448176
120,031537,"HOSPICE FAMILY CARE, INC","1550 SOUTH ALMA SCHOOL ROAD, SUITE 102",,MESA,AZ,85210,Maricopa,(704) 662-0416,9,For-Profit,09/28/1996,33.401926,-111.717379
121,031538,KINDRED HOSPICE,"5210 EAST WILLIAMS CIRCLE, SUITE 100",,TUCSON,AZ,85711,Pima,(520) 577-0270,9,For-Profit,11/21/1996,32.154289,-110.871062
122,031540,"VALIANT HOSPICE  &  PALLIATIVE CARE, LLC","67 EAST WELDON AVENUE, SUITE 317",,PHOENIX,AZ,85012,Maricopa,(602) 274-1952,9,For-Profit,03/13/1997,33.572162,-112.087966
123,031543,"HOSPICE OF HAVASU, INC.",365 SOUTH LAKE HAVASU AVENUE,,LAKE HAVASU CITY,AZ,86403,Mohave,(928) 453-2111,9,Non-Profit,11/19/1997,34.769426,-113.874795
124,031547,CASA DE LA LUZ HOSPICE,7740 NORTH ORACLE ROAD,,TUCSON,AZ,85704,Pima,(520) 544-9890,9,Other,06/14/1999,32.154289,-110.871062
125,031548,HEARTLAND HOSPICE SERVICES,3112 NORTH SWAN ROAD,,TUCSON,AZ,85712,Pima,(520) 325-2790,9,For-Profit,06/03/1999,32.154289,-110.871062
126,031550,HOSPICE COMPASSUS-WHITE MOUNTAIN,"1789 WEST COMMERCE DRIVE, SUITE A",,LAKESIDE,AZ,85929,Navajo,(928) 368-4400,9,For-Profit,06/06/2001,34.151486,-109.967487
127,031551,"CHARLES WM LEIGHTON, JR HOSPICE, INC",524 WEST MALEY PLACE,,WILLCOX,AZ,85643,Cochise,(520) 384-5878,9,Non-Profit,08/02/2001,32.198098,-109.887753
128,031552,KINGMAN REGIONAL MEDICAL CENTER HOSPICE,"2202 STOCKTON HILL ROAD, SUITE 200",,KINGMAN,AZ,86401,Mohave,(928) 757-0602,9,Non-Profit,02/08/2002,35.21680300000001,-114.016734
129,031553,"PREMIER HOSPICE AND PALLIATIVE CARE, LLC","4530 EAST SHEA BOULEVARD, SUITE 165",,PHOENIX,AZ,85028,Maricopa,(602) 274-7572,9,Other,09/24/2003,33.572162,-112.087966
130,031555,COMPASSUS - PHOENIX,"3003 NORTH CENTRAL AVENUE, SUITE 800",,PHOENIX,AZ,85012,Maricopa,(602) 749-5900,9,For-Profit,09/02/2004,33.572162,-112.087966
131,031556,THEMA HEALTH SERVICES,"1500 EAST BETHANY HOME ROAD, SUITE #250",,PHOENIX,AZ,85014,Maricopa,(602) 889-4400,9,For-Profit,12/08/2004,33.572162,-112.087966
132,031559,HOSPICE OF THE PINES,13175 EAST STATE ROUTE 169,,DEWEY,AZ,86327,Yavapai,(928) 632-0111,9,For-Profit,06/16/2005,34.517439,-112.249771
133,031560,HOSPICE COMPASSUS - SEDONA/ FLAGSTAFF/ PRESCOTT,"70 BELL ROCK PLAZA, SUITE A",,SEDONA,AZ,86351,Coconino,(928) 284-0180,9,For-Profit,06/15/2005,34.857323,-111.794933
134,031561,SERENITY HOSPICE  &  PALLIATIVE CARE,"2999 NORTH 44TH STREET, SUITE 225",,PHOENIX,AZ,85018,Maricopa,(602) 216-2273,9,Other,06/08/2005,33.572162,-112.087966
135,031562,"VALOR HOSPICE CARE, LLC","1820 EAST RIVER ROAD, SUITE 100",,TUCSON,AZ,85718,Pima,(520) 615-3996,9,For-Profit,08/09/2005,32.179196000000005,-111.125346
136,031563,AMERICARE HOSPICE AND PALLIATIVE CARE,"1212 NORTH SPENCER STREET, SUITE 2",,MESA,AZ,85203,Maricopa,(480) 726-7773,9,For-Profit,09/20/2005,33.401926,-111.717379
137,031564,KINDRED HOSPICE,"3107 CLEARWATER DRIVE, SUITE B",,PRESCOTT,AZ,86305,Yavapai,(928) 445-2522,9,For-Profit,09/27/2005,34.682202000000004,-112.796329
138,031565,"INFINITY HOSPICE CARE, LLC","5110 NORTH 40TH STREET, SUITE 107",,PHOENIX,AZ,85018,Maricopa,(602) 381-0375,9,For-Profit,01/20/2006,33.572162,-112.087966
139,031573,HOSPICE COMPASSUS-YUMA,1025 WEST 24TH STREET  SUITE 15,,YUMA,AZ,85364,Yuma,(928) 344-6100,9,For-Profit,06/14/2007,32.516261,-114.521811
140,031576,TOHONO O'ODHAM HOSPICE,"FEDERAL ROUTE 15, MILE POST 9",,SELLS,AZ,85634,Pima,(520) 383-1893,9,Other,04/21/2008,31.920885,-111.871344
141,031577,SOULISTIC HOSPICE,16-18 CALLE IGLESIA,,TUBAC,AZ,85646,Santa Cruz,(520) 398-2333,9,Non-Profit,10/17/2008,31.610681,-111.057047
142,031578,"EAST VALLEY HOSPICE, PLC","1311 WEST CHANDLER BOULEVARD, SUITE 200",,CHANDLER,AZ,85224,Maricopa,(480) 895-5434,9,Other,07/24/2008,33.272566999999995,-111.757642
143,031579,"PRIME CARE HOSPICE, LLC","4225 WEST GLENDALE AVENUE, SUITE A-200",,PHOENIX,AZ,85051,Maricopa,(623) 847-2323,9,For-Profit,09/17/2008,33.572162,-112.087966
144,031580,HARMONY HOSPICE,"201 EAST COTTONWOOD LANE, SUITE 3",,CASA GRANDE,AZ,85122,Pinal,(520) 421-2157,9,For-Profit,09/09/2008,32.907111,-111.762121
145,031581,HOSPICE COMPASSUS-BULLHEAD CITY,"1225 HANCOCK ROAD, SUITE 200",,BULLHEAD CITY,AZ,86442,Mohave,(928) 763-6433,9,For-Profit,11/20/2008,35.129773,-114.561149
146,031582,AVIANT HOSPICE GILA,136 SOUTH BROAD STREET,,GLOBE,AZ,85501,Gila,(928) 425-5400,9,For-Profit,03/19/2009,33.351209999999995,-110.705266
147,031583,AVIANT HOSPICE YAVAPAI,"1756 EAST VILLA DRIVE, SUITE C17",,COTTONWOOD,AZ,86326,Yavapai,(928) 634-1073,9,For-Profit,05/12/2009,34.719747,-112.001252
148,031584,GOOD SAMARITAN SOCIETY PRESCOTT HOSPICE,"1065 RUTH STREET, SUITE 108-109",,PRESCOTT,AZ,86301,Yavapai,(928) 778-5655,9,Other,07/15/2009,34.682202000000004,-112.796329
149,031585,"HARBOR LIGHT HOSPICE OF ARIZONA, INC",4703 NORTH 1ST AVENUE,,TUCSON,AZ,85718,Pima,(520) 546-5788,9,For-Profit,05/19/2009,32.154289,-110.871062
150,031586,"VALOR HOSPICECARE, LLC","1048 EAST FRY BOULEVARD, SUITE E",,SIERRA VISTA,AZ,85635,Cochise,(520) 458-9450,9,For-Profit,08/14/2009,31.452512,-110.218977
151,031588,"SACRED HEART HOSPICE, LLC","15255 NORTH 40TH STREET, SUITE 125",,PHOENIX,AZ,85032,Maricopa,(602) 476-2047,9,For-Profit,03/24/2010,33.572162,-112.087966
152,031591,AVIANT HOSPICE PHOENIX,"1640 SOUTH STAPLEY DRIVE, SUITE 245",,MESA,AZ,85204,Maricopa,(480) 398-2411,9,For-Profit,08/20/2010,35.84837800000001,-110.498343
153,031592,"HOSPICE OF THE WEST, LLC","21410 NORTH 19TH AVENUE, SUITE 100",,PHOENIX,AZ,85027,Maricopa,(602) 343-0422,9,For-Profit,10/31/2010,33.572162,-112.087966
154,031593,ARISTA COMMUNITY HOSPICE,"2312 NORTH ROSEMONT BOULEVARD, SUITE 103",,TUCSON,AZ,85712,Pima,(520) 333-0333,9,For-Profit,12/14/2010,32.154289,-110.871062
155,031594,ZION'S WAY HOSPICE,47 6TH AVENUE,,PAGE,AZ,86040,Coconino,(928) 645-0366,9,For-Profit,01/17/2011,36.902769,-111.460867
156,031595,EMBLEM HOSPICE,88 SOUTH SAN MARCOS PLACE,,CHANDLER,AZ,85225,Maricopa,(480) 821-8338,9,For-Profit,02/07/2011,33.282874,-111.854943
157,031596,"ARIZONA FAMILY HOSPICE, LLC","15551 NORTH GREENWAY-HAYDEN LOOP, SUITE #155",,SCOTTSDALE,AZ,85260,Maricopa,(480) 991-8200,9,For-Profit,03/09/2011,33.668727000000004,-111.823682
158,031598,"COMPREHENSIVE HOSPICE AND PALLIATIVE CARE, LLC","2111 EAST HIGHLAND AVENUE, SUITE B-425",,PHOENIX,AZ,85016,Maricopa,(602) 795-9705,9,Other,08/05/2011,33.572162,-112.087966
159,031599,SOREO PATHWAYS HOSPICE AND PALLIATIVE CARE,2475 EAST WATER STREET,,TUCSON,AZ,85719,Pima,(520) 547-7000,9,For-Profit,10/14/2011,32.154289,-110.871062
160,031600,"VALLEY OF THE SUN HOSPICE, LLC","1717 WEST NORTHERN AVENUE, SUITE 117",,PHOENIX,AZ,85021,Maricopa,(602) 535-8255,9,For-Profit,10/14/2011,33.572162,-112.087966
161,031601,REFLECTIONS HOSPICE,"1840 EAST UNIVERSITY DRIVE, SUITE 6",,MESA,AZ,85203,Maricopa,(480) 246-3560,9,For-Profit,07/07/2011,35.84837800000001,-110.498343
162,031602,SAGE HOSPICE LLC,"5111 NORTH SCOTTSDALE ROAD, SUITE 204",,SCOTTSDALE,AZ,85250,Maricopa,(480) 777-5117,9,Other,11/28/2011,33.668727000000004,-111.823682
163,031603,SEASONS HOSPICE AND PALLIATIVE CARE OF ARIZONA LLC,"2020 NORTH CENTRAL AVENUE, SUITE 170",,PHOENIX,AZ,85004,Maricopa,(480) 606-1011,9,Combination Government  &  Non-Profit,12/02/2011,33.572162,-112.087966
164,031604,HOSPICE SANCTUARY,"13845 NORTH NORTHSIGHT BOULEVARD, SUITE 101",,SCOTTSDALE,AZ,85260,Maricopa,(602) 633-6100,9,For-Profit,05/24/2012,33.668727000000004,-111.823682
165,031605,GERINET HEALTHCARE,"6375 EAST TANQUE VERDE ROAD, SUITE 170",,TUCSON,AZ,85715,Pima,(520) 300-9337,9,For-Profit,06/12/2012,32.154289,-110.871062
166,031606,FAMILY COMFORT HOSPICE,"7975 NORTH HAYDEN ROAD, SUITE A200",,SCOTTSDALE,AZ,85258,Maricopa,(480) 745-3015,9,For-Profit,07/30/2012,33.668727000000004,-111.823682
167,031607,BEACON OF HOPE HOSPICE,"500 NORTH LAKE HAVASU AVENUE, SUITE B104  &  B106",,LAKE HAVASU,AZ,86403,Mohave,(928) 854-4200,9,For-Profit,09/17/2012,34.501576,-114.314853
168,031608,COMPANION HOSPICE AND PALLIATIVE CARE OF MARICOPA,"1930 SOUTH ALMA SCHOOL ROAD, SUITE D105",,MESA,AZ,85210,Maricopa,(714) 741-0273,9,For-Profit,09/04/2012,32.594385,-114.655084
169,031609,"QUALITY HOSPICE CARE, INC.",1122 EAST WASHINGTON STREET,,PHOENIX,AZ,85034,Maricopa,(602) 621-4995,9,For-Profit,08/20/2012,33.572162,-112.087966
170,031610,BEACON OF HOPE HOSPICE,"3550 NORTH LANE, SUITES 102,104,106  &108",,BULLHEAD CITY,AZ,86442,Mohave,(928) 444-8122,9,For-Profit,09/14/2012,35.129773,-114.561149
171,031611,"LIVING WATERS HOSPICE, LLC",3711 WEST HIGHWAY 68,,GOLDEN VALLEY,AZ,86413,Mohave,(928) 565-9000,9,For-Profit,11/28/2012,35.206066,-114.232753
172,031612,"EL SOL HOSPICE AND PALLIATIVE CARE, LLC","6336 EAST BROWN ROAD, SUITE 101",,MESA,AZ,85205,Maricopa,(520) 484-8484,9,For-Profit,02/15/2013,33.401926,-111.717379
173,031613,"AEGIS HOSPICE, INC.","2250 EAST GERMANN ROAD, SUITE 1",,CHANDLER,AZ,85286,Maricopa,(480) 219-4790,9,For-Profit,02/06/2013,33.282874,-111.854943
174,031614,"AGAPE HOSPICE  &  PALLIATIVE CARE, LLC","2980 NORTH SWAN ROAD, SUITE 222",,TUCSON,AZ,85712,Pima,(520) 207-5817,9,For-Profit,03/06/2013,32.154289,-110.871062
175,031615,"GEMINI HOSPICE, LLC","3960 EAST RIGGS ROAD, SUITE 4",,CHANDLER,AZ,85249,Maricopa,(480) 883-1353,9,For-Profit,04/23/2013,33.282874,-111.854943
176,031616,"PILLARS HOSPICE CARE, LLC","10221 NORTH 32ND STREET, SUITE H",,PHOENIX,AZ,85028,Maricopa,(602) 788-1138,9,For-Profit,05/27/2013,33.572162,-112.087966
177,031618,BROOKDALE HOSPICE CHANDLER,"2545 WEST FRYE ROAD, SUITE 10B",,CHANDLER,AZ,85224,Maricopa,(615) 564-8181,9,Other,11/26/2012,33.282874,-111.854943
178,031619,"RENAISSANCE HEALTHCARE, LLC","1840 EAST UNIVERSITY DRIVE, SUITE 3",,MESA,AZ,85203,Maricopa,(480) 268-2660,9,For-Profit,11/11/2013,33.401926,-111.717379
179,031620,"ALLEGIANT HOSPICE, LLC","1234 S POWER RD, SUITE 150",,MESA,AZ,85206,Maricopa,(480) 397-7577,9,For-Profit,10/16/2013,33.401926,-111.717379
180,031621,HORIZON HOSPICE,"7500 DREAMY DRAW DRIVE, SUITE 225",,PHOENIX,AZ,85020,Maricopa,(602) 997-0722,9,For-Profit,10/11/2013,33.572162,-112.087966
181,031622,ACCORD HOSPICE OF THE WHITE MOUNTAINS,"5658 HIGHWAY 260, SUITE 9",,LAKESIDE,AZ,85929,Navajo,(928) 271-8013,9,For-Profit,11/16/2013,34.151486,-109.967487
182,031623,"HOSPICE AT HOME OF ARIZONA, LLC","1423 SOUTH HIGLEY ROAD, SUITE 121",,MESA,AZ,85206,Maricopa,(480) 478-0643,9,For-Profit,01/07/2014,33.401926,-111.717379
183,031624,"EMBLEM HEALTHCARE, INC.","2292 WEST MAGEE ROAD, SUITE 200",,TUCSON,AZ,85742,Pima,(520) 297-1460,9,For-Profit,02/04/2014,32.154289,-110.871062
184,031625,"MAGGIE'S HOSPICE, INC.",314 NORTH ALARCON STREET,,PRESCOTT,AZ,86301,Yavapai,(928) 775-2290,9,For-Profit,03/11/2014,34.597689,-112.31556100000002
185,031626,OSHYN HOSPICE AND PALLIATIVE CARE,7461 EAST TANQUE VERDE ROAD,,TUCSON,AZ,85715,Pima,(520) 795-3535,9,Other,02/28/2014,32.154289,-110.871062
186,031627,"ARIZONA BEST HOSPICE, LLC","250 WEST 24TH STREET, SUITE P",,YUMA,AZ,85364,Yuma,(928) 783-0705,9,Other,06/04/2014,32.516261,-114.521811
187,031628,UNITY HOSPICE,"7418 EAST HELM DRIVE, SUITES 207-208",,SCOTTSDALE,AZ,85260,Maricopa,(602) 842-6100,9,For-Profit,07/15/2014,33.668727000000004,-111.823682
188,031629,VALLEY HOSPICE OF ARIZONA,"1350 EAST MCKELLIPS, SUITE #5",,MESA,AZ,85203,Maricopa,(480) 878-4561,9,For-Profit,08/21/2014,33.401926,-111.717379
189,031630,"HOSPICE PROMISE, LLC","12213 WEST BELL ROAD, SUITE 115",,SURPRISE,AZ,85378,Maricopa,(623) 209-7003,9,For-Profit,09/29/2014,33.670612,-112.452674
190,031631,"WINGS OF HOPE HOSPICE AND PALLIATIVE CARE, INC.","11022 NORTH 28TH DRIVE, SUITE 205",,PHOENIX,AZ,85029,Maricopa,(602) 971-0304,9,For-Profit,11/24/2014,33.572162,-112.087966
191,031632,AMHA HOSPICE,"2355 EAST CAMELBACK ROAD, SUITE 615",,PHOENIX,AZ,85016,Maricopa,(480) 359-3998,9,For-Profit,11/20/2014,33.572162,-112.087966
192,031633,"HOSPICE OF PAYSON, LLC","900 NORTH BEELINE HIGHWAY, SUITE B",,PAYSON,AZ,85541,Gila,(928) 474-2415,9,For-Profit,12/15/2014,34.243905,-111.31881
193,031634,"V A HOSPICE 1, INC.","6718 WEST GREENWAY ROAD, SUITE 205",,PEORIA,AZ,85381,Maricopa,(844) 824-3577,9,Non-Profit,02/25/2015,33.787708,-112.3111
194,031635,"INTEGRITY HOSPICE CARE, LLC","6877 SOUTH KINGS RANCH ROAD, SUITE 2",,GOLD CANYON,AZ,85118,Pinal,(480) 426-0255,9,For-Profit,03/03/2015,33.371483000000005,-111.436942
195,031636,RIVER VALLEY HOSPICE,"3003 HIGHWAY 95, SUITE 27",,BULLHEAD CITY,AZ,86442,Mohave,(928) 683-4041,9,Other,03/11/2015,35.129773,-114.561149
196,031637,"HOMESTEAD HOSPICE OF PHOENIX, LLC","281 NORTH ROOSEVELT AVENUE, SUITE 1",,CHANDLER,AZ,85226,Maricopa,(602) 283-7474,9,For-Profit,03/19/2015,33.282874,-111.854943
197,031638,"COMPLETE HOSPICE CARE OF PHOENIX, LLC","1819 EAST MORTEN AVENUE, SUITE  240",,PHOENIX,AZ,85020,Maricopa,(602) 900-1793,9,For-Profit,04/16/2015,33.572162,-112.087966
198,031639,RIVER VALLEY HOSPICE,"1317 SOUTH JOSHUA AVENUE, SUITE P",,PARKER,AZ,85344,La Paz,(928) 683-4041,9,For-Profit,08/27/2015,34.042332,-114.226423
199,031640,CELEBRITY HOME HEALTH  &  HOSPICE,"1801 SOUTH JENTILLY LANE, SUITE A-10",,TEMPE,AZ,85281,Maricopa,(480) 966-8888,9,For-Profit,05/04/2015,33.388414000000004,-111.931782
200,031641,"DESERT HARMONY HOSPICE, LLC","9865 SOUTH PRIEST DRIVE, SUITE 101",,TEMPE,AZ,85284,Maricopa,(480) 306-7884,9,Other,03/24/2015,33.388414000000004,-111.931782
201,031642,DESERT HARMONY HOSPICE OF TUCSON,"1200 NORTH EL DORADO PLACE, SUITE B200",,TUCSON,AZ,85715,Pima,(520) 284-9334,9,For-Profit,03/24/2015,32.154289,-110.871062
202,031643,"SHANTI HOSPICE, LLC","501 WEST RAY ROAD, SUITE 6",,CHANDLER,AZ,85225,Maricopa,(480) 788-7284,9,Other,12/02/2015,33.282874,-111.854943
203,031644,REFLECTIONS HOSPICE OF ARIZONA,105 NORTH PASADENA STREET,,GILBERT,AZ,85233,Maricopa,(480) 268-2695,9,For-Profit,11/25/2015,33.310209,-111.742191
204,031645,ARIZONA CARE HOSPICE,"12035 NORTH SAGUARO BOULEVARD, SUITE 201",,FOUNTAIN HILLS,AZ,85268,Maricopa,(480) 588-8200,9,For-Profit,01/10/2016,33.606701,-111.737015
205,031646,"SOLACE HOSPICE, LLC","2942 NORTH 24TH STREET, SUITE 101",,PHOENIX,AZ,85016,Maricopa,(602) 888-7037,9,Other,02/18/2016,33.572162,-112.087966
206,031647,VERACARE HOSPICE,"1270 EAST BROADWAY ROAD, SUITE 101",,TEMPE,AZ,85282,Maricopa,(480) 750-4008,9,For-Profit,05/19/2016,33.388414000000004,-111.931782
207,031648,"SOUTHLAND HOSPICE, LLC","4527 NORTH 16TH STREET, SUITE 104",,PHOENIX,AZ,85016,Maricopa,(602) 497-4100,9,Other,03/31/2016,33.572162,-112.087966
208,031649,"DIVINE HOSPICE AND PALLIATIVE CARE, LLC","16165 NORTH 83RD AVENUE, SUITE 237",,PEORIA,AZ,85382,Maricopa,(623) 888-3016,9,Other,05/20/2016,33.787708,-112.3111
209,031650,"V A HOSPICE 2, INC","5287 HIGHWAY 95, SUITE H",,FORT MOHAVE,AZ,86426,Mohave,(844) 824-3577,9,For-Profit,09/06/2016,35.000389,-114.574849
210,031651,"COMFORT CARE HOSPICE, INC","4530 EAST SHEA BOULEVARD, SUITE 160",,PHOENIX,AZ,85028,Maricopa,(602) 550-9995,9,For-Profit,09/22/2016,33.572162,-112.087966
211,031652,"NEW BEGINNING HOSPICE AND PALLIATIVE CARE, LLC","18001 NORTH 79TH AVENUE, SUITE A-6",,GLENDALE,AZ,85308,Maricopa,(623) 234-8918,9,For-Profit,08/25/2016,33.533111,-112.189901
212,031653,ARIZONA HOSPICE AT HOME,"8767 EAST VIA DE VENTURA, SUITE 170",,SCOTTSDALE,AZ,85258,Maricopa,(844) 681-2273,9,For-Profit,08/04/2016,33.668727000000004,-111.823682
213,031654,"SUNCREST HOSPICE PHOENIX, LLC","4650 EAST COTTON CENTER BOULEVARD, SUITE 110",,PHOENIX,AZ,85040,Maricopa,(602) 633-1828,9,For-Profit,10/17/2016,33.516172999999995,-112.02731599999998
214,031655,"HOSPICE OF HOPE, LLC","15270 WEST BROOKSIDE LANE, SUITE 121",,SURPRISE,AZ,85379,Maricopa,(602) 884-4044,9,For-Profit,06/16/2016,33.670612,-112.452674
215,031656,"BEECH HOSPICE, LLC",2017 EAST ADOBE STREET,,MESA,AZ,85213,Maricopa,(480) 339-1770,9,Other,10/08/2016,33.401926,-111.717379
216,031657,AQUARIUS HOSPICE,"10000 NORTH 31ST AVENUE, SUITE C100-125",,PHOENIX,AZ,85051,Maricopa,(602) 466-3686,9,For-Profit,02/07/2017,33.572162,-112.087966
217,031658,ASSISTED HOSPICE CARE,"8165 EAST INDIAN BEND ROAD, SUITE 101B",,SCOTTSDALE,AZ,85250,Maricopa,(480) 860-2345,9,For-Profit,12/16/2016,33.668727000000004,-111.823682
218,041500,WASHINGTON REGIONAL MED CTR HO,"34 WEST COLT SQUARE, SUITE #1",,FAYETTEVILLE,AR,72703,Washington,(479) 713-7385,6,Non-Profit,01/22/1985,36.071561,-94.16654
219,041501,HOSPICE OF THE OZARKS,701 BURNETT DRIVE,,MOUNTAIN HOME,AR,72653,Baxter,(870) 508-1771,6,Non-Profit,03/13/1985,36.334498,-92.384626
220,041502,AREA AGCY AGING HOSPICE OF WES,524 GARRISON AVENUE,,FORT SMITH,AR,72902,Sebastian,(479) 783-5550,6,Non-Profit,01/24/1986,35.349276,-94.370883
221,041503,OUACHITA COUNTY MEDICAL CENTER HOSPICE,685 CALIFORNIA AVENUE SW,,CAMDEN,AR,71701,Ouachita,(870) 836-1301,6,Non-Profit,11/26/1986,33.608596,-92.742087
222,041504,MERCY HOSPICE,3300  SOUTH 70TH,,FORT SMITH,AR,72903,Sebastian,(479) 314-1150,6,Non-Profit,02/27/1987,35.349276,-94.370883
223,041507,PATIENT'S CHOICE HOSPICE,310 NORTH FORREST,,FORREST CITY,AR,72335,St. Francis,(870) 633-4613,6,For-Profit,07/21/1988,35.010079,-90.787429
224,041509,"VISITING NURSES AGENCY OF WESTERN ARKANSAS, INC","257 AIRPORT ROAD, SUITE D",,OZARK,AR,72949,Franklin,(479) 667-4870,6,Non-Profit,11/23/1988,36.307132,-91.37369
225,041510,KINDRED HOSPICE I,915 NORTH WASHINGTON STRET,,FORREST CITY,AR,72335,St. Francis,(870) 633-6812,6,Government,02/23/1989,35.010079,-90.787429
226,041511,HOSPICE OF CENTRAL ARKANSAS,1403 CENTRAL AVENUE,,HOT SPRINGS,AR,71901,Garland,(501) 623-2076,6,Other,05/24/1989,34.491992,-93.050809
227,041512,ST BERNARDS REGIONAL MED CTR H,1726 MARIE CIRCLE,,JONESBORO,AR,72401,Craighead,(870) 972-4507,6,Non-Profit,06/16/1989,35.819733,-90.67905
228,041515,AAA OF WESTERN ARK INC MENA,600 SEVENTH STREET,,MENA,AR,71953,Polk,(479) 394-5458,6,Non-Profit,10/26/1989,34.580834,-94.237096
229,041518,ARKANSAS HOSPICE RUSSELLVILLE,"2405 EAST PARKWAY, SUITE 3",,RUSSELLVILLE,AR,72802,Pope,(479) 967-9300,6,Non-Profit,05/02/1991,35.276382,-93.138762
230,041519,HOSPICE HOME CARE OF PINE BLUFF PLLC,3135 WEST 28TH STREET,,PINE BLUFF,AR,71603,Jefferson,(870) 540-0727,6,For-Profit,05/09/1991,34.211591,-92.017555
231,041520,BAPTIST HEALTH HOSPICE LITTLE ROCK,"11900 COLONEL GLENN RD, SUITE 2300",,LITTLE ROCK,AR,72210,Pulaski,(501) 202-7474,6,Non-Profit,09/24/1991,34.725432,-92.358556
232,041521,ARKANSAS HOME HOSPICE PROVIDERS,501 HIGHWAY 463 NORTH,,TRUMANN,AR,72472,Poinsett,(870) 418-0736,6,For-Profit,10/01/1991,35.676367,-90.522965
233,041522,LIFE TOUCH HOSPICE,2301 CHAMPAGNOLLE ROAD,,EL DORADO,AR,71730,Union,(870) 862-0337,6,Non-Profit,11/12/1991,33.193767,-92.686717
234,041523,HOSPICE HOME CARE OF MONTICELLO,990 HWY 425 NORTH,,MONTICELLO,AR,71655,Drew,(870) 367-9008,6,For-Profit,02/05/1992,33.624768,-91.793712
235,041524,HOSPICE HOME CARE INC,2200 SOUTH BOWMAN ROAD,,LITTLE ROCK,AR,72211,Pulaski,(501) 296-9043,6,For-Profit,02/28/1992,34.781873,-92.234937
236,041525,ENCOMPASS HOSPICE OF TEXARKANA,"210 NORTH STATELINE, SUITE 301",,TEXARKANA,AR,71854,Miller,(870) 773-2621,6,For-Profit,10/20/1992,33.436343,-93.987116
237,041528,KINDRED HOSPICE I,"1509 EAST MAIN STREET, SUITE 6B",,RUSSELLVILLE,AR,72801,Pope,(479) 890-4834,6,For-Profit,12/23/1992,35.276382,-93.138762
238,041529,CIRCLE OF LIFE HOSPICE,901 JONES ROAD,,SPRINGDALE,AR,72762,Washington,(479) 750-6632,6,Non-Profit,12/29/1992,36.186549,-94.15304
239,041530,MERCY HOSPICE,"804 WEST FREEMAN, SUITE 4",,BERRYVILLE,AR,72616,Carroll,(870) 423-5255,6,Non-Profit,02/22/1993,36.371374,-93.570473
240,041531,KINDRED HOSPICE I,"142 WEST WASHINGTON STREET, SUITE 2",,CAMDEN,AR,71701,Ouachita,(870) 498-4357,6,Government,02/25/1993,33.608596,-92.742087
241,041532,KINDRED HOSPICE I,"210 N STATELINE AVENUE, SUITE 504B",,TEXARKANA,AR,71854,Miller,(870) 330-7796,6,Government,03/10/1993,33.436343,-93.987116
242,041534,HOSPICE OF THE HILLS,620 NORTH MAIN STREET,,HARRISON,AR,72601,Boone,(870) 414-4100,6,Government,06/09/1993,36.249339,-93.101572
243,041535,HOSPICE OF HOPE,501 E 6TH STREET,,TEXARKANA,AR,71854,Miller,(870) 216-0046,6,Non-Profit,07/29/1993,33.436343,-93.987116
244,041537,KINDRED HOSPICE I,"2212 MALVERN AVENUE,",,HOT SPRINGS,AR,71901,Garland,(501) 781-4033,6,Government,09/10/1993,34.491992,-93.050809
245,041538,HOSPICE OF NORTH ARKANSAS,"3277 WEST SUNSET AVENUE, SUITE D",,SPRINGDALE,AR,72762,Washington,(479) 253-6203,6,For-Profit,02/21/1994,36.186549,-94.15304
246,041539,KINDRED HOSPICE I,"1141 EAST MAIN STREET, SUITE 208",,BATESVILLE,AR,72501,Independence,(870) 376-5571,6,Government,09/15/1993,35.765582,-91.627673
247,041547,"HOSPICE PEACHTREE, LLC",2910 JENNY LIND # 4,,FORT SMITH,AR,72901,Sebastian,(479) 494-0100,6,For-Profit,04/25/1995,35.349276,-94.370883
248,041550,HOME HEALTH AND HOSPICE SERVICE OF SALINE MEM HOSP,21537 INTERSTATE 30,,BRYANT,AR,72022,Saline,(501) 315-0136,6,For-Profit,09/01/1995,34.617234,-92.489422
249,041551,HOME HEALTH PROFESSIONAL  &  HOSPICE,2222 SPENCE CIRCLE,,JONESBORO,AR,72401,Craighead,(870) 762-1825,6,For-Profit,08/31/1995,35.819733,-90.67905
250,041552,HOSPICE OF NORTH ARKANSAS,"330 HIGHWAY 5 NORTH, SUITE 20",,MOUNTAIN HOME,AR,72653,Baxter,(870) 424-4000,6,For-Profit,04/19/1996,36.334498,-92.384626
251,041554,BAPTIST HEALTH HOSPICE ARKADEL,3050 TWIN RIVERS DRIVE,,ARKADELPHIA,AR,71923,Clark,(870) 245-1040,6,Non-Profit,07/03/1996,34.124085,-93.072607
252,041559,OUACHITA REGIONAL HOSPICE,1106 SOUTH MENA STREET,,MENA,AR,71953,Polk,(479) 394-1134,6,For-Profit,09/26/1996,34.580834,-94.237096
253,041560,HOSPICE CARE SERVICES,"3801 CAMDEN ROAD, CHAPEL VILLAGE, SUITE 12",,PINE BLUFF,AR,71603,Jefferson,(501) 534-4847,6,Other,09/27/1996,34.211591,-92.017555
254,041561,GENTIVA HOSPICE,"10800 FINANCIAL CENTRE PARKWAY, SUITE 380",,LITTLE ROCK,AR,72211,Pulaski,(501) 223-8868,6,For-Profit,11/27/1996,34.781873,-92.234937
255,041564,ARKANSAS HOSPICE INC,14 PARKSTONE CIRCLE,,NORTH LITTLE ROCK,AR,72116,Pulaski,(501) 748-3333,6,Non-Profit,11/10/1998,34.781873,-92.234937
256,041568,"LEGACY HOSPICE, INC",925 WEST KEISER,,OSCEOLA,AR,72370,Mississippi,(870) 563-9995,6,For-Profit,06/22/2004,35.69466699999999,-89.992933
257,041571,LEGACY HOSPICE OF NORTH ARKANSAS,106 WEST LOCUST,,SALEM,AR,72576,Fulton,(877) 652-6167,6,For-Profit,01/04/2005,36.012701,-90.727642
258,041572,DIERKSEN MEMORIAL HOSPICE,"4313 PARKWAY DRIVE, SUITE 20",,TEXARKANA,AR,71854,Miller,(903) 793-6464,6,For-Profit,05/03/2005,33.436343,-93.987116
259,041573,ENCOMPASS HOSPICE OF TEXARKANA,1316 MAIN STREET,,MAGNOLIA,AR,71753,Columbia,(866) 367-9445,6,For-Profit,04/20/2005,33.23506500000001,-93.268338
260,041574,CARING HANDS HOSPICE,2000 HARRISON STREET - SUITE E,,BATESVILLE,AR,72501,Independence,(870) 698-0505,6,For-Profit,05/05/2005,35.765582,-91.627673
261,041575,"LESTER DIERKSEN MEMORIAL HOSPICE, LLC","3648 NORTH HWY 7, SUITE E",,HOT SPRINGS VILLAGE,AR,71909,Garland,(501) 318-1500,6,For-Profit,09/13/2007,34.614003000000004,-92.919727
262,041576,LITTLE RIVER MEMORIAL HOSPICE,"450 WEST LOCKE STREET, SUITE B",,ASHDOWN,AR,71822,Little River,(870) 898-4105,6,Non-Profit,03/13/2008,33.674515,-94.126029
263,041577,"UNITY HOSPICE CARE OF ARKANSAS, LLC","1231 HWY 77, SUITE 2",,MARION,AR,72364,Crittenden,(870) 735-2824,6,For-Profit,06/27/2008,36.266664,-92.678577
264,041578,ARKANSAS HOSPICE INC,2233 HARRISON,,BATESVILLE,AR,72501,Independence,(501) 748-3333,6,Non-Profit,06/27/2008,35.765582,-91.627673
265,041579,BRIDGE OF FAITH HOSPICE  &  PALLIATIVE CARE LLC,657 OAKLAND AVENUE,,HELENA,AR,72342,Phillips,(870) 572-4333,6,For-Profit,09/23/2010,34.533548,-90.62057
266,041580,SUMMIT HOSPICE PROVIDERS,"403 SOUTH POPLAR STREET, SUITE F",,SEARCY,AR,72143,White,(501) 279-7955,6,For-Profit,10/18/2012,35.241134,-91.735223
267,051501,HOSPICE OF THE CENTRAL COAST,"2 UPPER RAGSDALE DRIVE, SUITES D110 AND D120",,MONTEREY,CA,93940,Monterey,(831) 658-3737,9,Non-Profit,11/01/1983,34.04833,-118.133183
268,051503,SUTTER VISITING NURSE ASSOCIATION AND HOSPICE,"2800 LEAVENWORTH STREET, SUITE 350B",,SAN FRANCISCO,CA,94133,San Francisco,(415) 749-4201,9,Non-Profit,11/01/1984,37.727239,-123.032229
269,051504,KAISER FOUNDATION HOSPITAL HOSPICE PROGRAM,12200 BELLFLOWER BLVD,,DOWNEY,CA,90242,Los Angeles,(562) 622-4350,9,For-Profit,11/17/1983,33.938237,-118.130856
270,051505,SCRIPPS HOSPICE,"4311 THIRD AVENUE, SUITE C",,SAN DIEGO,CA,92103,San Diego,(619) 452-7050,9,For-Profit,09/19/1986,32.8153,-117.134993
271,051506,PATHWAYS HOME HEALTH AND HOSPICE,"333 HEGENBERGER ROAD, SUITE 700",,OAKLAND,CA,94621,Alameda,(510) 632-4390,9,Non-Profit,03/16/1984,37.769857,-122.22563999999998
272,051507,"HOSPICE OF THE VALLEY, A SUTTER CARE AT HOME AFFIL",4850 UNION AVENUE,,SAN JOSE,CA,95124,Santa Clara,(408) 559-5600,9,Non-Profit,05/01/1984,37.296867,-121.819306
273,051508,HOSPICE BY THE BAY,17 EAST SIR FRANCIS DRAKE BLVD,,LARKSPUR,CA,94939,Marin,(415) 927-2273,9,Non-Profit,07/31/1984,37.940987,-122.529921
274,051512,PROVIDENCE TRINITYCARE HOSPICE,5315 TORRANCE BLVD.,,TORRANCE,CA,90503,Los Angeles,(310) 530-3800,9,Other,10/01/1984,33.834965999999994,-118.341431
275,051515,KAISER FOUNDATION HOSPITAL HOSPICE,17284 SLOVER AVENUE SUITE 105,,FONTANA,CA,92337,San Bernardino,(909) 609-3838,9,Non-Profit,07/16/1985,34.108793,-117.462685
276,051517,LIVINGSTON MEMORIAL VISITING NURSE ASSOCIATION - H,1996 EASTMAN AVE STE 108,,VENTURA,CA,93003,Santa Clara,(805) 642-1608,9,Non-Profit,08/20/1985,34.268127,-119.255025
277,051521,KAISER FOUNDATION HOSPITAL VALLEY CONTINUING CARE,10605 BALBOA BLVD SUITE 330,,GRANADA HILLS,CA,91344,Los Angeles,(818) 908-2400,9,Non-Profit,10/03/1986,34.288652,-118.436241
278,051522,KAISER FOUNDATION HOSPITAL SAN DIEGO HOSPICE,10992 SAN DIEGO MISSION ROAD BUILDING 2 SUITE 3401,,SAN DIEGO,CA,92108,San Diego,(619) 641-4100,9,Non-Profit,12/19/1986,32.8153,-117.134993
279,051523,HOSPICE BY THE BAY,"1902 VAN NESS AVENUE, 2ND FLOOR",,SAN FRANCISCO,CA,94109,San Francisco,(415) 626-5900,9,Non-Profit,01/22/1987,37.727239,-123.032229
280,051524,BUTTE HOME HEALTH HOSPICE,10 CONSTITUTION DRIVE,,CHICO,CA,95926,Butte,(916) 895-0462,9,Other,01/15/1987,39.755159,-121.818797
281,051525,KAISER FOUNDATION HOSPITAL LOS ANGELES - HOSPICE,3699 WISHIRE BLVD 3RD FLOOR,,LOS ANGELES,CA,90010,Los Angeles,(323) 783-7416,9,Non-Profit,02/02/1987,34.019394,-118.410825
282,051526,HOSPICE OF SANTA CRUZ COUNTY,940 DISC DRIVE,,SCOTTS VALLEY,CA,95066,Santa Cruz,(831) 430-3000,9,Non-Profit,07/27/1987,37.055441,-122.011794
283,051528,ELIZABETH HOSPICE,500 LA TERRAZA BLVD SUITE 130,,ESCONDIDO,CA,92025,San Diego,(760) 737-2050,9,Non-Profit,06/02/1987,33.133648,-117.073223
284,051529,CITRUS VALLEY HOSPICE,820 N PHILLIPS AVE,,WEST COVINA,CA,91791,Los Angeles,(626) 859-2263,9,Non-Profit,06/26/1987,34.055941,-117.909937
285,051531,ARBOR HOSPICE,"890 W STETSON AVENUE, STE A",,HEMET,CA,92543,Riverside,(951) 658-9288,9,Non-Profit,10/14/1987,33.743083,-116.944751
286,051534,HOSPICE OF REDLANDS COMMUNITY HOSPITAL,350 TERRACINA BLVD,,REDLANDS,CA,92373,San Bernardino,(909) 335-5643,9,For-Profit,01/25/1988,34.051642,-117.170862
287,051535,"VNA HOSPICE  &  PALLIATIVE CARE OF  SOUTHERN CA, INC",150 W FIRST STREET #270,,CLAREMONT,CA,91711,Los Angeles,(909) 447-7323,9,Non-Profit,02/26/1988,34.125192,-117.713725
288,051536,"HOSPICE OF HUMBOLDT, INC",3327 TIMBER FALL COURT,,EUREKA,CA,95503,Humboldt,(707) 445-8443,9,Non-Profit,02/25/1988,40.793304,-124.15535
289,051537,COLLABRIA CARE,414 SOUTH JEFFERSON STREET,,NAPA,CA,94559,Napa,(707) 258-9080,9,Non-Profit,01/22/1988,38.338187,-122.276301
290,051538,SAINT AGNES HOME HEALTH  &  HOSPICE,6729 NORTH WILLOW AVE SUITE 103,,FRESNO,CA,93710,Fresno,(559) 449-5600,9,Non-Profit,06/21/1988,36.782674,-119.794492
291,051540,VISITING NURSE AND HOSPICE CARE OF SANTA BARBARA,512 EAST GUTIERREZ STREET,,SANTA BARBARA,CA,93103,Santa Barbara,(805) 965-5555,9,Non-Profit,12/02/1988,34.07767,-119.916239
292,051542,HOSPICE OF PRESBYTERIAN,15050 IMPERIAL HWY,,LA MIRADA,CA,90638,Los Angeles,(562) 902-7770,9,Non-Profit,01/06/1989,33.924373,-117.988726
293,051543,"COMMUNITY HOSPICE, INC - HOSPICE",4368 SPYRES WAY,,MODESTO,CA,95356,Stanislaus,(209) 578-6300,9,Non-Profit,08/18/1988,37.65235300000001,-120.969029
294,051546,KAISER FOUNDATION HOSPITAL - HOSPICE,3240 ARDEN WAY,,SACRAMENTO,CA,95828,Sacramento,(916) 486-5300,9,Non-Profit,02/14/1989,38.566592,-121.468632
295,051547,HOSPICE OF THE EAST BAY,3470 BUSKIRK AVENUE,,PLEASANT HILL,CA,94523,Contra Costa,(925) 887-5678,9,For-Profit,01/17/1989,37.954017,-122.075881
296,051548,"VNA OF GREATER LOS ANGELES, INC",2826 E FOOTHILL BLVD SUITE 101,,PASADENA,CA,91107,Los Angeles,(626) 568-2588,9,For-Profit,05/05/1989,34.136798,-118.077535
297,051551,KAISER FOUNDATION HOSPITAL HOSPICE-OAKLAND,"4501 BROADWAY, 1ST FLOOR",,OAKLAND,CA,94611,Alameda,(510) 752-6390,9,Non-Profit,06/15/1989,37.769857,-122.22563999999998
298,051552,KAISER FOUNDATION HOSPITAL HOSPICE - MARTINEZ,200 MUIR ROAD,,MARTINEZ,CA,94553,Contra Costa,(925) 295-4700,9,Non-Profit,06/14/1989,37.999635,-122.113903
299,051555,SUTTER VISITING NURSE ASSOCIATION AND HOSPICE,"1025 ATLANTIC AVE, SUITE 100",,ALAMEDA,CA,94501,Alameda,(510) 263-0900,9,Non-Profit,06/01/1989,37.764471,-122.283273
300,051556,KAISER FOUNDATION HOSPITAL HOSPICE-HAYWARD,30116 EIGENBRODT WAY,,UNION CITY,CA,94587,Alameda,(510) 675-5777,9,Other,08/09/1989,37.602843,-122.018978
301,051557,HOSPICE OF PETALUMA,416 PAYRAN STREET,,PETALUMA,CA,94952,Sonoma,(707) 778-6242,9,Non-Profit,08/10/1989,38.253785,-122.637675
302,051558,WILSHIRE HOSPICE,277 SOUTH ST STE R,,SAN LUIS OBISPO,CA,93401,San Luis Obispo,(805) 782-8608,9,Non-Profit,07/27/1989,35.234829,-120.679092
303,051560,UC DAVIS HOSPICE PROGRAM,3630 BUSINESS DRIVE,,SACRAMENTO,CA,95820,Sacramento,(916) 734-2777,9,Other,01/22/1990,38.566592,-121.468632
304,051561,HOSPICE SERVICES OF LAKE COUNTY,1717 SOUTH MAIN STREET,,LAKEPORT,CA,95453,Lake,(707) 263-6222,9,Non-Profit,12/12/1989,39.039633,-122.921422
305,051565,KAISER FOUNDATION HOSPITAL HOSPICE - VALLEJO,"1761 BROADWAY, SUITE 101",,VALLEJO,CA,94589,Solano,(707) 648-6969,9,Non-Profit,06/21/1990,38.107911,-122.26388
306,051567,SNOWLINE HOSPICE OF EL DORADO COUNTY-HOSPICE,6520 PLEASANT VALLEY ROAD,,DIAMOND SPRINGS,CA,95619,El Dorado,(530) 621-7820,9,Non-Profit,05/25/1990,38.6913,-120.837888
307,051571,HINDS HOSPICE - FRESNO,"2490 W SHAW AVE, SUITE 101",,FRESNO,CA,93711,Fresno,(559) 320-0310,9,Non-Profit,09/18/1990,36.782674,-119.794492
308,051573,HOSPICE OF SAN JOAQUIN,3888 PACIFIC AVENUE,,STOCKTON,CA,95204,San Joaquin,(209) 957-3888,9,Non-Profit,09/20/1990,37.976342,-121.313304
309,051574,SOUTHERN CALIFORNIA HOME HEALTH AND HOSPICE,730 MAGNOLIA AVENUE,,CORONA,CA,92879,Riverside,(951) 736-7200,9,For-Profit,09/20/1990,33.862352,-117.563857
310,051580,PATHWAYS HOME HEALTH AND HOSPICE,585 NORTH MARY AVENUE,,SUNNYVALE,CA,94085,Santa Clara,(408) 730-5900,9,Non-Profit,06/24/1991,37.385784,-122.026323
311,051581,PARADISE HOSPICE,1289 BILLE ROAD,,PARADISE,CA,95969,Butte,(530) 877-8755,9,Non-Profit,04/19/1991,39.881381,-121.622101
312,051582,KAISER FOUNDATION HOSPITAL HOSPICE-SAN FRANCISCO,"4131 GEARY BOULEVARD, 3RD FLOOR",,SAN FRANCISCO,CA,94118,San Francisco,(415) 666-1080,9,Other,07/05/1991,37.727239,-123.032229
313,051585,VNA OF ORANGE COUNTY LLC - HOSPICE,"2520 RED HILL AVENUE, SUITE 100A",,SANTA ANA,CA,92705,Orange,(714) 771-1209,9,For-Profit,02/14/1992,33.736478000000005,-117.882593
314,051589,KAISER FOUNDATION HOSPITAL HOSPICE-SANTA CLARA,2610 AUGUSTINE DRIVE,,SANTA CLARA,CA,95054,Santa Clara,(408) 342-6699,9,Other,06/22/1992,37.364613,-121.967934
315,051590,VITAS HEALTHCARE CORPORATION OF CALIFORNIA,"7888 MISSION GROVE PARKWAY S, SUITE 200",,RIVERSIDE,CA,92508,Riverside,(909) 386-6000,9,For-Profit,07/02/1992,33.938143,-117.393168
316,051592,MARIAN HOSPICE,504/506 E PLAZA DR,,SANTA MARIA,CA,93454,Santa Barbara,(805) 739-3830,9,Other,09/10/1992,34.890679,-120.376529
317,051593,GENTIVA HOSPICE,735 CARNEGIE DRIVE SUITE 240,,SAN BERNARDINO,CA,92408,San Bernardino,(909) 888-5000,9,For-Profit,09/03/1992,34.139261,-117.295317
318,051595,MEMORIALCARE HOSPICE AND PALLIATIVE SERVICES,"24411 HEALTH CENTER DR, SUITE 400",,LAGUNA HILLS,CA,92653,Orange,(949) 460-1500,9,Non-Profit,09/03/1992,33.591522999999995,-117.699407
319,051597,VITAS HEALTHCARE CORPORATION OF CALIFORNIA,"9655 GRANITE RIDGE DRIVE, SUITE 300",,SAN DIEGO,CA,92123,San Diego,(619) 280-2273,9,For-Profit,11/13/1992,32.8153,-117.134993
320,051598,SHARP HOSPICECARE,8881 FLETCHER PARKWAY STE 336,,LA MESA,CA,91942,San Diego,(619) 667-1900,9,Non-Profit,12/10/1992,32.769495,-117.021923
321,051600,MERCY HOSPICE,"9912 BUSINESS PARK DRIVE, SUITE 100",,SACRAMENTO,CA,95827,Sacramento,(916) 281-3900,9,Non-Profit,02/04/1993,38.566592,-121.468632
322,051601,HOPE HOSPICE,"6377 CLARK AVENUE, SUITE 100",,DUBLIN,CA,94568,Alameda,(925) 829-8770,9,Non-Profit,12/10/1992,37.714291,-121.901317
323,051602,VNA CALIFORNIA,6235 RIVER CREST DRIVE,,RIVERSIDE,CA,92507,Riverside,(951) 413-1270,9,Non-Profit,12/16/1992,33.938143,-117.393168
324,051603,SEASONS HOSPICE  &  PALLIATIVE CARE OF CALIFORNIA,"750 THE CITY DRIVE SOUTH, SUITE 120",,ORANGE,CA,92868,Orange,(877) 508-0644,9,For-Profit,03/24/1993,33.804843,-117.824876
325,051608,VITAS HEALTHCARE CORP,1343 N GRAND AVENUE,,COVINA,CA,91724,Los Angeles,(626) 918-2273,9,For-Profit,11/29/1993,34.055941,-117.909937
326,051609,HOSPICE OF THE SIERRA,20100 CEDAR ROAD NORTH,,SONORA,CA,95370,Tuolumne,(209) 532-7166,9,Non-Profit,05/27/1993,37.950608,-120.323357
327,051611,PEC HOSPICE,10507 GARDEN GROVE BLVD,,GARDEN GROVE,CA,92843,Orange,(714) 590-3620,9,For-Profit,08/10/1993,33.778782,-117.960472
328,051614,COVENANT CARE HOSPICE,1850 COLORADO AVENUE,,TURLOCK,CA,95382,Stanislaus,(209) 664-2550,9,Non-Profit,08/09/1993,37.498548,-120.863989
329,051615,TORRANCE MEMORIAL HOSPICE,23326 HAWTHORNE BLVD SUITE 100 B,,TORRANCE,CA,90505,Los Angeles,(310) 784-3751,9,Non-Profit,06/10/1993,33.834965999999994,-118.341431
330,051617,COMPASSUS - ORANGE COUNTY,"377 E CHAPMAN AVENUE, STE 280",,PLACENTIA,CA,92870,Orange,(714) 577-9656,9,For-Profit,11/16/1993,33.881158,-117.854783
331,051619,YOLO HOSPICE,"1909 GALILEO COURT, SUITE A",,DAVIS,CA,95616,Yolo,(530) 758-5566,9,Non-Profit,03/07/1994,38.556075,-121.701323
332,051624,FREMONT-RIDEOUT HOME HLTH/VALLEY HOSPICE,939 LIVE OAK BLVD,,YUBA CITY,CA,95991,Sutter,(530) 790-3006,9,For-Profit,04/26/1994,39.133855,-121.639031
333,051629,HOSPICE OF THE FOOTHILLS,11270 ROUGH AND READY HIGHWAY,,GRASS VALLEY,CA,95945,Nevada,(530) 272-5739,9,Non-Profit,08/03/1994,39.171284,-121.071777
334,051632,SUTTER AUBURN FAITH VNA  &  HOSPICE-HOSPICE,"11775 EDUCATION STREET, SUITE 201",,AUBURN,CA,95602,Placer,(530) 886-6650,9,Other,08/18/1994,38.893294,-120.977277
335,051634,ASSISTED HOME HOSPICE,"8550 BALBOA BLVD, STE 282",,NORTHRIDGE,CA,91325,Los Angeles,(805) 371-7306,9,For-Profit,07/18/1994,34.184617,-118.944354
336,051637,COMPANION HOSPICE,2041 W ORANGEWOOD AVENUE,,ORANGE,CA,92868,Orange,(714) 560-8177,9,For-Profit,11/09/1994,33.804843,-117.824876
337,051645,MERCY HOSPICE,1544 MARKET STREET,,REDDING,CA,96001,Shasta,(530) 245-4070,9,For-Profit,10/20/1994,40.559566,-122.342157
338,051646,HOFFMANN HOSPICE,"8501 BRIMHALL ROAD, BUILDING 100",,BAKERSFIELD,CA,93312,Kern,(661) 410-1010,9,Non-Profit,01/25/1995,35.321213,-119.018291
339,051647,HOSPICE BY THE SEA,"312 S CEDROS, SUITE 250",,SOLANA BEACH,CA,92075,San Diego,(858) 794-0195,9,For-Profit,12/03/1994,32.991496999999995,-117.258042
340,051649,PHOENIX HOSPICE,100 SAN HEDRIN CIRCLE,,WILLITS,CA,95490,Mendocino,(707) 459-1818,9,For-Profit,04/06/1995,39.445716,-123.364238
341,051650,HOSPICE OF AMADOR  &  CALAVERAS,"1500 SOUTH HIGHWAY 49, # 205",,JACKSON,CA,95642,Amador,(209) 223-5500,9,Non-Profit,02/23/1995,38.329628,-120.788434
342,051651,NORTH BAY HOSPICE  &  BEREAVEMENT,"4520 BUSINESS CENTER DRIVE, #160",,FAIRFIELD,CA,94534,Solano,(707) 646-3595,9,Other,05/10/1995,38.256757,-122.039719
343,051652,SUTTER VISITING NURSE ASSOCIATION AND HOSPICE,"3001 LAVA RIDGE COURT, SUITE 330B",,ROSEVILLE,CA,95661,Placer,(916) 797-7850,9,Other,02/01/1995,38.765743,-121.303159
344,051656,VITAS HEALTHCARE CORP,16830 VENTURA BLVD #315,,ENCINO,CA,91436,Los Angeles,(818) 760-2273,9,For-Profit,06/06/1995,34.019394,-118.410825
345,051657,"MADRONE HOSPICE, INC",255 COLLIER CIRCLE,,YREKA,CA,96097,Siskiyou,(530) 842-3160,9,Non-Profit,06/28/1995,41.724033,-122.63157
346,051659,ST JOSEPH HEALTH SYS HOME CARE SERVICES - HOSPICE,"200 W CENTER STREET PROMENADE, SUITE 200B",,ANAHEIM,CA,92805,Orange,(714) 712-9559,9,For-Profit,08/03/1995,33.855497,-117.760071
347,051661,HOSPICE CARE OF CALIFORNIA,"14241 E FIRESTONE BLVD, SUITE 10",,LA MIRADA,CA,90638,Los Angeles,(562) 407-9356,9,For-Profit,08/22/1995,33.902045,-118.008961
348,051662,ASERACARE HOSPICE,"2529 W MARCH LANE, SUITE 101",,STOCKTON,CA,95207,San Joaquin,(925) 798-5791,9,For-Profit,08/04/1995,37.976342,-121.313304
349,051663,TENDER LOVING CARE HOME HOSPICE,5400 ATLANTIS COURT,,MOORPARK,CA,93021,Ventura,(805) 517-1620,9,For-Profit,09/26/1995,34.310974,-118.849552
350,051665,"MISSION HOSPICE  &  HOME CARE, INC.","1670 SOUTH AMPHLETT BLVD., SUITE 300",,SAN MATEO,CA,94402,San Mateo,(650) 554-1000,9,Non-Profit,10/12/1995,37.56031,-122.3106
351,051666,ENLOE MEDICAL CENTER HOSPICE,1390 E LASSEN AVE,,CHICO,CA,95973,Butte,(530) 332-6060,9,Non-Profit,10/03/1995,39.755159,-121.818797
352,051667,SELF-HELP HOME CARE  &  HOSPICE,"731 SANSOME STREET, SUITE 100",,SAN FRANCISCO,CA,94111,San Francisco,(415) 982-9171,9,Non-Profit,09/27/1995,37.727239,-123.032229
353,051668,ANGELES VISTA HOSPICE,"8501 WILSHIRE BLVD, SUITE 336",,BEVERLY HILLS,CA,90211,Los Angeles,(310) 933-6886,9,For-Profit,10/31/1995,34.079229999999995,-118.402437
354,051669,JOHN C FREMONT HEALTHCARE DISTRICT HOSPICE,"5108 HWY 140, STE C",,MARIPOSA,CA,95338,Mariposa,(209) 966-3631,9,Other,10/25/1995,37.464995,-119.995226
355,051670,ADVENTIST HEALTH HOME CARE AND HOSPICE SERVICES,440 GREENFIELD AVENUE SUITE B,,HANFORD,CA,93230,Kings,(559) 585-3425,9,Non-Profit,09/29/1995,36.392894,-119.598371
356,051687,MISSION HOSPICE,2555 EAST COLORADO BLVD SUITE 301,,PASADENA,CA,91107,Los Angeles,(626) 799-2727,9,For-Profit,01/18/1996,34.160592,-118.139593
357,051689,CROSSROADS HOME HEALTH  &  HOSPICE,"1109 VICENTE STREET, SUITE 101",,SAN FRANCISCO,CA,94116,San Francisco,(415) 682-2111,9,For-Profit,06/19/1996,37.727239,-123.032229
358,051690,HEARTLAND HOSPICE SERVICES,"2005 DE LA CRUZ BOULEVARD, SUITE 271",,SANTA CLARA,CA,95050,Santa Clara,(408) 450-7850,9,For-Profit,05/13/1996,37.364613,-121.967934
359,051692,HEARTLAND HOSPICE SERVICES,"2511 GARDEN ROAD, SUITE A-250",,MONTEREY,CA,93940,Monterey,(831) 373-8442,9,For-Profit,05/09/1996,36.635201,-121.926145
360,051693,GENTIVA HOSPICE,"2055 GATEWAY PLACE, SUITE 600",,SAN JOSE,CA,95110,Santa Clara,(408) 626-4868,9,For-Profit,06/12/1996,37.296867,-121.819306
361,051696,HEARTLAND HOSPICE SERVICES,"2455 BENNETT VALLEY ROAD, SUITE B-214",,SANTA ROSA,CA,95404,Sonoma,(707) 523-0111,9,Other,07/19/1996,33.621393,-116.208711
362,051705,HOSPICE OF IMPERIAL VALLEY,137 SOUTH 8TH STREET,,EL CENTRO,CA,92243,Imperial,(760) 352-8905,9,For-Profit,03/21/1997,32.787325,-115.558006
363,051708,COMMUNITY HOSPICE OF VICTOR VALLEY,16147 KAMANA ROAD,,APPLE VALLEY,CA,92307,San Bernardino,(760) 946-4730,9,Non-Profit,05/13/1997,34.533376000000004,-117.210358
364,051711,BARTON HEALTHCARE SYSTEM HOSPICE,2092 LAKE TAHOE BLVD SUITE 500,,SOUTH LAKE TAHOE,CA,96150,El Dorado,(530) 543-5581,9,Non-Profit,07/11/1997,38.907677,-120.030566
365,051713,"CENTRAL COAST VNA  &  HOSPICE, INC",45 PLAZA CIRCLE,,SALINAS,CA,93901,Monterey,(831) 758-4200,9,Non-Profit,02/12/1998,36.690182,-121.63371399999998
366,051714,HOSPICE OF THE VALLEYS,25240 HANCOCK AVENUE #120,,MURRIETA,CA,92562,Riverside,(951) 200-7800,9,Non-Profit,03/05/1998,33.571887,-117.19066200000002
367,051716,GENTIVA  HOSPICE,"36947 COOK STREET, BUILDING 10, SUITE 102",,PALM DESERT,CA,92211,Riverside,(760) 346-2816,9,For-Profit,02/13/1998,33.738363,-116.363619
368,051717,GENTIVA HOSPICE,9444 BALBOA AVENUE SUITE 290,,SAN DIEGO,CA,92123,San Diego,(858) 565-2499,9,Other,04/24/1998,32.8153,-117.134993
369,051718,"MILESTONE HOSPICE, INC",1500 CRENSHAW BLVD SUITE 200,,TORRANCE,CA,90501,Los Angeles,(310) 782-1177,9,For-Profit,05/06/1998,33.834965999999994,-118.341431
370,051719,ROZE ROOM HOSPICE,"5000 OVERLAND AVENUE, STE 101",,CULVER CITY,CA,90230,Los Angeles,(310) 202-7693,9,For-Profit,06/26/1998,34.00582,-118.396781
371,051721,FIRST CALL HOME CARE - HOSPICE,"6929 SUNRISE BLVD, SUITE 180",,CITRUS HEIGHTS,CA,95610,Sacramento,(916) 725-2580,9,For-Profit,07/14/1998,38.694778,-121.287993
372,051725,OPTIMAL HOSPICE CARE,"1675 CHESTER AVENUE, SUITE 401",,BAKERSFIELD,CA,93301,Kern,(661) 716-4000,9,For-Profit,11/12/1998,35.412776,-118.961962
373,051728,HI-DESERT HOME HEALTH SERVICES-HOSPICE,63484 CHICKASAW,,JOSHUA TREE,CA,92252,San Bernardino,(760) 366-6443,9,Other,03/12/1999,34.122471000000004,-116.313663
374,051731,HOMEREACH HOSPICE,"2250 OBISPO AVE, SUITE 101",,SIGNAL HILL,CA,90755,Los Angeles,(562) 424-9405,9,For-Profit,06/02/1999,33.803448,-118.168135
375,051732,TAHOE FOREST HOSPICE,10985 SPRING LANE,,TRUCKEE,CA,96162,Nevada,(530) 582-6653,9,Non-Profit,07/23/1999,39.353426,-120.193364
376,051733,HOSPICE OF THE NORTH COAST,"2525 PIO PICO DRIVE, SUITE 301",,CARLSBAD,CA,92008,San Diego,(760) 431-4100,9,Non-Profit,07/22/1999,33.123909000000005,-117.282835
377,051736,MERCY HOSPICE MT SHASTA,914 PINE STREET,,MOUNT SHASTA,CA,96067,Siskiyou,(530) 926-6111,9,Non-Profit,10/21/1999,41.344173,-122.333271
378,051737,PROCARE HOSPICE,42442 NORTH 10TH STREET WEST SUITE E,,LANCASTER,CA,93534,Los Angeles,(661) 951-1146,9,Other,10/21/1999,34.693558,-118.175305
379,051738,INTERMOUNTAIN HOSPICE,43563 HIGHWAY 299 EAST,,FALL RIVER MILLS,CA,96028,Shasta,(530) 336-5511,9,Government,11/17/1999,41.007241,-121.441134
380,051739,VITAS HEALTHCARE CORPORATION OF CALIFORNIA,"990 W 190TH STREET, SUITE 550",,TORRANCE,CA,90502,Los Angeles,(310) 324-2273,9,For-Profit,03/16/2000,33.834965999999994,-118.341431
381,051740,GENTIVA HOSPICE,"5001 EAST COMMERCE CENTER DRIVE, SUITE 140",,BAKERSFIELD,CA,93309,Kern,(661) 324-1232,9,For-Profit,05/10/2000,35.321213,-119.018291
382,051741,HEARTLAND HOME HEALTH CARE AND HOSPICE,"725 W TOWN  &  COUNTRY ROAD, SUITE 130",,ORANGE,CA,92868,Orange,(714) 558-2366,9,For-Profit,09/14/2000,33.804843,-117.824876
383,051743,ASSISTED HOME HOSPICE,"4450 WESTINGHOUSE STREET, SUITE #103",,VENTURA,CA,93003,Ventura,(805) 677-7400,9,For-Profit,10/10/2000,34.268127,-119.255025
384,051744,"ST LIZ HOSPICE, INC",2535 W TEMPLE STREET SUITE A,,LOS ANGELES,CA,90026,Los Angeles,(213) 365-6499,9,For-Profit,05/18/2001,34.019394,-118.410825
385,051746,VITAS HEALTHCARE CORPORATION OF CALIFORNIA,"670 N MCCARTHY BOULEVARD, SUITE 220",,MILPITAS,CA,95035,Santa Clara,(408) 964-6800,9,For-Profit,02/14/2002,37.436611,-121.891322
386,051747,"PEREGRINE HOSPICE, INC",3440 WEST CARSON STREET SUITE 301,,TORRANCE,CA,90503,Los Angeles,(310) 371-3080,9,For-Profit,02/28/2002,33.83045300000001,-118.356618
387,051748,KAWEAH DELTA HOSPICE,623 WEST WILLOW AVENUE,,VISALIA,CA,93291,Tulare,(559) 733-0642,9,Other,05/16/2002,36.358346,-119.346797
388,051749,"ASIAN NETWORK HOSPICE, INC","212 9TH STREET, SUITE 204",,OAKLAND,CA,94607,Alameda,(510) 268-1118,9,For-Profit,05/23/2002,37.769857,-122.22563999999998
389,051750,"COMPANION HOSPICE CARE, LLC","8130 FLORENCE AVE, SUITE 200",,DOWNEY,CA,90240,Los Angeles,(562) 944-2711,9,For-Profit,05/24/2002,33.938237,-118.130856
390,051751,SUTTER NORTH HOSPICE,400 PLUMAS BLVD SUITE 115A,,YUBA CITY,CA,95991,Sutter,(530) 749-3510,9,For-Profit,06/25/2002,39.133855,-121.639031
391,051752,SUTTER VISITING NURSE ASSOCIATION AND HOSPICE,"700 S CLAREMONT STREET, #220",,SAN MATEO,CA,94402,San Mateo,(650) 685-2830,9,Non-Profit,10/30/2002,37.49393900000001,-122.239919
392,051755,PROCARE HOSPICE CORP,10200 SEPULVEDA BLVD SUITE 145,,MISSION HILLS,CA,91345,Los Angeles,(818) 780-1676,9,For-Profit,01/09/2003,34.688779,-120.43975
393,051757,HOSPICE TOUCH INC - SANTA ANA,"3401 WEST SUNFLOWER AVE, STE 100",,SANTA ANA,CA,92704,Orange,(888) 327-1936,9,For-Profit,05/21/2003,33.736478000000005,-117.882593
394,051758,ALL CARE HOSPICE,"100 W BROADWAY AVENUE, SUITE 810",,GLENDALE,CA,91210,Los Angeles,(818) 241-9120,9,For-Profit,04/02/2003,34.181393,-118.24583
395,051759,ROZE ROOM HOSPICE OF THE VALLEY,15315 MAGNOLIA BLVD SUITE 101,,SHERMAN OAKS,CA,91403,Los Angeles,(818) 783-1002,9,For-Profit,04/24/2003,34.591316,-118.109001
396,051760,HAVEN HOSPICE,2855 TEMPLE AVENUE,,SIGNAL HILL,CA,90755,Los Angeles,(562) 426-7500,9,For-Profit,05/10/2003,33.803448,-118.168135
397,051761,SUTTER VISITING NURSE ASSOCIATION AND HOSPICE,"110 STONY POINT ROAD, SUITE 200C",,SANTA ROSA,CA,95401,Sonoma,(707) 542-5045,9,Non-Profit,06/20/2003,38.446816,-122.706136
398,051762,COMMUNITY CARE HOSPICE,222 W FOOTHILL BLVD,,GLENDORA,CA,91741,Los Angeles,(626) 335-9759,9,For-Profit,05/26/2003,34.145433000000004,-117.846961
399,051763,LIGHTBRIDGE HOSPICE,"6155 CORNERSTONE COURT EAST, #220",,SAN DIEGO,CA,92121,San Diego,(858) 458-2992,9,For-Profit,08/06/2003,32.8153,-117.134993
400,051765,SERENITY HOSPICE CARE,1420 N CLAREMONT BLVD #101A,,CLAREMONT,CA,91711,Los Angeles,(800) 919-6419,9,For-Profit,11/08/2003,34.125192,-117.713725
401,051766,LA HOSPICE,685 S CARONDELET ST 2ND FLOOR,,LOS ANGELES,CA,90057,Los Angeles,(213) 351-1030,9,For-Profit,12/23/2003,34.019394,-118.410825
402,051767,COMPASSUS HOSPICE COLTON,"1461 EAST COOLEY DRIVE, #220",,COLTON,CA,92324,San Bernardino,(909) 872-8100,9,For-Profit,01/29/2004,34.05455300000001,-117.325031
403,051768,PACIFIC HOSPICE CARE CORPORATION,4520 WILSHIRE BOULEVARD SUITE 101,,LOS ANGELES,CA,90010,Los Angeles,(213) 382-3835,9,For-Profit,11/06/2003,34.019394,-118.410825
404,051769,OPTIMAL HOSPICE CARE,"6780 NORTH WEST AVENUE, SUITE 101",,FRESNO,CA,93711,Fresno,(559) 320-4000,9,For-Profit,07/15/2004,36.782674,-119.794492
405,051770,VITAS HEALTHCARE CORPORATION OF CALIFORNIA,"355 LENNON LANE, SUITE 150",,WALNUT CREEK,CA,94598,Contra Costa,(866) 548-4821,9,For-Profit,08/17/2004,37.902666,-122.040479
406,051771,SILVERADO HOSPICE INC,"6400 OAK CANYON DRIVE, SUITE 150",,IRVINE,CA,92618,Orange,(949) 240-7744,9,For-Profit,04/15/2004,33.678399,-117.771254
407,051772,VERDUGO HOSPICE CARE CENTER,4170 VERDUGO ROAD,,LOS ANGELES,CA,90065,Los Angeles,(323) 257-5715,9,For-Profit,02/25/2004,34.019394,-118.410825
408,051773,ONE CARE HOSPICE,"3350 SHELBY STREET, SUITE 370 A",,ONTARIO,CA,91764,San Bernardino,(909) 784-3600,9,For-Profit,07/19/2004,34.038852,-117.648312
409,051774,"HOPE INTERNATIONAL HOSPICE, INC.",20705 SOUTH WESTERN AVENUE SUITE 112,,TORRANCE,CA,90501,Los Angeles,(310) 378-7070,9,For-Profit,04/30/2004,33.834965999999994,-118.341431
410,051775,PACIFIC HOSPICE,1998 N ARROWHEAD AVENUE,,SAN BERNARDINO,CA,92405,San Bernardino,(909) 882-8466,9,For-Profit,09/10/2004,34.139261,-117.295317
411,051777,COMPASSUS HOSPICE ANAHEIM,"505 N EUCLID ST, SUITE 480",,ANAHEIM,CA,92801,Orange,(800) 405-1159,9,Other,11/19/2004,33.855497,-117.760071
412,051778,SKIRBALL HOSPICE,"6345 BALBOA BLVD., SUITE 315",,ENCINO,CA,91316,Los Angeles,(818) 774-3040,9,For-Profit,09/01/2004,34.019394,-118.410825
413,051779,VITAS HEALTHCARE CORPORATION OF CALIFORNIA,"2710 GATEWAY OAKS DRIVE, SUITE 100 SOUTH",,SACRAMENTO,CA,95833,Sacramento,(866) 554-4827,9,For-Profit,11/12/2004,38.566592,-121.468632
414,051780,SUNRISE HOSPICE CARE CORPORATION,"970 N TUSTIN AVE, SUITE 101",,ANAHEIM,CA,92807,Orange,(714) 970-0081,9,For-Profit,10/26/2004,33.855497,-117.760071
415,051782,HOSPICE ANGELS,408 S ROSEMEAD BLVD #5,,PASADENA,CA,91107,Los Angeles,(626) 398-0195,9,For-Profit,12/20/2004,34.160592,-118.139593
416,051783,"ANGELS OF THE VALLEY HOSPICE CARE, LLC","2600 FOOTHILL BLVD, STE 202",,LA CRESCENTA,CA,91214,Los Angeles,(818) 542-3070,9,For-Profit,02/25/2005,34.233016,-118.235774
417,051784,"ASSURANCE HOSPICE, INC","40 N ALTADENA DRIVE, SUITE 102",,PASADENA,CA,91107,Los Angeles,(626) 793-3374,9,For-Profit,04/01/2005,34.108957000000004,-118.156615
418,051786,SILVERADO HOSPICE - VENTURA COUNTY,"4520 EAST THOUSAND OAKS BLVD, SUITE 100",,THOUSAND OAKS,CA,91362,Ventura,(888) 328-6636,9,For-Profit,11/08/2005,34.193290000000005,-118.874235
419,051787,BUENA VISTA HOSPICE,143 TRIUNFO CANYON RD STE 103,,WESTLAKE VILLAGE,CA,91361,Ventura,(805) 777-1133,9,For-Profit,11/10/2005,34.019394,-118.410825
420,051788,"NEW HAVEN HOSPICE CARE, INC","1700 E LINCOLN AVENUE, SUITE 202",,ANAHEIM,CA,92805,Orange,(714) 774-2498,9,For-Profit,09/24/2005,33.855497,-117.760071
421,051790,SEASONS HOSPICE  &  PALLIATIVE CARE OF CALIFORNIA,"320  W ARDEN  AVE, SUITE 100",,GLENDALE,CA,91203,Los Angeles,(866) 278-7500,9,For-Profit,02/17/2006,34.181393,-118.24583
422,051791,AVALON HOSPICE  &  PALLIATIVE CARE,"3914 MURPHY CANYON ROAD, SUITE A226",,SAN DIEGO,CA,92123,San Diego,(858) 751-0315,9,For-Profit,04/03/2006,32.8153,-117.134993
423,051792,ASCEND HOSPICE,"7344 MAGNOLIA AVE, STE 245",,RIVERSIDE,CA,92504,Riverside,(951) 353-8006,9,For-Profit,11/18/2005,33.938143,-117.393168
424,051793,OPTIMAL HOSPICE CARE,"3461 BROOKSIDE ROAD, SUITE A-2",,STOCKTON,CA,95219,San Joaquin,(209) 670-8000,9,For-Profit,09/06/2006,37.976342,-121.313304
425,051794,"GRACE HOSPICE, INC","1711 WEST TEMPLE STREET, SUITE 3614",,LOS ANGELES,CA,90026,Los Angeles,(213) 989-1600,9,For-Profit,05/18/2006,34.019394,-118.410825
426,051795,ROZE ROOM HOSPICE OF VENTURA,5675 RALSTON ST STE C,,VENTURA,CA,93003,Ventura,(805) 654-0191,9,For-Profit,09/14/2006,34.268127,-119.255025
427,051796,INTERIM HEALTHCARE HOSPICE,970 EXECUTIVE WAY,,REDDING,CA,96002,Shasta,(530) 221-1212,9,For-Profit,10/06/2006,40.567432,-122.364827
428,051797,"COMPANION HOSPICE, LLC","4199 FLAT ROCK DRIVE, SUITE 200",,RIVERSIDE,CA,92505,Riverside,(951) 371-4274,9,Other,10/20/2006,33.938143,-117.393168
429,051798,FAMILY HOSPICE CARE LLC,"255 NORTH EL CIELO ROAD, SUITE #300",,PALM SPRINGS,CA,92262,Riverside,(760) 674-3344,9,Other,11/01/2006,33.800898,-116.537993
430,051799,CHARTER HOSPICE,"1012 EAST COOLEY DRIVE, SUITE G",,COLTON,CA,92324,San Bernardino,(909) 825-2969,9,For-Profit,10/16/2006,34.05455300000001,-117.325031
431,061500,"PIKES PEAK HOSPICE AND PALLIATIVE CARE, INC",2550 TENDERFOOT HILL STREET,,COLORADO SPRINGS,CO,80906,El Paso,(719) 633-3400,8,Non-Profit,11/03/1983,38.867255,-104.760749
432,061501,TRU COMMUNITY CARE - LAFAYETTE,2594 TRAILRIDGE DRIVE EAST,,LAFAYETTE,CO,80026,Boulder,(303) 449-7740,8,Non-Profit,12/29/1983,39.994814,-105.099676
433,061503,HOSPICE AND PALLIATIVE CARE OF NORTHERN COLORADO,2726 W 11TH STREET ROAD,,GREELEY,CO,80634,Weld,(970) 352-8487,8,Non-Profit,01/03/1984,40.414406,-104.771245
434,061504,DENVER HOSPICE THE,501 SOUTH CHERRY STREET #700,,DENVER,CO,80246,Arapahoe,(303) 321-2828,8,Non-Profit,07/17/1984,39.761849,-104.880625
435,061505,LAMAR AREA HOSPICE ASSOCIATION,108 WEST OLIVE ST,,LAMAR,CO,81052,Prowers,(719) 336-2100,8,Other,08/03/1984,38.136827,-102.61908
436,061506,ST ANTHONY HOSPICE,"61 INVERNESS DR. EAST, SUITE 200",,ENGLEWOOD,CO,80112,Arapahoe,(303) 561-5100,8,For-Profit,02/01/1985,39.646876,-104.994129
437,061507,PROSPECT HOME CARE HOSPICE INC,"16222 W HIGHWAY 24, SUITE 120",,WOODLAND PARK,CO,80863,Teller,(719) 687-0549,8,Non-Profit,06/25/1985,38.999063,-105.059302
438,061508,LUTHERAN MEDICAL CENTER HOSPICE,3210 LUTHERAN PARKWAY,,WHEAT RIDGE,CO,80033,Jefferson,(303) 425-8000,8,Other,07/12/1985,39.772326,-105.103009
439,061509,"MT EVANS HOSPICE, INC",3081 BERGEN PEAK DRIVE,,EVERGREEN,CO,80439,Jefferson,(303) 674-6400,8,Non-Profit,06/06/1985,39.634695,-105.338667
440,061510,SANGRE DE CRISTO HOSPICE AND PALLIATIVE CARE,1207 PUEBLO BLVD WAY,,PUEBLO,CO,81005,Pueblo,(719) 542-0032,8,Non-Profit,08/15/1985,38.273147,-104.612378
441,061511,"HOSPICE DEL VALLE, INC.",514 MAIN STREET,,ALAMOSA,CO,81101,Alamosa,(719) 589-9019,8,Non-Profit,01/06/1986,37.469217,-105.828978
442,061512,HOSPICE OF MERCY-DURANGO,"175 MERCADO STREET, SUITE 131",,DURANGO,CO,81301,La Plata,(970) 382-2000,8,For-Profit,06/06/1986,37.415304,-107.88101
443,061515,ARKANSAS VALLEY HOSPICE INC,531 LEWIS AVENUE,,LA JUNTA,CO,81050,Otero,(719) 384-8827,8,Other,11/18/1986,37.974488,-103.593165
444,061516,PATHWAYS HOSPICE,305 CARPENTER ROAD,,FORT COLLINS,CO,80525,Larimer,(970) 663-3500,8,Non-Profit,11/26/1986,40.548216,-105.064833
445,061517,PORTER HOSPICE,"61 INVERNESS DRIVE EAST, SUITE 200",,ENGLEWOOD,CO,80112,Arapahoe,(303) 561-5100,8,For-Profit,02/20/1987,39.646876,-104.994129
446,061522,HOSPICE OF MONTEZUMA INC,1345 S BROADWAY,,CORTEZ,CO,81321,Montezuma,(970) 565-4400,8,Non-Profit,08/10/1989,37.373648,-108.71328
447,061523,HOSPICE OF THE ESTES VALLEY,555 PROSPECT AVE,,ESTES PARK,CO,80517,Larimer,(970) 586-2273,8,Government,09/22/1989,40.377117,-105.525514
448,061525,HEART OF THE ROCKIES HOME HEALTH AND HOSPICE,"301 OAK STREET, UNIT E",,SALIDA,CO,81201,Chaffee,(719) 539-7638,8,Other,06/07/1991,38.576781,-106.121224
449,061526,COLORADO VNA HOSPICE AND PALLIATIVE CARE,390 GRANT ST,,DENVER,CO,80203,Denver,(303) 698-2121,8,Non-Profit,03/27/1992,39.761849,-104.880625
450,061527,HOPEWEST GRAND JUNCTION,2754 COMPASS DRIVE STE 377,,GRAND JUNCTION,CO,81506,Mesa,(970) 241-2212,8,Non-Profit,04/29/1993,39.086366,-108.568747
451,061530,BACA COUNTY HOSPICE,200 EAST 10TH AVENUE,,SPRINGFIELD,CO,81073,Baca,(719) 523-4057,8,Government,06/03/1994,37.420834,-102.605311
452,061531,KINDRED HOSPICE,"5755 MARK DABLING BLVD, SUITE 375",,COLORADO SPRINGS,CO,80919,El Paso,(719) 573-4166,8,For-Profit,09/06/1994,38.867255,-104.760749
453,061532,NORTHWEST COLORADO HEALTH,480 ROLLINGSTONE DRIVE,,STEAMBOAT SPRINGS,CO,80487,Routt,(970) 879-1632,8,Non-Profit,10/05/1994,40.475751,-106.823318
454,061537,GUNNISON VALLEY HEALTH HOSPICE AND PALLIATIVE CARE,120 NORTH BOULEVARD,,GUNNISON,CO,81230,Gunnison,(970) 641-0704,8,Other,05/17/1996,38.544537,-106.928354
455,061538,HOSPICE OF THE PLAINS INC,1017 W 7TH STREET,,WRAY,CO,80758,Yuma,(970) 332-4116,8,Non-Profit,11/08/1996,40.079953,-102.228622
456,061540,COMPASSUS DENVER,6455 S YOSEMITE STREET 6TH FLOOR,,ENGLEWOOD,CO,80111,Arapahoe,(303) 714-2400,8,For-Profit,06/17/1997,39.646876,-104.994129
457,061543,CARING HANDS HOSPICE,286 16TH STREET,,BURLINGTON,CO,80807,Kit Carson,(719) 346-4860,8,Government,10/29/1997,39.307297,-102.211312
458,061544,KINDRED HOSPICE,4350 WADSWORTH BLVD STE 250,,WHEAT RIDGE,CO,80033,Jefferson,(303) 639-9243,8,For-Profit,11/14/1997,39.772326,-105.103009
459,061545,NAMASTE HOSPICE,6000 E EVANS SUITE 3-111,,DENVER,CO,80222,Denver,(303) 228-7783,8,For-Profit,09/01/1998,39.761849,-104.880625
460,061551,AGAPE HOSPICE SERVICES,6041 S SYRACUSE WAY #220,,GREENWOOD VILLAGE,CO,80111,Arapahoe,(720) 482-1988,8,For-Profit,08/13/2003,39.590568,-104.869118
461,061552,LINCOLN COMMUNITY HOME HEALTH AND HOSPICE,111 6TH STREET,,HUGO,CO,80821,Lincoln,(719) 743-2797,8,Government,06/08/2004,39.070683,-103.413853
462,061553,COMPASSUS GREATER COLORADO SPRINGS,1115 ELKTON DRIVE SUITE 301,,COLORADO SPRINGS,CO,80906,El Paso,(719) 226-0091,8,Other,04/16/2004,38.867255,-104.760749
463,061554,"FRONTIER HOSPICE, LLC","4718 N ELIZABETH ST, SUITE A",,PUEBLO,CO,81008,Pueblo,(719) 544-5891,8,For-Profit,03/01/2005,38.385809,-104.795882
464,061558,COMPASSUS-GREATER DENVER,2460 W 26TH AVENUE SUITE 300-C,,DENVER,CO,80211,Arapahoe,(720) 200-1036,8,For-Profit,03/14/2006,39.761849,-104.880625
465,061560,ACCENTCARE HOME HEALTH OF MOUNTAIN VALLEY LLC,1180 MAIN STREET SUITE 9,,WINDSOR,CO,80550,Weld,(800) 368-7137,8,For-Profit,12/19/2006,40.477555,-104.9168
466,061561,FRONT RANGE HOSPICE  &  PALLIATIVE CARE,3770 PURITAN WAY SUITE E,,FREDERICK,CO,80530,Weld,(303) 957-3101,8,For-Profit,01/19/2007,40.109325,-104.965283
467,061562,FREMONT REGIONAL HOSPICE,1439 MAIN STREET,,CANON CITY,CO,81212,Fremont,(719) 275-4315,8,Non-Profit,03/15/2007,38.811894,-106.107112
468,061563,COMPASSUS COLORADO SPRINGS,9945 FEDERAL DRIVE #100,,COLORADO SPRINGS,CO,80921,El Paso,(719) 265-1100,8,For-Profit,01/25/2007,38.867255,-104.760749
469,061564,HALCYON HOSPICE AND PALLIATIVE CARE,209 MAIN STREET,,MEAD,CO,80542,Weld,(303) 329-0870,8,Other,04/04/2008,40.229627,-104.988845
470,061567,HOSPICE OF THE VALLEY INC,1901 GRAND AVE SUITE 206,,GLENWOOD SPRINGS,CO,81601,Garfield,(970) 930-6008,8,For-Profit,05/27/2009,39.721548,-107.233738
471,061568,PINNACLE HOSPICE CARE,"2220 S FRASER STREET, UNIT 2",,AURORA,CO,80014,Arapahoe,(303) 344-0051,8,For-Profit,11/29/2009,39.775856,-104.705905
472,061569,COMPASSIONATE HOSPICE CARE LLC,11935 QUAY STREET,,BROOMFIELD,CO,80020,Boulder,(303) 465-0944,8,For-Profit,12/09/2010,39.95321,-105.051995
473,061570,NEW CENTURY HOSPICE OF DENVER,412 JERRY STREET,,CASTLE ROCK,CO,80104,Douglas,(303) 660-6107,8,For-Profit,05/06/2010,39.25480200000001,-104.904069
474,061571,HOSPICE OF COVENANTCARE,9101 HARLAN STREET  SUITE 135,,WESTMINSTER,CO,80031,Adams,(303) 487-1009,8,Non-Profit,06/24/2010,39.88219,-105.064426
475,061573,BROOKDALE HOSPICE DENVER,"5600 S QUEBEC STREET, STE 375C",,GREENWOOD VILLAGE,CO,80111,Arapahoe,(855) 219-0049,8,For-Profit,08/31/2011,39.590568,-104.869118
476,061576,SUNCREST HOSPICE LLC,777 E SPEER BLVD STE 200,,DENVER,CO,80203,Denver,(720) 941-5580,8,For-Profit,03/21/2012,39.761849,-104.880625
477,061577,INTERIM HEALTHCARE HOSPICE,1901 NORTH UNION BLVD #105,,COLORADO SPRINGS,CO,80909,El Paso,(719) 314-4868,8,For-Profit,07/26/2012,38.867255,-104.760749
478,061578,DIGNITY HOSPICE OF COLORADO LLC,14707 E 2ND AVENUE SUITE 220,,AURORA,CO,80011,Arapahoe,(720) 222-3315,8,For-Profit,10/16/2012,39.688002,-104.68974
479,061579,LIVING WATERS HOSPICE INC,301 HWY 24 N,,BUENA VISTA,CO,81211,Chaffee,(719) 395-3124,8,For-Profit,06/28/2012,38.973349,-106.381347
480,061582,AVIANT HOSPICE,7000 EAST BELLEVIEW AVENUE SUITE 370,,GREENWOOD VILLAGE,CO,80111,Arapahoe,(303) 953-7270,8,For-Profit,09/12/2013,39.590568,-104.869118
481,061583,NEW CENTURY HOSPICE OF COLORADO SPRINGS,1524 N HANCOCK AVENUE,,COLORADO SPRINGS,CO,80903,El Paso,(719) 330-6652,8,For-Profit,01/24/2014,38.867255,-104.760749
482,061584,ENCOMPASS HOSPICE OF COLORADO,4251 KIPLING STREET #405,,WHEAT RIDGE,CO,80033,Jefferson,(303) 940-9999,8,For-Profit,03/12/2014,39.772326,-105.103009
483,061585,BROOKDALE HOSPICE COLORADO SPRINGS,"7222 COMMERCE CENTER DRIVE, SUITE 100",,COLORADO SPRINGS,CO,80919,El Paso,(719) 268-2582,8,For-Profit,05/05/2014,38.867255,-104.760749
484,061586,GRACE HOSPICE,164 PRIMROSE CT  STE C,,LONGMONT,CO,80501,Boulder,(303) 848-2100,8,For-Profit,03/21/2014,40.169853,-105.101841
485,061587,HOSPICE CARE OF THE ROCKIES,6851 S HOLLY CIRCLE #110,,CENTENNIAL,CO,80112,Arapahoe,(303) 284-6846,8,Other,09/30/2014,39.590568,-104.869118
486,061588,ABODE HOSPICE OF COLORADO,445 UNION BLVD STE 223,,DENVER,CO,80228,Jefferson,(720) 353-4078,8,For-Profit,01/15/2015,39.761849,-104.880625
487,061589,AUBURN CREST HOSPICE NORTHERN COLORADO LLC,2680 ABARR DR UNIT 2,,LOVELAND,CO,80538,Larimer,(970) 775-7022,8,For-Profit,01/14/2015,40.41708,-105.061855
488,061590,ABODE HOSPICE OF COLORADO,1980 DOMINION WAY #101,,COLORADO SPRINGS,CO,80918,El Paso,(719) 358-6428,8,For-Profit,08/28/2015,38.867255,-104.760749
489,061591,DIVINE MERCY SUPPORTIVE CARE,"10200 E GIRARD AVE, SUITE D-140",,DENVER,CO,80231,Denver,(303) 357-2540,8,Non-Profit,12/16/2015,39.761849,-104.880625
490,061592,ELEVATION HOSPICE OF COLORADO,80 GARDEN CENTER SUITE 108,,BROOMFIELD,CO,80020,Boulder,(720) 608-2181,8,Other,04/13/2016,39.953382,-105.052125
491,061593,SEASONS HOSPICE AND PALLIATIVE CARE OF COLORADO LL,"9191 SHERIDAN BLVD, SUITE 103",,WESTMINSTER,CO,80031,Adams,(303) 428-3107,8,For-Profit,08/19/2016,39.88219,-105.064426
492,061594,BERKLEY PALLIATIVE CARE  &  HOSPICE LLC,10697 E DARTMOUTH AVE,,AURORA,CO,80014,Arapahoe,(303) 758-2000,8,Other,09/22/2016,39.688002,-104.68974
493,061595,VERACARE HOSPICE OF COLORADO SPRINGS LLC,5445 MARK DABLING BLVD SUITE 201,,COLORADO SPRINGS,CO,80918,El Paso,(719) 419-5595,8,For-Profit,12/13/2016,38.867255,-104.760749
494,071500,"CONNECTICUT HOSPICE INC, THE",100 DOUBLE BEACH ROAD,,BRANFORD,CT,06405,New Haven,(203) 315-7564,1,Non-Profit,10/01/1984,41.363839,-72.784868
495,071501,CARING HOSPICE SERVICES OF CONNECTICUT LLC,"456 GLENBROOK ROAD, SUITE 2",,STAMFORD,CT,06906,Fairfield,(203) 674-8380,1,For-Profit,09/12/1985,41.079857,-73.546028
496,071502,VISITING NURSE  &  HEALTH SERVICES OF CONNECTICUT,8 KEYNOTE DRIVE,,VERNON,CT,06066,Tolland,(203) 872-9163,1,Non-Profit,06/10/1987,41.837561,-72.45904
497,071504,DAY KIMBALL HOMECARE,320 POMFRET STREET,,PUTMAN,CT,06260,Windham,(860) 928-0422,1,Non-Profit,12/20/1988,41.806591,-71.884698
498,071505,VISITING NURSE SERVICES OF CT,765 FAIRFIELD AVENUE,,BRIDGEPORT,CT,06606,Fairfield,(203) 366-3821,1,Non-Profit,11/13/1989,41.187386,-73.195734
499,071506,CENTER FOR HOSPICE CARE SOUTHEAST CONNECTICUT INC,227 DUNHAM STREET,,NORWICH,CT,06360,New London,(860) 848-5699,1,Non-Profit,06/06/1990,41.54786,-72.089488
500,071507,HARTFORD HEALTHCARE AT HOME,"1 NORTHWESTERN DRIVE, SUITE 101",,BLOOMFIELD,CT,06002,Hartford,(860) 249-4862,1,Non-Profit,05/01/1991,41.84493,-72.740951
501,071510,"MASONICARE PARTNERS HOME HEALTH AND HOSPICE, INC","111 FOUNDER'S PLAZA, SUITE 200",,EAST HARTFORD,CT,06108,Hartford,(860) 528-2273,1,Non-Profit,01/06/1993,41.760695,-72.607646
502,071512,"VISITING NURSE  &  HOSPICE OF FAIRFIELD COUNTY, INC","761 MAIN AVENUE, SUITE 114",,NORWALK,CT,06851,Fairfield,(203) 762-8958,1,Non-Profit,06/21/1993,41.092739,-73.41979599999998
503,071515,FARMINGTON VALLEY VNA INC,8 OLD MILL LANE,,SIMBURY,CT,06070,Hartford,(860) 651-3539,1,Non-Profit,02/16/1994,41.949929,-73.44830300000002
504,071516,MASONICARE HOME HEALTH AND HOSPICE INC,33 NORTH PLAINS INDUSTRIAL ROAD,,WALLINGFORD,CT,06492,New Haven,(203) 679-5300,1,Non-Profit,02/14/1994,41.458657,-72.804516
505,071517,BRISTOL HOSPITAL HOME CARE AGENCY,222 MAIN STREET,,BRISTOL,CT,06010,Hartford,(860) 585-4752,1,Non-Profit,10/19/1994,41.681578,-72.940749
506,071518,REGIONAL HOSPICE AND HOME CARE OF WESTERN CT,30 MILESTONE ROAD,,DANBURY,CT,06810,Fairfield,(203) 702-7400,1,Non-Profit,03/31/1994,41.401839,-73.472285
507,071520,HOME  &  COMMUNITY HEALTH SERVICES INC,101 PHOENIX AVENUE,,ENFIELD,CT,06082,Hartford,(860) 763-7600,1,Non-Profit,07/19/1994,41.983993,-72.555553
508,071522,MIDDLESEX HOSPITAL HOMECARE,770 SAYBROOK ROAD,,MIDDLETOWN,CT,06457,Middlesex,(860) 358-5600,1,Non-Profit,10/12/1994,41.548611,-72.656784
509,071523,FOOTHILLS VISITING NURSE AND H,32 UNION STREET,,WINSTED,CT,06098,Litchfield,(203) 379-8561,1,Non-Profit,01/26/1995,41.926987,-73.066502
510,071524,MCLEAN HOME CARE AND HOSPICE,75 GREAT POND ROAD,,SIMSBURY,CT,06070,Hartford,(860) 658-3700,1,Non-Profit,01/05/1995,41.874765,-72.84490600000002
511,071527,NEW MILFORD VNA INC,68 PARK LANE ROAD,,NEW MILFORD,CT,06776,Litchfield,(203) 354-2216,1,Non-Profit,04/19/1995,41.601266,-73.42280699999998
512,071528,GREENWICH HOSPITAL HOME CARE DEPARTMENT,"500 WEST PUTNAM AVENUE, SUITE 150",,GREENWICH,CT,06830,Fairfield,(203) 863-3883,1,Non-Profit,03/06/1996,41.020151,-73.569106
513,071530,"FRANCISCAN FAMILY CARE CENTER,",267 FINCH AVENUE,,MERIDEN,CT,06451,New Haven,(203) 238-1441,1,Non-Profit,10/18/1996,41.536777,-72.794543
514,071532,"VNA NORTHWEST, INC","607 BANTAM ROAD, UNIT F",,BANTAM,CT,06750,Litchfield,(860) 567-6000,1,Non-Profit,05/16/2005,41.724745,-73.242263
515,071533,VITAS HEALTHCARE CORPORATION,"199 PARK ROAD EXT, SUITE 102",,MIDDLEBURY,CT,06762,New Haven,(203) 437-3111,1,For-Profit,03/29/2005,41.524691,-73.123016
516,071535,SALISBURY VISITING NURSE ASSOCIATION,30 A SALMON KILL ROAD,,SALISBURY,CT,06068,Litchfield,(203) 435-0816,1,Non-Profit,12/08/2005,41.986226,-73.425273
517,071536,COMPASSUS - GREATER CONNECTICUT,"109 BOSTON POST ROAD, SUITE 202-203",,ORANGE,CT,06477,New Haven,(203) 301-0489,1,For-Profit,09/15/2006,41.284951,-73.024637
518,071537,BEACON HOSPICE LLC,"111 FOUNDERS PLAZA, SUITE 1803",,EAST HARTFORD,CT,06108,Hartford,(860) 282-0527,1,For-Profit,03/02/2007,41.760695,-72.607646
519,071539,SEASONS HOSPICE  &  PALLIATIVE CARE OF CONNECTICUT,"1579 STRAITS TNPK, UNIT 1E",,MIDDLEBURY,CT,06762,New Haven,(203) 437-1000,1,For-Profit,05/23/2012,41.524691,-73.123016
520,071541,FRIEDMAN HOME CARE AND CHAIFEZ FAMILY HOSPICE,4200 PARK AVENUE,,BRIDGEPORT,CT,06604,Fairfield,(203) 396-1136,1,Non-Profit,06/11/2012,41.187386,-73.195734
521,071542,CONSTELLATION HOSPICE,240 INDIAN RIVER ROAD,,ORANGE,CT,06477,New Haven,(203) 497-3888,1,For-Profit,06/13/2012,41.284951,-73.024637
522,071543,ATHENA HOME HEALTH  &  HOSPICE,135 SOUTH ROAD,,FARMINGTON,CT,06032,Hartford,(203) 234-9355,1,For-Profit,10/09/2015,41.73044,-72.842901
523,081500,DELAWARE HOSPICE - NORTH DIVISION,16 POLLY DRUMMOND CENTER SECOND FLOOR,,NEWARK,DE,19711,New Castle,(302) 478-5707,3,Non-Profit,01/30/1984,39.677569,-75.757308
524,081502,DELAWARE HOSPICE CENTRAL DIV,911 S DUPONT HWY,,DOVER,DE,19901,Kent,(302) 678-4444,3,Non-Profit,01/18/1985,39.160606,-75.521659
525,081503,"DELAWARE HOSPICE, INC SOUTHERN DIVISION",100 PATRIOTS WAY,,MILFORD,DE,19963,Sussex,(302) 856-7717,3,Other,07/09/1985,38.878668,-75.291428
526,081504,COMPASSIONATE CARE HOSPICE,405 EAST MARSH LANE   SUITE 4,,NEWPORT,DE,19804,New Castle,(302) 993-9090,3,For-Profit,06/02/1994,39.71420300000001,-75.605176
527,081506,"HEARTLAND HOSPICE SERVICES, LLC","256 CHAPMAN ROAD, SUITE 102",,NEWARK,DE,19702,New Castle,(302) 737-7080,3,For-Profit,05/30/2003,39.677569,-75.757308
528,081507,VITAS HEALTHCARE CORPORATION ATLANTIC,100 COMMERCE DRIVE SUITE 302,,NEWARK,DE,19713,New Castle,(302) 451-4000,3,For-Profit,01/07/2005,39.688556,-75.74275899999998
529,081508,"SEASONS HOSPICE  &  PALLIATIVE CARE OF DELAWARE, LLC","220 CONTINENTAL DR, SUITE 407",,NEWARK,DE,19713,New Castle,(302) 533-3800,3,For-Profit,10/05/2007,39.677569,-75.757308
530,081509,COMPASSIONATE CARE HOSPICE OF THE DELMAR PENINSULA,20165 OFFICE CIRCLE UNIT 2,,GEORGETOWN,DE,19947,Sussex,(302) 934-5900,3,For-Profit,08/20/2008,38.690917,-75.41195400000002
531,091500,COMMUNITY HOSPICE OF WASHINGTON DC,3720 UPTON STREET NW,,WASHINGTON,DC,20016,District Of Columbia,(202) 366-3117,3,Other,06/11/1986,38.904149,-77.017094
532,091501,CAPITAL HOSPICE,"50 F STREET, NW   SUITE 3300",,WASHINGTON,DC,20001,District Of Columbia,(202) 244-8300,3,Non-Profit,12/19/1986,38.904149,-77.017094
533,091505,VITAS INNOVATIVE HOSPICE CARE OF GREATER WASHINGTO,"1200 FIRST STREET, NE  SUITE 320",,WASHINGTON,DC,20002,District Of Columbia,(202) 414-5411,3,For-Profit,08/01/2006,38.904149,-77.017094
534,091506,PROFESSIONAL HEALTHCARE RESOURCES OF WASHINGTON DC,1010 WISCONSIN AVENUE NW,,WASHINGTON,DC,20007,District Of Columbia,(202) 955-0355,3,For-Profit,08/17/2010,38.904149,-77.017094
535,101500,COMMUNITY HOSPICE OF NORTHEAST FLORIDA INC,4266 SUNBEAM ROAD,,JACKSONVILLE,FL,32257,Duval,(904) 268-5200,4,Non-Profit,11/01/1983,30.337019,-81.661302
536,101502,HEARTLAND HOSPICE SERVICES,150 S PINE ISLAND RD STE 540,,PLANTATION,FL,33324,Broward,(954) 467-7423,4,For-Profit,11/01/1983,26.125611,-80.261813
537,101504,HOSPICE BY THE SEA INC,1531 W PALMETTO PARK RD,,BOCA RATON,FL,33486,Palm Beach,(407) 395-5031,4,Non-Profit,12/01/1983,26.372855,-80.10629200000002
538,101507,LIFEPATH HOSPICE,3010 W AZEELE ST,,TAMPA,FL,33609,Hillsborough,(813) 877-2200,4,Non-Profit,04/04/1984,27.970086,-82.47967299999998
539,101508,SUNCOAST HOSPICE,5771 ROOSEVELT BOULEVARD,,CLEARWATER,FL,33760,Pinellas,(727) 586-4432,4,For-Profit,07/16/1984,27.979475,-82.766265
540,101509,HOSPICE OF GOLD COAST HOME HEALTH SERVICES,309 SE 18 ST,,FORT LAUDERDALE,FL,33316,Broward,(954) 785-2990,4,Non-Profit,05/03/1984,26.141305,-80.143896
541,101510,THE HOSPICE OF MARTIN  &  ST LUCIE INC,1201 SE INDIAN ST,,STUART,FL,34997,Martin,(772) 403-4500,4,Non-Profit,05/18/1984,27.196121,-80.243169
542,101511,HPH HOSPICE,12107 MAJESTIC BOULEVARD,,HUDSON,FL,34667,Pasco,(727) 863-7971,4,Non-Profit,06/08/1984,28.359149,-82.68969399999997
543,101512,HOSPICE OF PALM BEACH COUNTY INC,5300 EAST AVENUE,,WEST PALM BEACH,FL,33407,Palm Beach,(407) 848-5200,4,Non-Profit,06/20/1984,26.748301,-80.12660799999998
544,101513,COVENANT HOSPICE INC,5041 N 12TH AVE,,PENSACOLA,FL,32504,Escambia,(904) 433-2155,4,Non-Profit,07/25/1984,30.426725,-87.268114
545,101514,WUESTHOFF HEALTH SYSTEM BREVARD HOSPICE AND PALLIA,661 EYSTER BLVD,,ROCKLEDGE,FL,32955,Brevard,(321) 253-2222,4,For-Profit,08/16/1984,28.350704,-80.79063599999998
546,101515,HAVEN HOSPICE,4200 NW 90TH BLVD,,GAINESVILLE,FL,32606,Alachua,(904) 378-2121,4,Non-Profit,11/07/1984,29.678831,-82.345878
547,101516,HOPE HOSPICE AND COMMUNITY SERVICES INC,9470 HEALTHPARK CIRCLE,,FORT MYERS,FL,33908,Lee,(800) 835-1673,4,Non-Profit,12/07/1984,26.713889,-81.74256899999997
548,101517,HOSPICE OF THE TREASURE COAST INCORPORATED,5000 DUNN ROAD,,FORT PIERCE,FL,34981,St. Lucie,(772) 403-4500,4,Non-Profit,11/27/1984,27.430257,-80.335924
549,101518,HOSPICE OF MARION COUNTY INC,3231 SW 34TH AVENUE,,OCALA,FL,34478,Marion,(352) 873-7400,4,Other,01/17/1985,29.180314000000006,-82.148787
550,101520,HOSPICE OF HEALTH FIRST INC,1131 W NEW HAVEN AVE STE 102,,WEST MELBOURNE,FL,32904,Brevard,(321) 434-1744,4,Other,05/09/1985,28.054278000000004,-80.661461
551,101521,TIDEWELL HOSPICE INC,5955 RAND BOULEVARD,,SARASOTA,FL,34238,Sarasota,(941) 923-5822,4,Non-Profit,10/17/1985,27.370144,-82.51818399999998
552,101522,HALIFAX HEALTH HOSPICE,3800 WOODBRIAR TRAIL,,PORT ORANGE,FL,32119,Volusia,(386) 425-4701,4,Other,01/07/1986,29.113488,-81.01323199999999
553,101523,BIG BEND HOSPICE INC,1723 MAHAN CENTER BLVD,,TALLAHASSEE,FL,32308,Leon,(904) 878-5310,4,Non-Profit,06/19/1986,30.394444,-84.27449
554,101524,HOSPICE OF THE FLORIDA KEYS INC,1319 WILLIAM STREET,,KEY WEST,FL,33040,Monroe,(305) 294-8812,4,Non-Profit,05/12/1986,24.565176,-81.77579399999998
555,101525,CORNERSTONE HOSPICE  &  PALLIATIVE CARE INC,2445 LANE PARK ROAD,,TAVARES,FL,32778,Lake,(904) 343-1341,4,Other,03/03/1986,28.743751,-81.71736899999998
556,101526,HOSPICE OF CITRUS AND THE NATURE COAST,3264 WEST AUDUBON PARK PATH,,LECANTO,FL,34461,Citrus,(904) 527-2020,4,Non-Profit,11/24/1986,28.822447,-82.500804
557,101527,HOSPICE OF OKEECHOBEE INCORPORATED,411 SE 4TH STREET,,OKEECHOBEE,FL,34974,Okeechobee,(813) 467-2321,4,Non-Profit,06/03/1987,27.241608000000006,-80.829311
558,101528,AVOW HOSPICE INC,1095 WHIPPOORWILL LANE,,NAPLES,FL,34105,Collier,(239) 261-4404,4,Non-Profit,09/24/1987,26.262921,-81.811316
559,101529,VNA HOSPICE OF INDIAN RIVER COUNTY INC,1110 35TH LANE,,VERO BEACH,FL,32960,Indian River,(407) 567-5551,4,For-Profit,06/23/1988,27.619972,-80.411503
560,101530,CATHOLIC HOSPICE INC,14875 NW 77TH AVE STE 100,,MIAMI LAKES,FL,33014,Miami-Dade,(305) 822-2380,4,Non-Profit,12/06/1988,25.91684,-80.320545
561,101532,GULFSIDE HOSPICE,2061 COLLIER PKWY,,LAND O LAKES,FL,34639,Pasco,(813) 845-5707,4,For-Profit,10/30/1989,28.561456,-82.552686
562,101533,HOSPICE OF THE COMFORTER INC,480 WEST CENTRAL PARKWAY,,ALTAMONTE SPRINGS,FL,32714,Seminole,(407) 682-0808,4,Non-Profit,09/06/1990,28.660946000000006,-81.39559799999998
563,101534,HOSPICE OF ST FRANCIS INC,1250B GRUMMAN PLACE,,TITUSVILLE,FL,32780,Brevard,(407) 269-4240,4,Non-Profit,09/05/1990,28.573368,-80.819404
564,101536,OPUS CARE OF SOUTH FLORIDA,7270 NW 12TH ST PH 6,,MIAMI,FL,33126,Miami-Dade,(305) 591-1606,4,Non-Profit,02/12/1992,25.948877,-80.24358199999998
565,101537,EMERALD COAST HOSPICE,421 OAK AVE,,PANAMA CITY,FL,32401,Bay,(850) 769-0055,4,Non-Profit,04/09/1992,30.167122,-85.67250899999998
566,101539,FLORIDA HOSPITAL HOSPICECARE,770 W GRANADA BLVD STE 304,,ORMOND BEACH,FL,32174,Volusia,(904) 676-6166,4,Non-Profit,08/06/1996,29.294626,-81.09496800000002
567,101540,KINDRED HOSPICE,4776 NEW BROAD ST STE 200,,ORLANDO,FL,32814,Orange,(407) 599-5079,4,For-Profit,08/12/1998,28.500324,-81.36434100000002
568,101543,SEASONS HOSPICE  &  PALLIATIVE CARE OF SOUTHERN FLOR,5200 NE 2ND AVE,,MIAMI,FL,33137,Miami-Dade,(305) 762-3883,4,For-Profit,03/14/2002,25.929996,-80.16517900000002
569,101548,KINDRED HOSPICE,6161 BLUE LAGOON DR STE 170,,MIAMI,FL,33126,Miami-Dade,(786) 388-1400,4,For-Profit,06/05/2006,25.854912,-80.119638
570,101545,VITAS HEALTHCARE CORPORATION OF FLORIDA,4450 W EAU GALLIE BLVD STE 250,,MELBOURNE,FL,32934,Brevard,(321) 751-6671,4,For-Profit,11/05/2002,28.125223,-80.658472
571,101549,HEARTLAND HOME HEALTH CARE AND HOSPICE,8130 BAYMEADOWS WAY W STE 201,,JACKSONVILLE,FL,32256,Duval,(904) 737-2553,4,For-Profit,11/15/2007,30.337019,-81.661302
572,101550,GOOD SHEPHERD HOSPICE,3470 LAKELAND HILLS BLVD,,LAKELAND,FL,33805,Polk,(863) 682-0067,4,Non-Profit,03/21/2008,28.055964000000003,-81.953682
573,101551,REGENCY HOSPICE OF NORTHWEST FLORIDA INC,50 BEVERLY PARKWAY SUITE 200,,PENSACOLA,FL,32505,Escambia,(850) 478-2695,4,Other,09/22/2009,30.441266,-87.189943
574,101553,COMPASSIONATE CARE HOSPICE OF CENTRAL FLORIDA INC,2525 DRANE FIELD RD STE 4,,LAKELAND,FL,33811,Polk,(863) 709-0099,4,For-Profit,07/21/2011,28.055964000000003,-81.953682
575,101554,COMPASSIONATE CARE HOSPICE OF MIAMI-DADE AND THE F,1840 W 49TH ST STE 224,,HIALEAH,FL,33012,Miami-Dade,(786) 329-4035,4,For-Profit,08/04/2014,25.907761,-80.338314
576,101555,SEASONS HOSPICE  &  PALLIATIVE CARE OF BROWARD FLORI,1815 GRIFFIN RD STE 410,,DANIA BEACH,FL,33004,Broward,(866) 843-9104,4,For-Profit,05/27/2015,26.057233,-80.164589
577,101556,COMPASSIONATE CARE HOSPICE OF LAKE AND SUMTER INC,214 E WASHINGTON ST STE C,,MINNEOLA,FL,34715,Lake,(352) 415-0778,4,For-Profit,11/19/2015,28.601799,-81.731273
578,111500,HAMILTON MEDICAL CENTER- HOSPICE,1275 ELKWOOD DRIVE,,DALTON,GA,30720,Whitfield,(706) 278-2848,4,Non-Profit,11/07/1983,34.769353,-84.938742
579,111504,"HOSPICE SAVANNAH, INC.",1674 CHATHAM PARKWAY,,SAVANNAH,GA,31405,Chatham,(912) 355-2289,4,Non-Profit,01/24/1984,32.002512,-81.15355699999998
580,111505,HOSPICE OF THE GOLDEN ISLES,1692 GLYNCO PARKWAY,,BRUNSWICK,GA,31525,Glynn,(912) 265-4735,4,Non-Profit,03/26/1984,31.13617,-81.466915
581,111506,COMPASSUS-NORTH GEORGIA,"106 PEARL DRIVE, SUITE 107",,LA FAYETTE,GA,30728,Walker,(706) 638-7651,4,For-Profit,03/30/1984,34.899549,-84.964906
582,111507,WELLSTAR COMMUNITY HOSPICE,4040 HOSPITAL WEST DRIVE,,AUSTELL,GA,30106,Cobb,(770) 732-6710,4,For-Profit,06/19/1984,33.820281,-84.644267
583,111508,HOSPICE ATLANTA,1244 PARK VISTA DR.,,ATLANTA,GA,30319,DeKalb,(404) 869-3087,4,Non-Profit,12/15/1983,33.762909,-84.422675
584,111510,ASERACARE HOSPICE,"1117 PERIMETER CENTER WEST, SUITE N500",,ATLANTA,GA,30338,DeKalb,(770) 688-8785,4,For-Profit,02/22/1985,33.762909,-84.422675
585,111511,"HEART OF GEORGIA HOSPICE, INC",103 WESTRIDGE DRIVE,,WARNER ROBINS,GA,31088,Houston,(478) 953-5161,4,Non-Profit,07/24/1986,32.597096,-83.653936
586,111512,"COLUMBUS HOSPICE, INC.",7020 MOON ROAD,,COLUMBUS,GA,31909,Muscogee,(706) 569-7992,4,Non-Profit,10/01/1986,32.510197,-84.874946
587,111513,HEARTH HOSPICE,"11638 HIGHWAY 27, SUITE 6",,SUMMERVILLE,GA,30747,Chattooga,(706) 866-9854,4,For-Profit,06/26/1986,34.484101,-85.360671
588,111514,HOSPICE OF NORTHEAST GA MC,2150 LIMESTONE PARKWAY,,GAINESVILLE,GA,30501,Hall,(770) 533-8888,4,Non-Profit,12/30/1986,34.289658,-83.829893
589,111515,TRINITY HOME SERVICES,1501 ANTHONY ROAD,,AUGUSTA,GA,30904,Richmond,(706) 729-6000,4,Other,07/15/1987,33.365531,-82.073422
590,111516,WEST GEORGIA HOSPICE,1510 VERNON ROAD,,LAGRANGE,GA,30240,Troup,(706) 845-3905,4,Non-Profit,02/19/1987,33.030397,-85.03787
591,111517,HOSPICE SATILLA OF MEM HOSP,808 EVERGREEN WAY,,WAYCROSS,GA,31501,Ware,(912) 285-2340,4,Other,02/05/1988,31.211006,-82.357658
592,111519,PINE POINTE HOSPICE  &  PALLIATIVE CARE,6261 PEAKE ROAD,,MACON,GA,31210,Bibb,(478) 633-5660,4,Other,03/22/1989,32.830953,-83.64891800000002
593,111520,HOSPICE OF TIFT AREA,618 NORTH CENTRAL AVENUE,,TIFTON,GA,31794,Tift,(229) 353-6330,4,Other,06/01/1989,31.4621,-83.520494
594,111521,HOSPICE OF SOUTHWEST GEORGIA,114 A MIMOSA DRIVE,,THOMASVILLE,GA,31792,Thomas,(229) 584-5500,4,Non-Profit,07/10/1989,30.839421999999995,-83.97878100000001
595,111524,FLOYD HEYMAN HOSPICE CARE,"420 EAST SECOND AVENUE, SUITE 105",,ROME,GA,30161,Floyd,(706) 509-3200,4,Other,09/21/1990,34.26774,-85.187533
596,111525,SAINT MARY'S HOSPICE SERVICES,1021 JAMESTOWN BLVD SUITE 215,,WATKINSVILLE,GA,30677,Oconee,(706) 389-2273,4,Other,01/17/1991,33.834125,-83.437728
597,111527,PHOEBE HOSPICE,320 FOUNDATION LANE,,ALBANY,GA,31707,Dougherty,(229) 312-7050,4,Non-Profit,05/02/1991,31.577669,-84.17945300000002
598,111528,GENTIVA HOSPICE,216 BUSINESS CENTER DRIVE,,STOCKBRIDGE,GA,30281,Henry,(770) 389-5760,4,For-Profit,05/27/1992,33.543235,-84.257522
599,111530,ABBEY HOSPICE,215 AZALEA COURT,,SOCIAL CIRCLE,GA,30025,Newton,(770) 464-5858,4,For-Profit,02/01/1994,33.64813400000001,-83.713441
600,111531,HOSPICE OF SOUTH GEORGIA,2263 PINE VIEW DRIVE,,VALDOSTA,GA,31602,Lowndes,(229) 433-7000,4,Other,07/09/1993,30.850126,-83.27883299999998
601,111532,"GEORGIA MOUNTAIN HOSPICE, INC.",70 CARING WAY,,JASPER,GA,30143,Pickens,(706) 253-4100,4,Non-Profit,09/17/1993,34.466199,-84.435863
602,111533,PRUITTHEALTH HOSPICE-ATLANTA,5365 OAKBROOK PARKWAY,,NORCROSS,GA,30093,Gwinnett,(404) 292-2081,4,For-Profit,12/14/1993,33.955248,-84.217261
603,111534,HOSPICE CARE- A PART OF TANNER,"150 HENRY BURSON DRIVE, SUITE 102",,CARROLLTON,GA,30117,Carroll,(770) 214-2355,4,For-Profit,02/04/1994,33.581847,-85.083333
604,111535,"OGEECHEE AREA HOSPICE, INC.",200 DONEHOO STREET,,STATESBORO,GA,30458,Bulloch,(912) 764-8441,4,For-Profit,05/18/1994,32.441243,-81.77451500000002
605,111537,PHOEBE SUMTER HOSPICE,126 EAST FURLOW STREET,,AMERICUS,GA,31709,Sumter,(229) 928-4000,4,Other,08/03/1994,32.047566,-84.221687
606,111542,COLQUITT REGIONAL HOSPICE,2516 5TH AVE. SE,,MOULTRIE,GA,31768,Colquitt,(229) 890-3526,4,Combination Government  &  Non-Profit,09/21/1995,31.17943,-83.790786
607,111543,BLUE-GRAY COMMUNITY HOSPICE,815 SOUTH MAIN ST,,FITZGERALD,GA,31750,Ben Hill,(229) 424-7330,4,Government,03/08/1995,31.714253000000006,-83.25223199999998
608,111544,GENTIVA HOSPICE,3101 TOWERCREEK PKWY SE SUITE 225,,ATLANTA,GA,30339,Cobb,(678) 581-1115,4,For-Profit,08/01/1995,33.762909,-84.422675
609,111545,PRUITTHEALTH HOSPICE-MACON,6060 LAKESIDE COMMONS DRIVE,,MACON,GA,31210,Bibb,(478) 745-9204,4,For-Profit,09/14/1995,32.830953,-83.64891800000002
610,111548,PRUITTHEALTH HOSPICE-CALHOUN,308 NORTH WALL STREET,,CALHOUN,GA,30701,Gordon,(706) 602-9546,4,For-Profit,01/05/1996,34.467914,-84.945175
611,111550,REFLECTIONS HOSPICE OF CRISP REGIONAL,202 E 4TH AVENUE,,CORDELE,GA,31015,Crisp,(229) 273-6282,4,Other,03/21/1996,31.94274,-83.783537
612,111553,VITAS HEALTHCARE CORPORATION OF GEORGIA,"1575 NORTHSIDE DRIVE, SUITE 375",,ATLANTA,GA,30318,Fulton,(404) 843-6500,4,For-Profit,12/18/1996,33.762909,-84.422675
613,111556,KINDRED HOSPICE,432 EAST SHOTWELL STREET,,BAINBRIDGE,GA,39819,Decatur,(229) 246-6330,4,For-Profit,05/23/1997,30.906225,-84.578777
614,111558,GENTIVA HOSPICE,"2302 PARKLAKE DRIVE NE, SUITE 150",,ATLANTA,GA,30345,DeKalb,(678) 937-1800,4,For-Profit,10/30/1997,33.762909,-84.422675
615,111559,GENTIVA HOSPICE,319 MARGIE DRIVE,,WARNER ROBINS,GA,31088,Houston,(478) 953-1016,4,For-Profit,11/06/1997,32.597096,-83.653936
616,111560,GENTIVA HOSPICE,100 BROOKSTONE CENTRE PARKWAY,,COLUMBUS,GA,31904,Muscogee,(706) 653-0835,4,For-Profit,11/07/1997,32.510197,-84.874946
617,111568,HEARTLAND HOSPICE SERVICES,827 FAIRWAYS COURT SUITE 200,,STOCKBRIDGE,GA,30281,Clayton,(770) 461-1658,4,For-Profit,05/15/1998,33.543235,-84.257522
618,111569,"HOSPICE CARE OPTIONS, INC.",486 NEW STREET,,MACON,GA,31201,Bibb,(478) 743-3033,4,For-Profit,06/04/1998,32.830953,-83.64891800000002
619,111571,PRUITTHEALTH HOSPICE-VALDOSTA,407 COWART AVENUE,,VALDOSTA,GA,31602,Lowndes,(229) 242-1187,4,For-Profit,12/16/1998,30.850126,-83.27883299999998
620,111572,PRUITTHEALTH HOSPICE-SWAINSBORO,667 S MAIN STREET,,SWAINSBORO,GA,30401,Emanuel,(478) 237-7798,4,For-Profit,02/16/1999,32.585588,-82.334784
621,111574,"HOSPICE OF SOUTH GEORGIA, INC",1625 SUNSET BLVD,,JESUP,GA,31545,Wayne,(912) 588-0080,4,Non-Profit,07/07/1999,31.494049,-81.810864
622,111576,COMMUNITY HOSPICE,904 MOUNT VERNON ROAD,,VIDALIA,GA,30474,Toombs,(912) 537-0063,4,For-Profit,10/28/1999,32.213901,-82.40302
623,111577,WEINSTEIN HOSPICE: YAD V'LEV,"3150 HOWELL MILL ROAD, NW",,ATLANTA,GA,30327,Fulton,(404) 352-4308,4,Non-Profit,11/11/1999,33.762909,-84.422675
624,111578,PRUITTHEALTH HOSPICE-CORDELE,708 EAST 16TH AVENUE,,CORDELE,GA,31015,Crisp,(229) 271-0300,4,For-Profit,11/12/1999,31.94274,-83.783537
625,111579,PRUITTHEALTH HOSPICE-GAINESVILLE,"700 S. ENOTA DRIVE, SUITE 202",,GAINESVILLE,GA,30501,Hall,(770) 279-6200,4,For-Profit,12/01/1999,34.289658,-83.829893
626,111580,PRUITTHEALTH HOSPICE-AUGUSTA,1220 AUGUSTA WEST PARKWAY,,AUGUSTA,GA,30909,Richmond,(706) 650-1522,4,For-Profit,12/21/1999,33.365531,-82.073422
627,111587,BETHANY HOSPICE AND PALLIATIVE CARE,"2700 NORTH OAK STREET, BLDG B",,VALDOSTA,GA,31602,Lowndes,(229) 249-8687,4,For-Profit,08/08/2000,30.850126,-83.27883299999998
628,111590,HEARTLAND HOSPICE SERVICES- CARTERSVILLE,"4900 IVEY ROAD, SUITE 825",,ACWORTH,GA,30101,Cherokee,(770) 382-0721,4,For-Profit,12/14/2000,34.056421,-84.667457
629,111595,"LIVING CARE HOSPICE, LLC","33 PARK OF COMMERCE WAY, SUITE 400",,SAVANNAH,GA,31405,Chatham,(912) 739-4990,4,For-Profit,09/26/2001,32.002512,-81.15355699999998
630,111596,"THOMASTON HOSPICE, INC",512 SOUTH CENTER STREET,,THOMASTON,GA,30286,Upson,(706) 647-2273,4,For-Profit,11/09/2001,32.922325,-84.336164
631,111599,"SACRED JOURNEY HOSPICE, INC",138 PEACH DRIVE,,MCDONOUGH,GA,30253,Henry,(678) 583-0717,4,For-Profit,03/06/2002,33.441285,-84.15090699999998
632,111601,"SPANISH OAKS HOSPICE, INC",8510 WHITFIELD AVENUE,,SAVANNAH,GA,31406,Chatham,(912) 356-0233,4,For-Profit,11/14/2002,32.002512,-81.15355699999998
