provider_num,npi,name,address,city,state,zip,fips_county,lat,lon,phone,provider_type_code,category,emergency,upin,pin,region_code,bed_count,clia_lab_number
"171523","1144260498","HOSPICE OF DICKINSON COUNTY","1111 NORTH BRADY","ABILENE",KS,"674101804","041",38.92602177551021,-97.20451032653061,"7852636630","00-08","16-01",true,,,"07",,
"391518","1053393447","CENTRE HOMECARE, INC.","2437 COMMERCIAL BLVD","STATE COLLEGE",PA,"168017454",,40.82606095,-77.81039728489715,"8142377400","00-08",,,,,,,
"051693","1033110994","KINDRED HOSPICE & PALLIATIVE CARE","2055 GATEWAY PLACE, SUITE 600","SAN JOSE",CA,"951101083","085",37.3715086,-121.9251269,"4086264868","00-08","16-01",true,,,"09",,
"391551","1548201957","GENERAL CARE SERVICES, INC.","1 MAIN AVE","WARREN",PA,"163652116",,41.843615,-79.153151,"8147232455","00-08",,,,,,,
"171540","1316976103","CATHOLIC COMM HOSPICE","9740 WEST 87TH STREET","OVERLAND PARK",KS,"662124563","091",38.971248645257475,-94.69845384940994,"9136215090","00-08","16-01",true,,,"07",,
"381546","1841221306","PIONEER MEMORIAL HOSPICE","162 N MAIN STREET","HEPPNER",OR,"978365001","049",45.3556515,-119.553467,"5416762946","00-08","16-01",true,,,"10",,
"261586","1215084876","SAFE HARBOR HOSPICE INC","101 KINGSBURY BLVD","FREDERICKTOWN",MO,"636457959",,37.559324,-90.308873,"5737837625","00-08",,,,,,,
"051567","1366449951","SNOWLINE HOSPICE OF EL DORADO COUNTY","6520 PLEASANT VALLEY RD","SACRAMENTO",CA,"958258214",,38.5810606,-121.493895,"5306217820","00-08",,,,,,,
"281528","1265433247","KINDRED HOSPICE","444 REGENCY PARKWAY DRIVE, SUITE 200","OMAHA",NE,"681143779","055",41.2545998,-96.075476022479,"4023970990","00-08","16-01",true,,,"07",,
"261578","1417068461","CHRISTIAN HEALTH CARE HOSPICE, INC.","1328 E EVERGREEN ST","SPRINGFIELD",MO,"658025241",,37.24985285417673,-93.27041217195156,"4178320577","00-08",,,,,,,
"391535","1881764736","ST LUKE'S HOSPICE","240 UNION STATION PLAZA","STROUDSBURG",PA,"183606501","077",40.9864261,-75.1946649,"4845261100","00-08","16-01",true,,,"03",,
"491557","1629025911","MEDICAL SERVICES OF AMERICA HOME HEALTH & HOSPICE","1935 FRONT STREET","WISE",VA,"242937019","185",36.9404817,-82.4756516,"2769644202","00-08","16-01",true,,,"03",,
"221554","1366420861","VISITING NURSE ASSOCIATION OF CAPE COD, INC.","434 ROUTE 134","HYANNIS",MA,"026011854",,41.6753274,-70.309939,"5089577710","00-08",,,,,,,
"301512","1831163211","WENTWORTH HOME CARE & HOSPICE, AN AMEDISYS PARTNER","9 ANDREWS ROAD","SOMERSWORTH",NH,"038781042","017",43.2625585,-70.8645872,"6036920220","00-08","16-01",true,,,"01",,
"391606","1437254893","VISITING NURSE ASSOCIATION OF CENTRAL PA INC","3315 DERRY ST","HARRISBURG",PA,"171111811",,40.2626817,-76.8657809,"7179209760","00-08",,,,,,,
"261595","1497857551","GOOD SHEPHERD HOSPICE OF MID-AMERICA INC","123 W KANSAS AVE STE 200","WARRENSBURG",MO,"640933107",,38.7624373,-93.7409596,"8168222292","00-08",,,,,,,
"521568","1043250558","HEARTLAND HHC AND HOSPICE","10200 W INNOVATION DR  SUITE 400","MILWAUKEE",WI,"532263276","079",43.0349931,-87.922497,"4149442000","00-08","16-01",true,,,"05",,
"131543","1730294463","HOSPICE ALLIANCE OF IDAHO, LLC","1270 S WOODRUFF AVE","TWIN FALLS",ID,"833018970",,42.5704456,-114.4602554,"2085520249","00-08",,,,,,,
"161569","1609873769","HOSPICE OF JACKSON COUNTY INC","611 W QUARRY ST","MAQUOKETA",IA,"520602125",,42.070858073758416,-90.67269766661362,"5636520123","00-08",,,,,,,
"171503","1619918679","HOSPICE OF RENO COUNTY INC","2020 N WALDRON ST STE 100","HUTCHINSON",KS,"675024720",,38.0554769,-97.8974184,"6206652473","00-08",,,,,,,
"391634","1275585218","MEDI HOME HOSPICE","201 PENN CENTER BOULEVARD SUITE 300","SCOTTDALE",PA,"156832459","003",40.1003507,-79.5869835,"7248637190","00-08","16-01",true,,,"03",,
"141586","1700838661","PROMEDICA HOSPICE (NORTHBROOK)","1110 W LAKE COOK RD, STE 130","BUFFALO GROVE",IL,"600891965","097",42.153703,-87.981405,"8472727338","00-08","16-01",true,,,"05",,
"051759","1669474987","ROZE ROOM HOSPICE OF THE VALLEY INC","18107 SHERMAN WAY","RESEDA",CA,"913358802",,34.200926893939396,-118.52760985353535,"8187831002","00-08",,,"051759",,,,
"131541","1396891412","NINERGK, LLC","3470 WASHINGTON PKWY","IDAHO FALLS",ID,"834047579",,43.46651832487829,-111.99339873095646,"2085422999","00-08",,,,,,,
"261550","1649265166","KINDRED HOSPICE","12125 WOODCREST EXECUTIVE DRIVE, SUITE 220","TROY",MO,"633791365","189",38.9794923,-90.9806954,"3142756100","00-08","16-01",true,,,"07",,
"397135","1295750875","WAYNE MEMORIAL HOSPITAL","601 PARK ST","HONESDALE",PA,"184311445",,41.57606495,-75.26034740561852,"5702538100","00-08",,,,,,,
"381503","1093717340","MT. HOOD HOSPICE","39085 PIONEER BLVD STE 1018","SANDY",OR,"970556405",,45.3963272230007,-122.26102660572501,"5036685545","00-08",,,,,,,
"211511","1710064878","HOSPICE OF WASHINGTON COUNTY, INC","747 NORTHERN AVE","HAGERSTOWN",MD,"217424076",,39.66705365058674,-77.71446192498189,"3017916360","00-08",,,,"=========",,,
"161502","1063485365","HOSPICE OF SIOUXLAND","309 COOK ST","SIOUX CITY",IA,"511033707",,42.49870399202351,-96.4190322551366,"7122334144","00-08",,,,,,,
"061510","1326041252","SANGRE DE CRISTO HOSPICE & PALLIATIVE CARE","1920 VALLEY DR","TRINIDAD",CO,"810822014",,37.169397,-104.5005411,"7195420032","00-08",,,,"061510",,,
"271500","1992862718","PARTNERS IN HOME CARE, INC.","2687 PALMER ST","RONAN",MT,"598642502",,47.5288233,-114.101501,"4067288848","00-08",,,,,,,
"231521","1629011168","MCLAREN HOSPICE","1515 CAL DRIVE","STERLING HEIGHTS",MI,"483131150","049",42.5803122,-83.0302033,"8002064806","00-08","16-01",true,,,"05",,
"211541","1386667277","CAPITAL HOSPICE","1801 MCCORMICK DR STE 180","LARGO",MD,"207745345",,38.8824538,-76.82857456500106,"3018830866","00-08",,,,,,,
"091501","1790706935","CAPITAL HOSPICE","4401 CONNECTICUT AVE NW","WASHINGTON",DC,"200172104",,38.9456829,-77.0641063,"2022448300","00-08",,,,,,,
"051719","1750383071","L & A CARE CORPORATION","5000 OVERLAND AVE","CULVER CITY",CA,"902304969",,34.006658,-118.395599,"3102027693","00-08",,,,,,,
"161568","1215980891","PROMEDICA HOSPICE DAVENPORT","4340 EAST 53RD STREET","ROCK ISLAND",IA,"612015395","163",41.5239449,-95.4366267,"5633593540","00-08","16-01",true,,,"07",,
"051757","1497758593","REMITA HEALTH","3070 BRISTOL STREET SUITE 100","COSTA MESA",CA,"926267334","059",33.68446367073171,-117.885739,"8883271936","00-08","16-01",true,,,"09",,
"061527","1427041227","HOPEWEST","2754 COMPASS DR","MONTROSE",CO,"814014222",,38.4375391,-108.2403855,"9702412212","00-08",,,,"C339908",,,
"361595","1306890439","HEARTLAND HOME HEALTH CARE & HOSPICE","905-907 WEST STATE STREET","PERRYSBURG",OH,"435515662","143",41.5571178,-83.6279321,"4193559209","00-08","16-01",true,,,"05",,
"061515","1194732123","ARKANSAS VALLEY HOSPICE, INC","531 LEWIS AVE","LA JUNTA",CO,"810501738",,37.983243238095234,-103.53583261904761,"7193848827","00-08",,,,"061515",,,
"051573","1518962083","HOSPICE OF SAN JOAQUIN","3888 PACIFIC AVE","STOCKTON",CA,"952041953",,37.9834607,-121.30894129697516,"2099573888","00-08",,,,,,,
"261506","1073548905","SAINT LUKE'S HEALTH SYSTEM HOME CARE AND HOSPICE","3100 BROADWAY ST","KANSAS CITY",MO,"641112804",,39.0440399,-94.5914583,"8167561160","00-08",,,,,,,
"051766","1578541496","LOS ANGELES HOSPICE INC","3580 WILSHIRE BLVD STE 1290","SANTA CLARITA",CA,"913812206",,34.3916641,-118.542586,"2133511030","00-08",,,,,,,
"081506","1770535858","PROMEDICA HOSPICE (NEWARK)","256 CHAPMAN ROAD, SUITE 102","NEWARK",DE,"197136107","003",39.6775927,-75.7630866,"3027377080","00-08","16-01",true,,,"03",,
"341587","1386698199","HEARTLAND HOME HEALTH AND HOSPICE","4505 FALLS OF NEUSE ROAD, SUITE 650","RALEIGH",NC,"276092523","183",35.84223815,-78.61343008405285,"9198779959","00-08","16-01",true,,,"04",,
"451707","1275543316","KINDRED HOSPICE","2400 CROCKETT DRIVE SUITE 300","BROWNWOOD",TX,"768015912","049",31.681637864824893,-98.9951188066484,"3256435718","00-08","16-01",true,,,"06",,
"521571","1407853112","SEASONS HOSPICE AND PALLIATIVE CARE OF WISCONSIN","6737 W WASHINGTON ST  SUITE 2150","WEST ALLIS",WI,"532145649","079",43.021147046524554,-87.99628587393303,"4142038310","00-08","16-01",true,,,"05",,
"391502","1629018841","CHANDLER HALL HEALTH SERVICES, INC","99 BARCLAY ST","NEWTOWN",PA,"189401593",,40.22028845,-74.94132913511322,"2158604000","00-08",,,,,,,
"261581","1427093988","CROSSROADS HOSPICE OF KANSAS CITY, L  C","14310 EAST 42ND STREET SOUTH, UNIT 600","WARRENSBURG",MO,"640939601","095",38.7624373,-93.7409596,"8163339200","00-08","16-01",true,,,"07",,
"271526","1538111265","SHERIDAN MEMORIAL HOSPICE","330 W LAUREL AVE","PLENTYWOOD",MT,"592541624","091",48.778767,-104.56200326651131,"4067653733","00-08","16-01",true,,,"08",,
"161527","1508948357","MERCYONE CLINTON HOME CARE AND HOSPICE","638 SOUTH BLUFF BOULEVARD","SAVANNA",IA,"610748409","045",42.5569992,-96.4755076,"5632443766","00-08","16-01",true,,,"07",,
"051762","1326045709","PASSAGE ENTERPRISES INCORPORATED","222 W FOOTHILL BLVD","GLENDORA",CA,"917413356",,34.135964319450636,-117.86714173414884,"6263359759","00-08",,,,,,,
"231576","1689628109","HEARTLAND HOME HEALTH CARE AND HOSPICE","564 PROGRESS STREET","WEST BRANCH",MI,"486619382","129",44.276408,-84.238613,"9893450651","00-08","16-01",true,,,"05",,
"521572","1013943893","GUNDERSEN LUTHERAN MEDICAL CENTER INC","1910 SOUTH AVE","LA CROSSE",WI,"546015467",,43.79502366471002,-91.24681736481106,"6087827300","00-08",,,,,,,
"191575","1982694295","GUARDIAN HOSPICE, INC.","825 LITTLE FARMS AVE","METAIRIE",LA,"700035913",,29.9764895,-90.2139417,"5047372244","00-08",,,,"191575",,,
"231550","1760435796","HEARTLAND HOME HEALTH CARE AND HOSPICE","1320 WALDO AVE","MOUNT PLEASANT",MI,"488585429","111",43.597646,-84.7668495,"9898920355","00-08","16-01",true,,,"05",,
"061551","1306831490","ARTEMIS HEALTHCARE SERVICES LLC","6041 S SYRACUSE WAY","GREENWOOD VILLAGE",CO,"801114716",,39.6049,-104.899601,"7204821988","00-08",,,,,,,
"071507","1548283674","HARTFORD HEALTHCARE AT HOME, INC","1290 SILAS DEANE HWY","WATERTOWN",CT,"067952655",,41.6062078,-73.1181658,"8602494862","00-08",,,,,,,
"061523","1184615585","ESTES PARK HEALTH HOSPICE","555 PROSPECT AVE","ESTES PARK",CO,"805176312","069",40.37150675,-105.51516102626249,"9705862273","00-08","16-01",true,,,"08",,
"221521","1437139664","VISITING NURSE ASSOCIATION AND HOSPICE OF WESTERN NEW ENGLAND, INC","30 CAPITAL DR STE A","WEST SPRINGFIELD",MA,"010891359",,42.13809525,-72.62351832623938,"4137946411","00-08",,,,,,,
"061501","1477556934","TRU COMMUNITY CARE - LAFAYETTE","2594 TRAILRIDGE DR E","LONGMONT",CO,"805013129","013",40.1672117,-105.1019287,"3034497740","00-08","16-01",true,,,"08",,
"051763","1154320299","LIGHTBRIDGE HOSPICE, LLC","6155 CORNERSTONE COURT EAST","SAN DIEGO",CA,"921214737",,32.7174202,-117.1627728,"8584582992","00-08",,,,,,,
"231586","1457459059","BARAGA COUNTY MEMORIAL HOSPITAL","510 MEMORIAL ST","L'ANSE",MI,"499461138",,46.76365746539204,-88.44725452897674,"9065244663","00-08",,,,,,,
"171546","1295773273","AVALON HOSPICE (TOPEKA)","5375 SW 7TH STREET SUITE 500","TOPEKA",KS,"666062553","177",39.0559557,-95.7460115,"7852466520","00-08","16-01",true,,"17-1546","07",,
"491552","1770576118","CENTRA BEDFORD HOSPICE","1621 WHITFIELD DR STE C","BEDFORD",VA,"245232636",,37.350453244897956,-79.5171007755102,"4342001816","00-08",,,,,,,
"391589","1619970266","COMPASSIONATE CARE HOSPICE, INC.","3350 PAXTON STREET, SUITE 5","HARRISBURG",PA,"171111464","043",40.2550757,-76.8583843,"7179444466","00-08","16-01",true,,,"03",,
"051778","1275536732","JHA GERIATRIC SERVICES INC","6345 BALBOA BLVD STE 315","ENCINO",CA,"913161517",,34.169706,-118.5011091,"8187743040","00-08",,,,,,,
"500140","1871573766","HOSPICE CARE CENTER HOSPITAL","1035 11TH AVENUE","VANCOUVER",WA,"986862628","015",45.6306954,-122.6744557,"3604258510","00-08","01-01",false,,,"10",4,"50D0882784"
"501535","1669554275","HORIZON HEALTH CARE LLC","608 E HOLLAND AVE","SPOKANE",WA,"992086070",,47.74386484826543,-117.40057737706783,"5094894581","00-08",,,,,,,
"051733","1992704506","HOSPICE OF THE NORTH COAST","2525 PIO PICO DR","CARLSBAD",CA,"920081568",,33.169832,-117.344919,"7604314100","00-08",,,,,,,
"381547","1144221128","KINDRED HOSPICE","4500 KRUSE WAY, SUITE 100","LAKE OSWEGO",OR,"970352562","005",45.41799995808721,-122.72310459200374,"5036352170","00-08","16-01",true,,,"10",,
"381515","1104936400","PARTNERS IN CARE, INC.","2075 NE WYATT CT","REDMOND",OR,"977562708",,44.2726203,-121.1739212,"5413833910","00-08",,,,,,,
"371613","1922007806","COMPANION HOSPICE, LLC","1314 E OKLAHOMA AVE","GUTHRIE",OK,"730443757",,35.87816417361144,-97.40952014576887,"4052823980","00-08",,,,,,,
"071505","1841336096","HOSPICE AT HOME","765 FAIRFIELD AVENUE","TRUMBULL",CT,"066114764","001",41.2428742,-73.2006687,"2033663821","00-08","16-01",true,,,"01",,
"251549","1386746105","HOSPICE COMPASSUS- MISSISSIPPI","119-D WEST PRESLEY BLVD","NATCHEZ",MS,"391205140","113",31.5604076,-91.403171,"6012500884","00-08","16-01",true,,,"04",,
"361614","1285673111","CROSSROADS HOSPICE OF CINCINNATI, LLC","4380 GLENDALE MILFORD ROAD","CINCINNATI",OH,"452423706","061",39.2513519,-84.3822318,"5137935070","00-08","16-01",true,,,"05",,
"391597","1407859978","COMPASSIONATE CARE HOSPICE OF GWYNEDD, INC.,","3331 STREET ROAD, SUITE 410","MEDIA",PA,"190632561","017",39.9167783,-75.387693,"2152453525","00-08","16-01",true,,,"03",,
"491500","1568485894","CAPITAL HOSPICE","2900 TELESTAR COURT","RICHMOND",VA,"232351961","059",37.5385087,-77.43428,"7035382065","00-08","16-01",true,,,"03",,
"521557","1205874443","MARSHFIELD MEDICAL CTR PARK FALLS HOSPICE","133 N LAKE AVE","PHILLIPS",WI,"545551220","099",45.68963656944136,-90.39646688422025,"7153394371","00-08","16-01",true,,,"05",,
"171534","1962454777","HEARTLAND HOME HLTH CARE & HOSPICE","5601 SW BARRINGTON COURT, SUITE 201","TOPEKA",KS,"666144275","177",39.049011,-95.677556,"7852716500","00-08","16-01",true,,,"07",,
"241513","1811930936","ALLINA HEALTH HOSPICE & PALLIATIVE CARE","2925 CHICAGO AVENUE SOUTH  MAIL ROUTE 34100","OWATONNA",MN,"550605506","053",44.0839937,-93.2261076,"6516359173","00-08","16-01",true,,"C05680","05",,
"061538","1093705949","HOSPICE OF THE PLAINS, INCORPORATED","32415 HIGHWAY 34","WRAY",CO,"807582212",,40.0758822,-102.223253,"9703324116","00-08",,,,,,,
"271506","1023066453","COMMUNITY HOSPITAL OF ANACONDA","305 W PENNSYLVANIA ST","ANACONDA",MT,"597112953",,46.13301663087248,-112.95635415436242,"4065638667","00-08",,,,,,,
"061522","1982652350","HOSPICE OF MONTEZUMA, INC.","512 N BROADWAY","CORTEZ",CO,"813212002",,37.3543767,-108.5890894,"9705654400","00-08",,,,,,,
"221563","1558496323","NEW ENGLAND HOSPICE II LLC","190 OLD DERBY STREET","HINGHAM",MA,"020434065",,42.1807101,-70.9170852970031,"7817492900","00-08",,,,,,,
"491530","1598760498","RIVERSIDE MIDDLE PENINSULA HOSPITAL INC","7358 MAIN ST","GLOUCESTER",VA,"230615130",,37.39844143504144,-76.52297558921333,"8046931111","00-08",,,,,,,
"491509","1326045535","RIVERSIDE HOSPITAL INC","12420 WARWICK BLVD STE 6E","NEWPORT NEWS",VA,"236063054",,37.068953490988235,-76.49279717448366,"7575942745","00-08",,,,,,,
"251537","1053350850","SOUTHERNCARE BILOXI","8195A WOOLMARKET RD","PICAYUNE",MS,"394665363",,30.5254692,-89.6795084,"8149779724","00-08",,,,"25-1537",,,
"331561","1275609190","PARKER JEWISH INSTITUTE FOR HEALTH CARE AND REHABILITATION","27111 76TH AVE","NEW HYDE PARK",NY,"110401436",,40.7352157,-73.6883239,"7182892100","00-08",,,,,,,
"161537","1215976709","CHEROKEE REGIONAL HOSPICE","212 E BOW DRIVE","CHEROKEE",IA,"510122173","035",42.76226604081633,-95.54926142857143,"7122256459","00-08","16-01",true,,,"07",,
"261541","1700950573","HARRISON COUNTY HEALTH DEPARTMENT & HARRISON COUNTY HOME HEALTH","1700 BETHANY AVENUE","BETHANY",MO,"644248363",,40.250271,-94.036403,"6604258319","00-08",,,,,,,
"351510","1386638179","JAMESTOWN REGIONAL MEDICAL CENTER HOSPICE","2422 20TH ST SW","JAMESTOWN",ND,"584016201","093",46.89028145,-98.74699366994264,"7019524847","00-08","16-01",true,,,"08",,
"191577","1386796944","LEGACY NATIONAL HOSPICE, LLC","100 SOUTH MAGNOLIA STREET","WINNFIELD",LA,"71483","127",31.925228,-92.63994,"3183023001","00-08","16-01",true,,,"06",,
"151572","1750329132","SOUTHERNCARE INDIANAPOLIS","1923 SOUTH LIBERTY DRIVE","TERRE HAUTE",IN,"478024584","105",39.4667025,-87.4139119,"8123348343","00-08","16-01",true,,"15-1572","05",,
"241552","1245225150","LAKEVIEW HOSPICE","5803 NEAL AVENUE NORTH","STILLWATER",MN,"550827608","163",45.0720304,-92.8433028,"6514303320","00-08","16-01",true,,,"05",,
"251541","1982622015","SOUTHERNCARE, INC.","278 COMMERCIAL DR","NEWTON",MS,"393459564",,32.3882835,-89.1317486,"6016837500","00-08",,,,"25-1541",,,
"241566","1689669871","NORTHFIELD HOSPITAL","1604 RIVERVIEW LN","NORTHFIELD",MN,"550573139",,44.44273328571428,-93.18487318367346,"5076461457","00-08",,,,,,,
"191570","1235179060","NEW CENTURY HOSPICE","17316 AIRLINE HWY, STE  P","PRAIRIEVILLE",LA,"707693377","005",30.303339,-90.9726239,"2256739949","00-08","16-01",true,,"19-1570","06",,
"011554","1639118425","SOUTHERNCARE GADSDEN","412 SOUTH 5TH STREET","GADSDEN",AL,"359014213","055",34.008582802766036,-86.00745349139693,"2565465568","00-08","16-01",true,,"01-1554","04",,
"191553","1548293285","HOSPICE COMPASSUS -MONROE","2213 JUSTICE AVENUE","MONROE",LA,"712013619","073",31.5593935,-87.3781004,"3183220062","00-08","16-01",true,,,"06",,
"341586","1891736336","COMMUNITY HOSPICE, LLC","1423 S GLENBURNIE RD","WILLIAMSTON",NC,"278922066",,35.8546039,-77.0555114,"2526728301","00-08",,,,"341586",,,
"371638","1598736712","PROFESSIONAL HOME HOSPICE OF MUSKOGEE, INC.","4815 S HARVARD AVE STE 300A","TULSA",OK,"741353055",,36.092182813559326,-95.94004122033898,"9186839400","00-08",,,"37-1638",,,,
"161519","1932279254","SIOUX CENTER HEALTH HOME CARE AND HOSPICE","1400 7TH AVENUE SE","SIOUX CENTER",IA,"512501199","167",43.062443,-96.165776,"7127228108","00-08","16-01",true,,,"07",,
"261503","1013093145","KANSAS CITY HOSPICE AND PALLIATIVE CARE","9001 STATE LINE ROAD, SUITE 300","NORTH KANSAS CITY",MO,"641163220","095",39.1432057,-94.5733988,"8163632600","00-08","16-01",true,,,"07",,
"451735","1891798427","AMEDISYS HOSPICE","2040 NORTH LOOP WEST SUITE 320","HOUSTON",TX,"770188123","201",29.811607475218718,-95.43588322515568,"7136673247","00-08","16-01",true,,,"06",,
"311533","1629164074","HMH RESIDENTIAL CARE INC","1340 CAMPUS PARKWAY SUITE A3","WALL TOWNSHIP",NJ,"077536830",,40.21230947778886,-74.1210190382945,"7327513750","00-08",,,,,,,
"331521","1508866286","HUDSON VALLEY HOSPICE","374 VIOLET AVE","POUGHKEEPSIE",NY,"126011034","027",41.7375337,-73.90830663332645,"8454852273","00-08","16-01",true,,,"02",,
"191568","1093766347","ST. JOSEPH HOSPICE","10615 JEFFERSON HWY","BATON ROUGE",LA,"708097230",,30.40873295,-91.06507975479882,"2257694810","00-08",,,,,,,
"191572","1093768749","GRACE HOSPICE OF NEW ORLEANS, LLC","108 W MAIN ST STE C-1","THIBODAUX",LA,"70301",,29.766344,-90.815957,"9854470095","00-08",,,,,,,
"371611","1083619969","LIFELINE HOSPICE, INC.","2210 S 16TH ST","CHICKASHA",OK,"730182848",,35.02832618367347,-97.95266769387756,"4052222051","00-08",,,,,,,
"241557","1376682781","ECUMEN","7541 9TH ST N # 200","OWATONNA",MN,"550602869",,44.0839937,-93.2261076,"6517140200","00-08",,,,,,,
"111607","1699715045","CROSSROADS HOSPICE OF ATLANTA, LLC","1957 LAKESIDE PARKWAY, SUITE 500","TUCKER",GA,"300845859","089",33.83944760590478,-84.23933449389942,"7702709898","00-08","16-01",true,,,"04",,
"191578","1508819251","THE CARPENTER HOSPICE OF NORTHWEST LOUISIANA LLC","364 N MAIN ST","SIBLEY",LA,"71073",,32.54270244120452,-93.29596678483307,"3183713673","00-08",,,,,,,
"211519","1194748558","HOSPICE OF CHARLES COUNTY","2505 DAVIS ROAD","WALDORF",MD,"206034100","017",38.6478394,-76.9731027,"3018615305","00-08","16-01",true,,,"03",,
"231552","1831199298","HOSPICE OF HILLSDALE COUNTY","124 S HOWELL ST","HILLSDALE",MI,"492422011",,41.9137614,-84.63189949999999,"5174375252","00-08",,,,,,,
"391604","1316995723","HOSPICE COMPASSUS - PHILADELPHIA","2 CAMPUS BOULEVARD","NEWTOWN SQUARE",PA,"190733243","045",39.980738,-75.424544,"6104361853","00-08","16-01",true,,,"03",,
"391621","1801850052","UPMC HOME HEALTHCARE OF WESTERN PA","491 ALLEGHENY BLVD","FRANKLIN",PA,"163232975",,41.3951666,-79.8221043,"8144326555","00-08",,,,,,,
"051794","1588722771","GRACE HOSPICE INC","1711 W TEMPLE ST","LOS ANGELES",CA,"900265421",,34.069422599999996,-118.26360707066908,"2139891600","00-08",,,,,,,
"311545","1497756993","KINDRED HOSPICE","242 OLD NEW BRUNSWICK ROAD, SUITE 140","PISCATAWAY",NJ,"088543999","023",40.553791281172586,-74.4741864656688,"7325628800","00-08","16-01",true,,,"02",,
"231564","1164423703","KINDRED HOSPICE","25925 TELEGRAPH ROAD, SUITE 102","SOUTHFIELD",MI,"480332527","125",42.47915202909953,-83.28562124668007,"2483565070","00-08","16-01",true,,,"05",,
"261600","1285696013","CARE ALTERNATIVES OF MISSOURI, LLC","783 NE ANDERSON LANE","LEES SUMMIT",MO,"640641247",,38.8856158,-94.2117959,"8165848111","00-08",,,"261600",,,,
"211542","1174576656","HEARTLAND HOSPICE SERVICES","12304 BALTIMORE AVE","BELTSVILLE",MD,"207051314",,39.05403558945594,-76.89361493630453,"2402641692","00-08",,,,,,,
"371514","1235168493","HEARTLAND HOSPICE SERVICES","2802 NORTH KICKAPOO AVE","SHAWNEE",OK,"748041798","125",35.3694929,-96.9287558,"4052146442","00-08","16-01",true,,,"06",,
"391649","1053493957","SPECIAL CARE HOSPICE, LLC","601 OFFICE CENTER DR","LEESPORT",PA,"195338869",,40.4470377,-75.9663222,"2155577300","00-08",,,,,,,
"051750","1568420974","COMPANION HOSPICE CARE, LLC","8130 FLORENCE AVE","DOWNEY",CA,"902403914",,33.95222926530612,-118.12757028571428,"5629442711","00-08",,,,,,,
"501503","1760475255","HOSPICE OF SPOKANE","121 S ARTHUR STREET","SPOKANE",WA,"992084169","063",47.65540293877551,-117.39517781632654,"5094560438","00-08","16-01",true,,"G8906799","10",,
"051646","1871589911","HOFFMANN HOSPICE OF THE VALLEY INC","8501 BRIMHALL RD","BAKERSFIELD",CA,"933122327",,35.368737016722406,-119.09423335117056,"6614101010","00-08",,,,,,,
"391570","1841222478","HEARTLAND HOSPICE SERVICES LLC","460 NORRISTOWN RD","BLUE BELL",PA,"194222323",,40.152331,-75.266289,"6109416700","00-08",,,"39-1570",,,,
"351500","1538253646","HOSPICE OF THE RED RIVER VALLEY","1701 38TH ST S","VALLEY CITY",ND,"580723642",,46.923313,-98.003155,"7013561500","00-08",,,,,,,
"461530","1700908274","AT HOME HOSPICE","45 NORTH 100 WEST","SALINA",UT,"846541116","041",38.95821402935348,-111.86189313878228,"4355293233","00-08","16-01",true,,,"08",,
"311541","1861454886","CARE ALTERNATIVES INC","1600 SAINT GEORGES AVE STE 312","RAHWAY",NJ,"070652789",,40.6081591,-74.2776468,"9089319080","00-08",,,,,,,
"491535","1477532984","FARRAR'S INC","537 MAIN ST","CLIFTON FORGE",VA,"244221177",,37.81621603854571,-79.82499590438444,"5408628820","00-08",,,,,,,
"051784","1871574251","ASSURANCE HOSPICE, INC.","444 E HUNTINGTON DR STE 103","ARCADIA",CA,"910066257",,34.1311559,-118.0642657,"6267933374","00-08",,,,,,,
"051528","1538168950","THE ELIZABETH HOSPICE INC","500 LA TERRAZA BLVD","TEMECULA",CA,"925902630",,33.4946353,-117.1473661,"7607372050","00-08",,,"051528",,,,
"531501","1295725976","CENTRAL WYOMING HOSPICE PROGRAM","319 S WILSON ST","CASPER",WY,"826012943",,42.84708484509492,-106.30663581648233,"3075774832","00-08",,,,,,,
"161544","1942202452","HOSPICE OF WASHINGTON COUNTY, INC.","948 E 11TH ST","WASHINGTON",IA,"523532633",,41.30910099061378,-91.68092307441783,"3196537321","00-08",,,,,,,
"491568","1265433718","KINDRED HOSPICE - HENRICO","1602 ROLLING HILLS DRIVE SUITE 204","PETERSBURG",VA,"238059307","087",37.227928,-77.4019268,"8042904300","00-08","16-01",true,,,"03",,
"351504","1477631745","SANFORD BISMARCK","910 18TH ST NW","MANDAN",ND,"585541612",,46.841448080808085,-100.90621762626263,"7013238400","00-08",,,,,,,
"031543","1649254517","HOSPICE OF HAVASU, INC.","232 LONDON BRIDGE RD BLDG A","LAKE HAVASU CITY",AZ,"864034647",,34.4838502,-114.3224495,"9284532111","00-08",,,,,,,
"231591","1114965688","SOUTHERNCARE, INC.","1911 WEST CENTER AVENUE","PORTAGE",MI,"490245367",,44.588321,-89.762922,"2693429308","00-08",,,,"23-1591",,,
"391540","1629045059","HOSPICE OF CRAWFORD COUNTY, INC.","766 LIBERTY ST","TITUSVILLE",PA,"163541669",,41.624468,-79.669652,"8143335403","00-08",,,,,,,
"141617","1578516290","PROMEDICA HOSPICE CARE (ROCKFORD)","6000 E STATE STREET, 1ST FLOOR","ROCKFORD",IL,"611082521","201",42.2676796,-88.9989669,"8153973691","00-08","16-01",true,,,"05",,
"011605","1184625717","KINDRED HOSPICE-MOBILE","2800 DAUPHIN STREET, SUITE 103","MOBILE",AL,"366062400","097",30.688166545454546,-88.10523239393939,"2514789900","00-08","16-01",true,,,"04",,
"131540","1154470490","GUARDIAN HOME CARE, INC.","435 S WHITLEY DR","TWIN FALLS",ID,"833013456",,42.5704456,-114.4602554,"2084524972","00-08",,,,,,,
"461531","1619968781","HEARTS FOR HOSPICE, LLC","677 QUALITY DR","AMERICAN FORK",UT,"840033305",,40.36229355344108,-111.78070199489393,"8017720243","00-08",,,,,,,
"391576","1104898709","CLARION FOREST VNA, INC","271 PERKINS RD","CLARION",PA,"162148535",,41.19005356410256,-79.39851746153846,"8142978400","00-08",,,,,,,
"061506","1639280548","CATHOLIC HEALTH INITIATIVES COLORADO","2551 W 84TH AVE FL 1","WESTMINSTER",CO,"800313807",,39.8366528,-105.0372046,"3035615000","00-08",,,,,,,
"061517","1568573442","PORTERCARE ADVENTIST HEALTH SYSTEM","6901 S HAVANA ST","CENTENNIAL",CO,"801123805",,39.59178765771812,-104.86689926845638,"3035615000","00-08",,,,,,,
"451772","1407047111","CUIDADO CASERO HOME HEALTH & HOSPICE","833 W EULESS BLVD.","EULESS",TX,"760404432","439",32.83093575460966,-97.09585263618217,"8176400646","00-08","16-01",true,,,"06",,
"151563","1336142785","FRANCISCAN HOSPICE CARE","1501 HARTFORD ST, SUITE G525","LAFAYETTE",IN,"479042134","157",40.42828555,-86.88029781225563,"7654236224","00-08","16-01",true,,,"05",,
"391641","1942206669","MOTHER TERESA HOSPICE, INC.","3950 BRODHEAD RD","MONACA",PA,"150613030",,40.6888824,-80.2865837,"7247752040","00-08",,,,,,,
"135059","1548355811","FRANKLIN COUNTY TRANSITIONAL CARE","44 N 1ST E","PRESTON",ID,"832631143",,42.097481,-111.873893,"2088520137","00-08",,,,,,,
"231585","1770774747","SCHOOLCRAFT MEMORIAL HOMECARE AND HOSPICE","115 LAKE STREET","MANISTIQUE",MI,"498541212","153",45.956537,-86.242722,"9063413284","00-08","16-01",true,,,"05",,
"051731","1477584126","FINE HOME HEALTH, INC.","2250 OBISPO AVE STE 101","SIGNAL HILL",CA,"907554027",,33.79759802947712,-118.15448291074962,"5624249405","00-08",,,,,,,
"231553","1942272422","LAKE SUPERIOR HOSPICE ASSOCIATION","914 WEST BARAGA","MARQUETTE",MI,"498554029","103",46.5435891863606,-87.41499796645338,"9062257760","00-08","16-01",true,,,"05",,
"391616","1194755595","CARING HOSPICE SERVICES","400 COMMERCE DRIVE  SUITE C","FORT WASHINGTON",PA,"190342617","091",40.1375436,-75.2018794,"2156197650","00-08","16-01",true,,,"03",,
"361620","1710931357","PROMEDICA HOSPICE CARE (COLUMBUS)","6500 BUSCH BLVD, SUITE 210","MARION",OH,"433025072","049",40.5885271,-83.1895249,"6148409856","00-08","16-01",true,,,"05",,
"231508","1740283787","HARBOR HOSPICE","1050 WEST WESTERN AVENUE, SUITE 400","MUSKEGON",MI,"494449733","121",43.2484584,-86.129351,"2317283442","00-08","16-01",true,,,"05",,
"331531","1750442513","HIGH PEAKS HOSPICE AND PALLIATIVE CARE, INC.","309 COUNTY ROUTE 47 STE 7","SARANAC LAKE",NY,"129835405",,44.329497,-74.131279,"5188919631","00-08",,,,,,,
"371625","1689603854","HEARTLAND HOSPICE SERVICES","500 VILLAGE BLVD SUITE C","MCALESTER",OK,"745012059","121",34.9093338,-95.7335267,"9183020700","00-08","16-01",true,,,"06",,
"221536","1801990452","SOUTHCOAST VISITING NURSE ASSOCIATION, INC","200 MILL ROAD SUITE 120","FAIRHAVEN",MA,"027195252",,41.650636,-70.88137185966522,"5089733210","00-08",,,,,,,
"251585","1811900467","HOSPICE CARE OF MISSISSIPPI, LLC","133 MAYFAIR RD","PICAYUNE",MS,"394662016",,30.5254692,-89.6795084,"6012648691","00-08",,,,,,,
"261598","1033238233","LEGACY HOSPICE, LLC","607 BILLINGTON ST # B","POPLAR BLUFF",MO,"639018139",,36.7568327,-90.3957115,"5738884946","00-08",,,,,,,
"551506","1598774754","REVITAL CARE HOSPICE, INC.","711 N ALVARADO ST STE 108","ARCADIA",CA,"910063253",,34.1362075,-118.0401497,"2134848254","00-08",,,,,,,
"011607","1366407520","COMFORT CARE HOSPICE OF PELHAM","245 CAHABA VALLEY PKWY, SUITE 110","TUSCALOOSA",AL,"354012917","117",33.2095614,-87.5675258,"2056850421","00-08","16-01",true,,,"04",,
"671565","1780627158","OASIS HOSPICE","1120 MEDICAL PLAZA DRIVE SUITE 240","CONROE",TX,"773856193","339",30.3118769,-95.4560512,"2816072310","00-08","16-01",true,,,"06",,
"521537","1356316160","PROHEALTH HOME CARE INC","1020 JAMES DR","WAUKESHA",WI,"531882446",,43.08410762017481,-88.36119688214424,"2629287444","00-08",,,,,,,
"401564","1053537431","HOSPICIO DIVINAS MANOS","ROAD 2 KM 46 4 BO CAMPO ALEGRE","MANATI",PR,"00674","091",18.4271372,-66.4929477,"7878848423","00-08","16-01",true,,,"02",,
"461534","1225227390","APPLEGATE HOSPICE","1490 EAST FOREMASTER DRIVE, SUITE 340","ST GEORGE",UT,"847901764","053",37.104153,-113.5841313,"4356281569","00-08","16-01",true,,,"08",,
"051547","1205946555","EAST BAY INTEGRATED CARE INC","3470 BUSKIRK AVE","PLEASANT HILL",CA,"945234316",,37.938738,-122.059496,"9258875678","00-08",,,,,,,
"051593","1053312033","KINDRED HOSPICE","735 CARNEGIE DRIVE SUITE 240","VICTORVILLE",CA,"923958300","071",34.5361067,-117.2911565,"9098885000","00-08","16-01",true,,,"09",,
"261596","1609885136","GRACE HOSPICE LLC","9233 WARD PKWY STE 201","KANSAS CITY",MO,"641143304",,38.9597436991367,-94.59770391811156,"8164444611","00-08",,,,,,,
"527147","1053314252","ALLIANCE HOME CARE","10220 PRAIRIE RIDGE BLVD","PLEASANT PRAIRIE",WI,"531581946","059",42.5617664712053,-87.9294720003929,"2626524400","00-08","05-01",true,,,"05",,
"051771","1679570386","SILVERADO HOSPICE INC","6400 OAK CANYON DRIVE, SUITE 150","IRVINE",CA,"926185233","059",33.6856969,-117.8259819,"9492407744","00-08","16-01",true,,,"09",,
"491567","1891727053","HEARTLAND HOSPICE SERVICES","10800 MIDLOTHIAN TURNPIKE SUITE 303","NORTH CHESTERFIELD",VA,"232354700","035",37.4421355,-77.6674247,"8042880235","00-08","16-01",true,,,"03",,
"161505","1396731535","IOWA RIVER HOSPICE INC","502 PLAZA HEIGHTS RD","MARSHALLTOWN",IA,"501584544",,42.015809148614366,-92.90370656217377,"6417537704","00-08",,,,"161505",,,
"361554","1598738718","CLEVELAND CLINIC HOSPICE","6801 BRECKSVILLE ROAD, SUITE 10","INDEPENDENCE",OH,"441315057","035",41.378493,-81.63783873308682,"2164449819","00-08","16-01",true,,,"05",,
"171554","1295761468","PROGRESSIVE HOME HEALTH CARE INC","3500 N ROCK RD","WICHITA",KS,"672261331",,37.7480751,-97.2435407,"3166915050","00-08",,,,,,,
"221566","1053379388","CARE ALTERNATIVES OF MASSACHUSETTS, LLC","100 LOCKE DR","MARLBOROUGH",MA,"017527235",,42.34926605,-71.580845441892,"5082298390","00-08",,,"22-1566",,,,
"211503","1316909203","MONTGOMERY HOSPICE INC","1355 PICCARD DRIVE, SUITE 100","ROCKVILLE",MD,"208504317","031",39.1052082,-77.17799585157246,"3019214400","00-08","16-01",true,,,"03",,
"331515","1164426433","HOSPICE OF JEFFERSON COUNTY, INC","1398 GOTHAM STREET","WATERTOWN",NY,"136019704",,43.955576,-75.8958078,"3157887323","00-08",,,,,,,
"041564","1689657470","ARKANSAS HOSPICE, INC.","14 PARKSTONE CIR","SEARCY",AR,"721434111",,35.9018987,-92.7098744,"5017483333","00-08",,,,,,,
"211507","1003813718","SEASONS HOSPICE & PALLIATIVE CARE OF MARYLAND LLC","5457 TWIN KNOLLS RD","LARGO",MD,"207745363",,38.8824538,-76.82857456500106,"8885236000","00-08",,,,,,,
"921757","1538218078","QUALITY HOSPICE CARE INCORPORATION","18856 AMAR ROAD","WALNUT",CA,"917897102",,34.02880608593245,-117.89045630517394,"6266678609","00-08",,,,,,,
"501519","1255418430","HEARTLINKS","3920 OUTLOOK RD","SUNNYSIDE",WA,"989449202",,46.33105634531349,-120.02446355319846,"5098371676","00-08",,,,"G8922460",,,
"261500","1487616371","HOSPICE COMPASSUS-SOUTHWEST MISSOURI","1341 W BATTLEFIELD STREET, SUITE 120","SPRINGFIELD",MO,"658074101","077",37.1968298,-93.2946576,"4178820453","00-08","16-01",true,,,"07",,
"511505","1093810822","HOSPICE COMPASSUS - SOUTHERN WEST VIRGINIA","1330 MERCER STREET","WELCH",WV,"248012429","055",37.4334401,-81.585092,"3044312000","00-08","16-01",true,,,"03",,
"331506","1013921675","GENESEE REGION HOME CARE ASSOCIATION INC.","330 MONROE AVE","ROCHESTER",NY,"146264209",,43.148802599999996,-77.5970629732808,"5852141000","00-08",,,"33-1506",,,,
"171528","1164475836","HEARTLAND HOME HLTH CARE/HOSPI","2872 N RIDGE ROAD SUITE 122","WICHITA",KS,"672051144","173",37.7360475,-97.4246097,"3167887626","00-08","16-01",true,,,"07",,
"501505","1174693139","SKAGIT HOSPICE SERVICES, LLC","227 FREEWAY DR","MOUNT VERNON",WA,"982732887",,48.4229453,-122.3378549,"3608145550","00-08",,,,"50-1505",,,
"421546","1013946144","PROMEDICA HOSPICE-CHARLESTON","1470 TOBIAS GADSON BLVD, SUITE 203","CHARLESTON",SC,"294074925","019",32.80960987698599,-80.03000424081941,"8437667646","00-08","16-01",true,,,"04",,
"311554","1477589638","CARING HOSPICE SERVICES OF CENTRAL JERSEY","1090 KING GEORGES POST ROAD #703","EDISON",NJ,"088373722","023",40.538457,-74.39450186737218,"7326619373","00-08","16-01",true,,,"02",,
"171544","1023017605","HOLTON COMMUNITY HOSP HOME HEALTH & HOSPICE AGENCY","129 W 4TH STREET","HOLTON",KS,"664361701","085",39.463322436919526,-95.73522314300544,"7853649617","00-08","16-01",true,,,"07",,
"467108","1366496846","SUPERIOR HOME CARE","184 EAST 5900 SOUTH","MURRAY",UT,"841077230","035",40.64264506723174,-111.8858868008179,"8012543200","00-08","05-01",true,,,"08",,
"391610","1609890870","PROMEDICA HOSPICE CARE (PITTSBURGH)","750 HOLIDAY DR FOSTER PLAZA 9 STE 110","SOMERSET",PA,"155017019","003",39.9980022,-79.0415528,"4129282126","00-08","16-01",true,,,"03",,
"491543","1154482313","SENTARA HOME CARE SERVICES - NEWPORT NEWS","11844 ROCK LANDING DRIVE, SUITE C","NEWPORT NEWS",VA,"236064202","700",37.0953421,-76.4665388,"7577360700","00-08","16-01",true,,,"03",,
"361617","1104864198","SOUTHERN CARE YOUNGSTOWN","5401 ASHLEY CIRCLE, SUITE E","WINTERSVILLE",OH,"439533779","099",40.3753457,-80.7036894,"3307978940","00-08","16-01",true,,"36-1617","05",,
"231562","1114014305","HOSPICE COMPASSUS - DETROIT","30665 NORTHWESTERN HWY, SUITE 150","FARMINGTON HILLS",MI,"483343146","125",42.4853125,-83.3771553,"8103559900","00-08","16-01",true,,,"05",,
"491545","1770517369","HEARTLAND HOME HEALTH CARE & HOSPICE","5041 CORPORATE WOODS DRIVE, SUITE 200","VIRGINIA BEACH",VA,"234624375","810",36.8330355,-76.15511638273182,"7574909323","00-08","16-01",true,,,"03",,
"441511","1992754436","HOSPICE OF CUMBERLAND COUNTY INC","30 E ADAMS ST","CROSSVILLE",TN,"385554802",,35.94540486578148,-85.02395051123368,"9314844748","00-08",,,,,,,
"051686","1366494502","ALL NATIONS HOSPICE INC","3325 WILSHIRE BLVD","CONCORD",CA,"94520","037",37.9768525,-122.0335624,"2137389741","00-08","16-01",true,,,"09",,
"191563","1750433025","SERENITY HOSPICE SERVICES LLC","3712 MACARTHUR BLVD","METARIE",LA,"700023709",,30.70926,-91.147498,"5043663996","00-08",,,,,,,
"241554","1134173446","HEARTLAND HOME HEALTH CARE AND HOSPICE","2685 LONG LAKE ROAD, SUITE 105","ROSEVILLE",MN,"551131117","123",45.0216527368421,-93.1929372631579,"6516336522","00-08","16-01",true,,,"05",,
"231582","1699728980","HEARTLAND HOME HEALTH CARE AND HOSPICE","3230 EAGLE PARK DRIVE NE, SUITE 200","TRAVERSE CITY",MI,"496847041","081",44.7606441,-85.6165301,"6169560636","00-08","16-01",true,,,"05",,
"151586","1952319113","KINDRED HOSPICE","37 SOUTH PARK BOULEVARD","GREENWOOD",IN,"461438838","081",39.61678437871891,-86.07793741110838,"3177880300","00-08","16-01",true,,,"05",,
"211514","1639105190","JOSEPH RICHEY HOUSE, INC","828 N EUTAW ST","BALTIMORE",MD,"212014624",,39.2997929,-76.6217889446748,"4105232150","00-08",,,,,,,
"331513","1285638775","CAREFIRST NY INC","3805 MEADS CREEK RD","PAINTED POST",NY,"148709509",,42.18485225,-77.14262568548364,"6079623100","00-08",,,,,,,
"551518","1326232810","ACTIVE HOSPICE CARE INC.","704 S VICTORY BLVD STE 100","BURBANK",CA,"915022471",,34.16862483552754,-118.31030689817348,"8188488222","00-08",,,,,,,
"391657","1700826211","KINDRED HOSPICE","1701 12TH AVE BLDG D","ALTOONA",PA,"166023100","013",40.518681,-78.394736,"8149449724","00-08","16-01",true,,"39-1657","03",,
"141619","1790880060","PROMEDICA HOSPICE CARE (FRANKFORT)","20960 S FRANKFORT SQUARE ROAD, UNIT C","FRANKFORT",IL,"604235127","197",41.4958665,-87.8486613,"8154697100","00-08","16-01",true,,,"05",,
"461500","1316996457","CNS COMMUNITY HOSPICE","2830 SOUTH REDWOOD ROAD, SUITE A","WEST VALLEY CITY",UT,"841195626","035",40.709333400000006,-111.93974925052024,"8012336100","00-08","16-01",true,,,"08",,
"191565","1821002122","LOUISIANA HOSPICE AND PALLIATIVE CARE","1101 HUDSON LANE , SUITE D","MONROE",LA,"712016049","073",32.51483,-92.114331,"3183222235","00-08","16-01",true,,,"06",,
"441514","1104816966","HOSPICE OF WEST TENNESSEE","1804 HWY 45 BYPASS DUFFY TOWERS SUITE 100","JACKSON",TN,"383054436","113",35.6144446,-88.8177418,"7316644220","00-08","16-01",true,,,"04",,
"231588","1720031883","HEARTLAND HOME HEALTH CARE AND HOSPICE","865 SOUTH CEDAR STREET","MASON",MI,"488542064","065",42.574063104817185,-84.45241467603019,"5172440404","00-08","16-01",true,,,"05",,
"061552","1730295593","LINCOLN COMMUNITY HOSPITAL","111 6TH ST","HUGO",CO,"808210248",,39.13825745,-103.47337687214554,"7197432797","00-08",,,,,,,
"501516","1508978388","CENTRAL WASHINGTON HOSPITAL HOMECARE SERVICES","1020 N WENATCHEE AVENUE","WENATCHEE",WA,"988011532","007",47.43674187244889,-120.32144873760141,"5096656049","00-08","16-01",true,,,"10",,
"051574","1881680569","SOUTHERN CALIFORNIA HOME HEALTH AND HOSPICE","730 MAGNOLIA AVENUE","CORONA",CA,"928793117","065",33.85796995,-117.55390420153932,"9517367200","00-08","16-01",true,,,"09",,
"241575","1437196441","HEARTLAND HOME HLTH C & HOSPICE","1257 2ND STREET NORTH","SAUK RAPIDS",MN,"563794595","009",45.59831610649299,-94.15455678068915,"3206541136","00-08","16-01",true,,,"05",,
"391511","1699707695","VISITING NURSE ASSOCIATION OF INDIANA COUNTY","850 HOSPITAL RD","INDIANA",PA,"157013665",,40.60908163289401,-79.15895329066521,"7244638711","00-08",,,,,,,
"497602","1356410088","BUCHANAN COUNTY HOSPICE, INC","ROUTE 460","GRUNDY",VA,"246147182",,37.2778886,-82.0990223,"2769356655","00-08",,,,,,,
"331544","1548264088","GOOD SHEPHERD HOSPICE","110 BI-COUNTY BLVD.","ROCKVILLE CENTRE",NY,"115701000",,40.6574186,-73.6450664,"6314656300","00-08",,,,,,,
"551529","1316168016","CARECHOICES HOSPICE AND PALLIATIVE SERVICES, INC.","20 CORPORATE PARK STE 300","IRVINE",CA,"926065189",,33.689795950000004,-117.83035614986557,"9497778600","00-08",,,"551529",,,,
"241542","1275551996","UNITY FAMILY HEALTHCARE","815 2ND ST SE","LITTLE FALLS",MN,"563453505",,45.967443,-94.36227478732982,"3206315575","00-08",,,,,,,
"191586","1750399382","LOUISIANA HOSPICE AND PALLIATIVE CARE","1322 ELTON ROAD, SUITE G","JENNINGS",LA,"705464100","053",30.243044,-92.663399,"3376163482","00-08","16-01",true,,,"06",,
"051503","1245264134","SUTTER VISITING NURSE ASSOCIATION AND HOSPICE","2800 LEAVENWORTH STREET, SUITE 350B","SAN FRANCISCO",CA,"941331121","075",37.806997,-122.418828,"4157494201","00-08","16-01",true,,,"09",,
"261564","1740376219","HOWARD COUNTY HOME HEALTH AND HOSPICE","101 FURR ST","FAYETTE",MO,"652481069",,39.139815,-92.689353,"6602482100","00-08",,,,,,,
"221559","1841271087","BROAD REACH HOSPICE","1455 MAIN STREET","CHATHAM",MA,"026332083","001",41.6827332,-69.98755685244114,"5089454601","00-08","16-01",true,,,"01",,
"461535","1831196328","LEGACY HEALTH CARE INC","3135 N FAIRFIELD RD","LAYTON",UT,"840415680",,41.106083081590114,-111.95021658224753,"8017719099","00-08",,,,,,,
"441584","1790788040","CARIS HEALTHCARE","242 HERITAGE PARK DR","MURFREESBORO",TN,"371291551",,35.87315346258491,-86.3902294988812,"6152178720","00-08",,,,,,,
"391638","1154350346","PROMEDICA HOSPICE CARE (YORK)","3417C CONCORD ROAD","YORK",PA,"174029001","133",39.9930993,-76.6526098,"7178401002","00-08","16-01",true,,,"03",,
"261587","1295717569","MERCY HOSPICE SOUTH-DE GREEFF HOSPICE HOUSE","10024 KENNERLY ROAD","SAINT LOUIS",MO,"631282106","189",38.5074325,-90.3855916,"3145257390","00-08","16-01",true,,,"07",,
"391637","1407885593","PROMEDICA HOSPICE CARE (ALLENTOWN)","951 MARCON BLVD SUITE 3","WYOMISSING",PA,"196101190","077",40.329537,-75.9652117,"6102660134","00-08","16-01",true,,,"03",,
"391550","1417917097","SPIRITRUST LUTHERAN HOME CARE & HOSPICE","2700 LUTHER DR","YORK",PA,"174067086",,39.7499575,-76.6792598,"7172648178","00-08",,,,,,,
"371538","1851493944","GOOD SHEPHERD HOSPICE INC","4350 WILL ROGERS PARKWAY","OKLAHOMA CITY",OK,"731081840",,35.452160574022784,-97.59774746937698,"4059430903","00-08",,,,,,,
"051775","1407856487","PACIFIC HOSPICE INC.","1998 N ARROWHEAD AVE","SAN BERNARDINO",CA,"924054116",,34.13328749180328,-117.2897744590164,"9098828466","00-08",,,,,,,
"311551","1336141266","MOORESTOWN VISITING NURSE ASSOCIATION INC","300 HARPER DR","MARLTON",NJ,"080533133",,39.9005585,-74.93389105589023,"8565521300","00-08",,,,,,,
"551534","1841410164","SILVERADO HOSPICE-LOS ANGELES","15821 VENTURA BLVD SUITE 515","ENCINO",CA,"914362937","037",34.157949,-118.4951625,"8188484048","00-08","16-01",true,,,"09",,
"391575","1578568747","UPMC SOMERSET IN TOUCH HOSPICE","1474 NORTH CENTER AVE","SOMERSET",PA,"155011632","111",40.03200554138693,-79.07539272672003,"8144435047","00-08","16-01",true,,,"03",,
"051768","1730163148","PACIFIC HOSPICE CARE CORPORATION","17141 VENTURA BLVD STE 201","ENCINO",CA,"913164038",,34.16044944868749,-118.50639261831948,"2133823825","00-08",,,"8025635",,,,
"101528","1003872276","AVOW HOSPICE INC","1095 WHIPPOORWILL LN","NAPLES",FL,"341053847",,26.1421976,-81.7942944,"2392614404","00-08",,,,,,,
"051601","1902907041","HOPE HOSPICE INC","6377 CLARK AVE STE 100","DUBLIN",CA,"945683024",,37.70306105,-121.92033073796529,"9258298770","00-08",,,,,,,
"371628","1366423535","ADVANTAGE HOME HEALTH & HOSPICE","20775 292ND ST","POTEAU",OK,"749537223",,35.0568053,-94.6199966,"9186470653","00-08",,,,"371628",,,
"051779","1558405134","VITAS HEALTHCARE CORPORATION OF CALIFORNIA","2710 GATEWAY OAKS DRIVE, SUITE 100 SOUTH","SACRAMENTO",CA,"95833","067",38.616077175553315,-121.51754459949021,"9169257010","00-08","16-01",true,,,"09",,
"041574","1548324189","CARING HANDS HOSPICE","2000 HARRISON ST STE E","WALNUT RIDGE",AR,"724761004",,36.0680241,-90.9561004,"8706980505","00-08",,,,,,,
"391583","1881629228","MAIN LINE HEALTH HOMECARE AND HOSPICE","240 N RADNOR CHESTER RD","RADNOR",PA,"190872121",,40.0463001,-75.3595487,"4845801400","00-08",,,,,,,
"471504","1245381144","ORLEANS ESSEX VNA & HOSPICE, INC.","46 LAKEMONT RD","NEWPORT",VT,"058559690",,44.955182848211585,-72.1982580442337,"8023345213","00-08",,,,,,,
"361589","1801840046","PROMEDICA HOSPICE CARE DAYTON","580 LINCOLN PARK BLVD, SUITE 320","KETTERING",OH,"454293493","113",39.69689944663139,-84.1615544793947,"9372996980","00-08","16-01",true,,,"05",,
"441586","1609879956","CARIS HEALTHCARE","2525 PERIMETER PLACE DR","NASHVILLE",TN,"372143691",,36.14720376249885,-86.68159065312818,"6153669952","00-08",,,,,,,
"441594","1982656922","CARIS HEALTHCARE","2308A MEMORIAL BLVD","SPRINGFIELD",TN,"371723929","147",36.4921298,-86.8738503,"6153843833","00-08","16-01",true,,,"04",,
"391656","1063498541","HOSPICE OF THE SACRED HEART","53 GLENMAURA NATIONAL BLVD STE 120","MOOSIC",PA,"185072160",,41.3575816,-75.6734949,"5707062400","00-08",,,,,,,
"161521","1083663397","GUNDERSEN PALMER LUTHERAN HOSP AND CLINICS-HOSPICE","200 JEFFERSON STREET","WEST UNION",IA,"521751024","065",42.967681,-91.813245,"5634226267","00-08","16-01",true,,,"07",,
"231543","1134124613","BLUE WATER HOSPICE","3403 LAPEER RD","PORT HURON",MI,"480605912","147",42.978192,-82.456961,"8109828809","00-08","16-01",true,,,"05",,
"051690","1093769341","HEARTLAND HOSPICE SERVICES","2005 DE LA CRUZ BOULEVARD, SUITE 271","SANTA CLARA",CA,"950503031","085",37.36078022863745,-121.94140215470102,"4084507850","00-08","16-01",true,,,"09",,
"331520","1831277227","HOSPICE-VNSW WPHC INC","311 NORTH ST","WHITE PLAINS",NY,"106043508",,41.026235799999995,-73.74719530637194,"9146821484","00-08",,,,,,,
"391566","1699757088","VNA HEALTH SYSTEM","21 W INDEPENDENCE ST","SHAMOKIN",PA,"178725313",,40.79115109090909,-76.55734345454546,"5706488989","00-08",,,,,,,
"481501","1629055066","CONTINUUM CARE, INC.","4040 EST LA GRANDE PRINCESS","CHRISTIANSTED",VI,"008205213",,17.7439481,-64.7079823,"3407185683","00-08",,,,,,,
"041568","1033238241","LEGACY HOSPICE, LLC","901 WEST KEISER AVE","WYNNE",AR,"723964022",,35.224533,-90.7867798,"8705639995","00-08",,,,,,,
"387000","1770562670","COUNTY OF HARNEY","415 N FAIRVIEW AVE","BURNS",OR,"977201417",,43.58890628633882,-119.06047896766677,"5415738360","00-08",,,,,,,
"451754","1306837893","GRACE PRESBYTERIAN MINISTRIES, INC.","12477 MERIT DR","DALLAS",TX,"752512344",,32.9172011,-96.77382085970306,"9722395300","00-08",,,,,,,
"491565","1659300564","HEARTLAND HOSPICE SERVICES - FAIRFAX","3900 JERMANTOWN RD STE 460","WARRENTON",VA,"201862660","600",38.7135498,-77.795367,"7032738693","00-08","16-01",true,,,"03",,
"121506","1265428510","NORTH HAWAII HOSPICE, INC.","65-1328 KAWAIHAE RD","KAMUELA",HI,"967438448",,20.020452,-155.66391,"8088857547","00-08",,,,,,,
"361584","1013968635","HEARTLAND HOME HEALTH CARE AND HOSPICE","4807 ROCKSIDE ROAD, SUITE 110","INDEPENDENCE",OH,"441312140","035",41.39893465,-81.65740278373396,"2165200765","00-08","16-01",true,,,"05",,
"261511","1891705547","BJC HOSPICE","1935 BELTWAY DRIVE","SULLIVAN",MO,"630802359","189",40.1993002,-93.1140993,"3148725050","00-08","16-01",true,,,"07",,
"521522","1306990221","SSM HEALTH AT HOME HOSPICE","1600 JEFFERSON ST  SUITE 101","MINERAL POINT",WI,"535658413","111",42.8601834,-90.179547,"8773564514","00-08","16-01",true,,,"05",,
"131545","1073514329","HEART 'N HOME HOSPICE AND PALLIATIVE CARE, LLC","1107 NW 11TH STREET","MERIDIAN",ID,"836427552",,43.614101500000004,-116.4083885,"2084522662","00-08",,,,,,,
"061511","1427090968","HOSPICE DEL VALLE, INC.","514 MAIN ST","ALAMOSA",CO,"811012644",,37.468085,-105.86416971428571,"7195899019","00-08",,,,,,,
"401530","1932108776","ST. LUKE'S EPISCOPAL CHURCH HOME CARE PROGRAM","917 AVE TITO CASTRO","TRUJILLO ALTO",PR,"009780912",,18.3542408,-66.007377,"7878434185","00-08",,,,,,,
"051769","1164590089","OPTIMAL HOSPICE, INC.","6780 N WEST AVE","VISALIA",CA,"932776129",,36.3302284,-119.2920585,"5593204000","00-08",,,,,,,
"161562","1972566875","LAKES REGIONAL HEALTHCARE HOSPICE","1900 41ST ST","SPIRIT LAKE",IA,"513601184","059",43.4224868,-95.1024729,"7123368709","00-08","16-01",true,,,"07",,
"031500","1588682405","HOSPICE OF THE VALLEY","1510 E FLOWER ST","PHOENIX",AZ,"850145698",,33.48546593877551,-112.04923334693878,"6022877000","00-08",,,,,,,
"031517","1528086451","HOSPICE OF THE VALLEY","16117 N 76TH ST","SCOTTSDALE",AZ,"852601793",,33.63221903250383,-111.91669950542375,"4806636500","00-08",,,,,,,
"031505","1366460289","HOSPICE OF THE VALLEY","2020 E WOODSIDE CT","GILBERT",AZ,"852977339",,33.28765755,-111.7464480020391,"4807305980","00-08",,,,,,,
"031515","1043238975","HOSPICE OF THE VALLEY","9435 W PEORIA AVE","SURPRISE",AZ,"853798736",,33.5806781,-112.4613841,"6235834848","00-08",,,,,,,
"221524","1104884642","HEALTH ALLIANCE HOME HEALTH AND HOSPICE","60 HOSPITAL ROAD","LEOMINSTER",MA,"014533791","027",42.54031915,-71.76312990486304,"9783426013","00-08","16-01",true,,,"01",,
"421545","1457380586","HEARTLAND HOSPICE SERVICES","2411 NORTH OAK STREET #108","MYRTLE BEACH",SC,"295773164","051",33.70746929246018,-78.87139115975896,"8434440813","00-08","16-01",true,,,"04",,
"151573","1023061686","PROMEDICA HOSPICE","931 E 86TH ST STE 208","TERRE HAUTE",IN,"478024439","097",39.4667025,-87.4139119,"3172513012","00-08","16-01",true,,,"05",,
"211533","1568415032","HEARTLAND HOSPICE SERVICES","7001 JOHNNYCAKE RD STE 204","WINDSOR MILL",MD,"212442420","005",39.3328346,-76.7594551,"4102472900","00-08","16-01",true,,,"03",,
"401552","1447339130","HOSPICIO SENDERO DE LUZ, INC","9 CALLE GEORGETTI","COMERIO",PR,"007822542",,18.21734,-66.227064,"7878755701","00-08",,,,,,,
"231569","1265485148","HEARTLAND HOME HEALTH CARE AND HOSPICE","26211 CENTRAL PARK BLVD, SUITE 600","SOUTHFIELD",MI,"480764161","125",42.48677996523076,-83.2448011609783,"2489481019","00-08","16-01",true,,,"05",,
"261602","1053367318","SEASONS HOSPICE INC","1831 W MELVILLE RD","SPRINGFIELD",MO,"658031675",,37.2430819623962,-93.31482137455244,"4178905533","00-08",,,,,,,
"551576","1720147689","ALPHA HOSPICE CARE","373 VAN NESS AVENUE, SUITE 260","TORRANCE",CA,"905016240","037",33.845568,-118.318452,"3107710838","00-08","16-01",true,,,"09",,
"171505","1356382337","OLATHE HEALTH HOSPICE CENTER","20920 W 151ST STREET, SUITE 204","OLATHE",KS,"660617223","091",38.855043800000004,-94.82791538336261,"9133248515","00-08","16-01",true,,,"07",,
"191500","1346247400","HOSPICE OF ACADIANA, INC.","2600 JOHNSTON ST","LAFAYETTE",LA,"705033269",,30.20836,-92.036621,"3372371332","00-08",,,,,,,
"151597","1497976393","HEART TO HEART HOSPICE OF INDIANAPOLIS LLC","2611 WATERFRONT PARKWAY EAST DRIVE SUITE 200","INDIANAPOLIS",IN,"462142057","097",39.80298118243243,-86.27967441891893,"3177187422","00-08","16-01",true,,,"05",,
"011622","1730193723","HOSPICE OF NORTH ALABAMA, LLC","2905 WESTCORP BLVD","HUNTSVILLE",AL,"358056411",,34.71075356122449,-86.60311471428572,"2565334300","00-08",,,,,,,
"071533","1821131756","VITAS HEALTHCARE CORPORATION","199 PARK RD EXTENSION, SUITE 102","WATERBURY",DE,"06706","009",41.5871832,-93.6938486,"2034373111","00-08","16-01",true,,,"01",,
"051765","1972585180","ROSE DOVE","1420 N CLAREMONT BLVD","CLAREMONT",CA,"917113583",,34.0966764,-117.7197785,"9096240100","00-08",,,,,,,
"451756","1376514299","HEART TO HEART HOSPICE OF TYLER LTD","7925 S BROADWAY AVENUE SUITE 1140","TYLER",TX,"757035227","423",32.26267059895918,-95.307628690331,"9035936619","00-08","16-01",true,"1=========2000",,"06",,
"051777","1538141841","HOSPICE CARE OF THE WEST, LLC","27442 PORTOLA PKWY","IRVINE",CA,"926184347",,33.7302249,-117.7540908,"9492825948","00-08",,,,"051777",,,
"151587","1932104247","HEART TO HEART HOSPICE OF CENTRAL INDIANA LLC","1385 N BALDWIN AVE","MUNCIE",IN,"473034636","053",40.1936892,-85.3865271,"7656770684","00-08","16-01",true,,,"05",,
"551521","1235317355","CORINTHIAN HOSPICE, INC","133 N ALTADENA DRIVE SUITE 306","PASADENA",CA,"911077325","037",34.14863934693877,-118.09871842857143,"6269264251","00-08","16-01",true,,,"09",,
"551530","1629270699","EVERGREEN HOSPICE CARE, INC","17215 STUDEBAKER ROAD, SUITE 100","CERRITOS",CA,"907032521","037",33.874698789785185,-118.09982885459172,"5628659006","00-08","16-01",true,,,"09",,
"441533","1104884493","AMEDISYS HOSPICE, AN ADVENTA COMPANY","7205 LEE HIGHWAY SUITE B","MONTEAGLE",TN,"373567032","065",35.2298502,-85.8270247,"4234990018","00-08","16-01",true,,,"04",,
"441534","1518925783","AMEDISYS HOSPICE, AN ADVENTA COMPANY","1500 WEST ELK AVENUE SUITE 202","KINGSPORT",TN,"376647387","019",36.550238,-82.5594293,"4235470852","00-08","16-01",true,,,"04",,
"491513","1174581466","AMEDISYS HOSPICE CARE","5221 VALLEY PARK DRIVE SUITE 2","ROANOKE",VA,"240193004","023",37.333254,-79.990059,"5402658509","00-08","16-01",true,,,"03",,
"331532","1013972751","HOSPICE CARE NETWORK","99 SUNNYSIDE BLVD","WOODBURY",NY,"117972946",,40.79985625,-73.47872420718284,"5168327100","00-08",,,,,,,
"451629","1023105210","HOSPICE COMPASSUS  DFW","1500 N GREENVILLE AVE STE 210","RICHARDSON",TX,"750812266",,32.9686883,-96.7183113,"9726906632","00-08",,,,,,,
"491504","1184719171","HOSPICE OF THE PIEDMONT, INC.","675 PETER JEFFERSON PKWY","CULPEPER",VA,"227013376",,38.4912207,-77.9618216,"4348176900","00-08",,,,,,,
"311550","1396798112","PROMEDICA HOSPICE - WOODBURY","1385 CHEWS LANDING ROAD","NORTHFIELD",NJ,"082251512","007",39.3703942,-74.5501546,"8562510707","00-08","16-01",true,,,"02",,
"431516","1215930847","ASERACARE HOSPICE","6009 W 41ST ST, SUITE 4","SIOUX FALLS",SD,"571061200","099",43.51472338871506,-96.80114457731466,"6053382066","00-08","16-01",true,,,"08",,
"281536","1447225255","HORISUN HOSPICE","2200 S 40TH ST STE 101","LINCOLN",NE,"685062424","109",40.7902439,-96.66272982494559,"4024846444","00-08","16-01",true,,,"07",,
"521521","1578774014","ST. CROIX VALLEY SHARED SERVICES, INC.","2231 US HIGHWAY 12","BALDWIN",WI,"540023215",,44.9591651,-92.2232586,"7156845020","00-08",,,,"521521",,,
"211516","1205832268","FREDERICK HEALTH HOSPICE","1 FREDERICK HEALTH WAY","FREDERICK",MD,"217019435","021",39.45345845,-77.39445124256116,"2405663030","00-08","16-01",true,,,"03",,
"391574","1215977392","HOSPICE OF PHILADELPHIA","FALLS CENTER, 3300 HENRY AVENUE, SUITE 500","PHILADELPHIA",PA,"191291121","101",40.011748049999994,-75.18443502576186,"2155812046","00-08","16-01",true,,,"03",,
"451542","1588674352","KINDRED HOSPICE","2626 SOUTH 37TH STREET SUITE #B","TEMPLE",TX,"765047136","027",31.076118829630925,-97.37090433903384,"2547422000","00-08","16-01",true,,,"06",,
"291507","1043265341","KINDRED HOSPICE","5345 RENO CORPORATE DRIVE, BLD 3","RENO",NV,"895212993","031",39.469439827030634,-119.76373512972702,"7758255008","00-08","16-01",true,,,"09",,
"011527","1326006651","AMEDISYS HOSPICE OF BIRMINGHAM","2204 LAKESHORE DR","TUSCALOOSA",AL,"354062282",,33.249926,-87.570137,"2058689221","00-08",,,,,,,
"391562","1265491567","COMMUNITY NURSES HOME HEALTH AND HOSPICE INC.","757 JOHNSONBURG ROAD","SAINT MARYS",PA,"158573488",,41.426714295918366,-78.576604,"8147811415","00-08",,,,"391562",,,
"161554","1073544342","UNITYPOINT AT HOME","11333 AURORA AVE.","URBANDALE",IA,"503227908",,41.63904635,-93.7744103941341,"5155573100","00-08",,,,,,,
"191589","1932117645","CONCERNED CARE HOSPICE LLC","3621 RIDGELAKE DR STE 300","METAIRIE",LA,"700021739",,30.0143231,-90.1528181,"5042101971","00-08",,,,,,,
"261620","1164509329","HOPE HOSPICE INC","13537 BARRETT PARKWAY","SAINT LOUIS",MO,"631321102",,38.6319657,-90.2428756,"3149849800","00-08",,,,,,,
"191561","1376516674","HOSPICE OF NATCHITOCHES INC","340 2ND ST","NATCHITOCHES",LA,"714574306",,31.757143499999998,-93.09018790710113,"3182140944","00-08",,,,,,,
"051788","1770539256","NEW HAVEN HOSPICE CARE, INC.","1700 E. LINCOLN AVE #202","ANAHEIM",CA,"928054347",,33.839989,-117.893985,"7147742498","00-08",,,,,,,
"391505","1699840736","UPMC HOME HEALTHCARE OF CENTRAL PENNSYLVANIA","20 SHERATON DR","STATE COLLEGE",PA,"168017645",,40.7944504,-77.8616386,"8149496784","00-08",,,,,,,
"491575","1235168113","HEARTLAND HOSPICE SERVICES","41 OLD OYSTER POINT ROAD UNIT D","NEWPORT NEWS",VA,"236027177","700",36.9775016,-76.42977,"7575948215","00-08","16-01",true,,,"03",,
"251561","1851330641","SOUTHERNCARE HATTIESBURG","4700 HARDY STREET SUITE Y","HATTIESBURG",MS,"394021300","035",31.3226029,-89.3610149,"6015799493","00-08","16-01",true,,"25-1561","04",,
,"1528138237","ST JOSEPH'S HOSPITAL OF HUNTINGBURG IN","1706 MEDICAL ARTS DR","HUNTINGBURG",IN,"475429391",,38.311450602185204,-86.956379,"8126836410","00-08",,,,,,,
"031512","1558328583","NORTHLAND HOSPICE & PALLIATIVE CARE INC","452 N. SWITZER CANYON DR.","FLAGSTAFF",AZ,"860014855",,35.1971823,-111.6348541,"9287791227","00-08",,,,,,,
"381516","1093715070","WILLAMETTE VALLEY HOSPICE INC","1015 3RD ST NW","SALEM",OR,"973044007",,44.94393828571429,-123.05563614285714,"5035883600","00-08",,,,,,,
"319660","1598741258","GATEWAY HOSPICE & PALLIATIVE CARE, INC.","9380 MCKNIGHT ROAD","PITTSBURGH",PA,"152375954",,40.493604,-80.0115965,"4125362020","00-08",,,,,,,
"261591","1437125499","BETHESDA SERVICES, INC.","707 BETHESDA DILWORTH DR","SAINT LOUIS",MO,"631311869",,38.5735245,-90.3833493,"3144460623","00-08",,,,,,,
"171556","1609924638","KINDRED HOSPICE","1819 MAIN STREET","PARSONS",KS,"673573367","099",37.34058605263158,-95.26423415789473,"6204216161","00-08","16-01",true,,,"07",,
"171555","1982679809","NEMAHA COUNTY HOME HEALTH AND HOSPICE","14TH AND OREGON STREET, SUITE 204","SABETHA",KS,"665340203","131",39.9032342,-95.8002347,"7852842288","00-08","16-01",true,,,"07",,
,"1962407486","COMMUNITY HOSPICE, INC.","32932 WARREN RD","WESTLAND",MI,"48185",,42.33943208074534,-83.36483761490683,"7345224244","00-08",,,,,,,
"461524","1518149848","APPLEGATE HOSPICE","1492 EAST RIDGELINE DRIVE, SUITE 1","PARK CITY",UT,"840984858","057",40.6460921,-111.4979963,"8013943250","00-08","16-01",true,,,"08",,
"261557","1497746234","HOSPICE 2000, INC.","201 S BALTIMORE ST","KIRKSVILLE",MO,"635013736",,40.193752,-92.571864,"6606279711","00-08",,,,,,,
"231594","1003854472","SOUTHERNCARE SAGINAW","6272 STATE STREET","SAGINAW",MI,"486033429","145",43.43709567121507,-84.03926868238094,"9897907533","00-08","16-01",true,,"23-1594","05",,
"461519","1629025192","HARMONY HOME HEALTH SERVICES, LLC","5650 GREEN ST","TOOELE",UT,"840743409",,40.4062872,-113.1966394,"8012810537","00-08",,,"HT001713-001",,,,
"451773","1356456883","AREA COMMUNITY HOSPICE, INC","4300 OLTON RD","PLAINVIEW",TX,"790725810",,34.189732861503174,-101.75818006367567,"8062932732","00-08",,,,,,,
"451777","1487624813","HARRIS HOSPICE, INC.","522 S EDMONDS LANE","LEWISVILLE",TX,"750673622",,33.042838269076306,-97.01013218072289,"9723530800","00-08",,,,,,,
"191591","1356309199","LIFE SOURCE SERVICES OF BATON ROUGE","11605 SOUTHFORK AVENUE, SUITE A","BATON ROUGE",LA,"708165220","033",30.421769823795707,-91.05374930665988,"2252919421","00-08","16-01",true,,,"06",,
"491574","1104879881","MEDI HOME HEALTH AND HOSPICE - ROANOKE","4419 PHEASANT RIDGE ROAD SUITE 201","ROANOKE",VA,"240145267","770",37.223176762617015,-79.96356250841136,"5402781322","00-08","16-01",true,,,"03",,
"131503","1548365919","ST LUKE'S HOME CARE / HOSPICE","3330 E LOUISE DR, STE 400","MERIDIAN",ID,"836425123","001",43.6042123,-116.3531953,"2083812721","00-08","16-01",true,,,"10",,
"111560","1801834593","KINDRED HOSPICE","700 BROOKSTONE CENTRE PARKWAY, SUITE 100","COLUMBUS",GA,"319049255","215",32.5325378,-84.9813712,"7066530835","00-08","16-01",true,,,"04",,
"111559","1891733580","KINDRED HOSPICE","105 JIM MASON COURT, STE100","WARNER ROBINS",GA,"310889241","153",32.6200973,-83.606568,"4789531016","00-08","16-01",true,,,"04",,
"231519","1619089539","EDWARD W SPARROW HOSPITAL ASSOCIATION","1210 W. SAGINAW STREET","SAINT JOHNS",MI,"488792347",,29.9032284,-81.4145468,"5173647200","00-08",,,,,,,
"381505","1861413452","LEGACY HOSPICE SERVICES","815 NE DAVIS STREET","PORTLAND",OR,"972392649","051",45.5244985,-122.6571896,"5032201000","00-08","16-01",true,,,"10",,
"261603","1548296304","PREFERRED HOSPICE OF MISSOURI","423 BUSINESS HIGHWAY 60 WEST BOX 99","FARMINGTON",MO,"636409157","207",36.7291152,-108.205445,"5736144774","00-08","16-01",true,,,"07",,
"321522","1750366639","PLAINS REGIONAL MEDICAL CENTER HOSPICE","2217 DILLON","CLOVIS",NM,"881019454","009",34.421976798763616,-103.23288933256416,"5757696332","00-08","16-01",true,,,"06",,
"011638","1972526846","STRATFORD ENTERPRISES, INC","1220 20TH ST S","BIRMINGHAM",AL,"352053814",,33.4992453124891,-86.7957168482681,"2054440126","00-08",,,,,,,
"051772","1902993140","ALTA VERDUGO CONSULTING INC","4170 VERDUGO RD","RANCHO CUCAMONGA",CA,"917303892",,34.1033192,-117.5751735,"3232575715","00-08",,,,,,,
"451780","1164466397","HOSPICE PLUS","2777 N. STEMMONS FREEWAY, SUITE 1100","WICHITA FALLS",TX,"763013317","113",33.9004572,-98.5020777,"2143437900","00-08","16-01",true,"451780","45-1780","06",,
"331524","1558353680","CATSKILL AREA HOSPICE AND PALLIATIVE CARE INC","1 BIRCHWOOD DR","ONEONTA",NY,"138202268",,42.453492,-75.0629531,"6074326773","00-08",,,,,,,
"371653","1871685503","VALIR HOSPICE CARE, LLC","721 NW 6TH STREET","OKLAHOMA CITY",OK,"731067241",,35.47427906021128,-97.52472406561164,"4056093636","00-08",,,,,,,
"331529","1770669038","M J H S HOSPICE AND PALLIATIVE CARE, INC","39 BROADWAY, SUITE 200","NEW YORK",NY,"100063039","061",42.7493519,-73.7513893,"2124202844","00-08","16-01",true,,,"02",,
"281502","1275618753","HOSPICE OF TABITHA","4720 RANDOLPH STREET","YORK",NE,"684674200","109",40.871617,-97.6001401,"4024868506","00-08","16-01",true,,,"07",,
"011517","1861497935","HOSPICE OF WEST ALABAMA, INC","3851 LOOP RD","TUSCALOOSA",AL,"354045040",,33.19345763590659,-87.48803789495872,"2055230101","00-08",,,,,,,
"031547","1386619799","CASA DE LA LUZ HOSPICE","7740 NORTH ORACLE ROAD","TUCSON",AZ,"857186654","019",32.2701799,-110.9780268,"5205449890","00-08","16-01",true,,,"09",,
"391544","1629015250","AMEDISYS HOSPICE OF PA","1368 MALL RUN ROAD, SUITE 624","WASHINGTON",PA,"153018936","051",40.1943798,-80.2541251,"7244394440","00-08","16-01",true,,,"03",,
"251516","1467499913","AMEDISYS HOSPICE","7600 AIRWAYS BOULEVARD","SOUTHAVEN",MS,"386715138","033",34.969634,-89.989797,"6625627607","00-08","16-01",true,,,"04",,
"441527","1750328134","ASERACARE HOSPICE - NEW HORIZONS, LLC","3901 CENTRAL PIKE STE 259","HERMITAGE",TN,"370763421",,36.173591,-86.601972,"6153162243","00-08",,,,,,,
"011567","1992742431","ASERACARE HOSPICE-MOBILE","1201 MONTLIMAR DRIVE, SUITE 100","MOBILE",AL,"366023809","097",30.663879,-88.133127,"2513430989","00-08","16-01",true,,,"04",,
"451520","1720098585","KINDRED HOSPICE","3223 SOUTH LOOP 289 SUITE 318","LUBBOCK",TX,"794242557","303",33.5281767,-101.8843836,"8067481041","00-08","16-01",true,,,"06",,
"241534","1780771006","MAYO CLINIC HEALTH SYSTEM - ALBERT LEA","1705 SOUTHEAST BROADWAY","ALBERT LEA",MN,"560073265","047",43.6480127,-93.3682656,"5073776393","00-08","16-01",true,,,"05",,
"511523","1396799474","AMEDISYS HOSPICE CARE","5006 MID ATLANTIC DR","WHEELING",WV,"260037129",,40.0639616,-80.7209149,"3042924868","00-08",,,,,,,
"341560","1215976436","AMEDISYS HOSPICE","3320 US 1 HIGHWAY, SUITE C","GARNER",NC,"275292896","077",35.7112642,-78.6141709,"9194943773","00-08","16-01",true,,,"04",,
"451527","1033129887","KINDRED HOSPICE","7557 RAMBLER ROAD SUITE 112","DALLAS",TX,"752314142","113",32.8851743,-96.76319006837451,"2142313914","00-08","16-01",true,,,"06",,
"321513","1972511061","KINDRED HOSPICE","1515 WEST CALLE SUR STREET, SUITE 129","ROSWELL",NM,"882014720","025",33.3943282,-104.5229518,"5753922060","00-08","16-01",true,,,"06",,
"211509","1386622595","HOSPICE OF THE CHESAPEAKE, INC.","90 RITCHIE HWY","PASADENA",MD,"211224303",,39.10941474489796,-76.57437465306121,"4109872003","00-08",,,,,,,
"461544","1720099229","BEAVER VALLEY HOSPITAL","1109 N 100 WEST","BEAVER",UT,"84713",,38.3335694,-113.2754828,"4354387100","00-08",,,,,,,
"011586","1447297981","ASERACARE HOSPICE-HAMILTON","1215 MILITARY STREET SOUTH - SUITE B","HAMILTON",AL,"355705004","093",34.131602306109876,-87.98987949493501,"2059219091","00-08","16-01",true,,,"04",,
"411511","1699776187","KINDRED HOSPICE","2374 POST ROAD, SUITE 206","WARWICK",RI,"028862270","003",41.71795514837863,-71.44373771097283,"4017381492","00-08","16-01",true,,,"01",,
"111621","1205960473","HARBOR GRACE HOSPICE, INC.","500 W LANIER AVE","FAYETTEVILLE",GA,"302147638",,33.44765134918736,-84.4642073508043,"6789625850","00-08",,,,,,,
"011582","1669438180","COMFORT CARE HOSPICE OF GREENVILLE","23 JAMESON LANE","GREENVILLE",AL,"360378003","013",31.852391328718472,-86.64258408241831,"3343839688","00-08","16-01",true,,,"04",,
"011576","1104881366","COMFORT CARE HOSPICE LLC","547 U.S. HIGHWAY 80 WEST, SUITE 2","DEMOPOLIS",AL,"367324126","091",32.5178284,-87.8368201,"3342892106","00-08","16-01",true,,,"04",,
"241545","1114924255","SEASONS HOSPICE","1696 GREENVIEW DR SW","ROCHESTER",MN,"559021363",,43.99988765,-92.48610443833815,"5072851930","00-08",,,,,,,
"191531","1811940232","ST. JOSEPH HOSPICE OF CENLA, LLC","429 MURRAY ST FL 6","ALEXANDRIA",LA,"713018300",,33.768701,-85.88066868678666,"3185610100","00-08",,,,,,,
"461541","1942290960","HEARTS FOR HOSPICE","4905 SOUTH 1500 WEST, SUITE 210","RIVERDALE",UT,"844057747","057",41.17461495094627,-112.01632860116632,"8014756222","00-08","16-01",true,,,"08",,
"301503","1922176304","VNA AT HCS, INC.","312 MARLBORO ST","KEENE",NH,"034314163",,42.923662606351975,-72.26456632281493,"6033522253","00-08",,,,,,,
"311536","1861454829","LIGHTHOUSE HOSPICE, INC","200 LAKE DR E STE 205","CHERRY HILL",NJ,"080021171",,39.9390131768313,-75.00323142283501,"8564141155","00-08",,,,,,,
"051665","1396754115","MISSION HOSPICE & HOME CARE, INC.","66 BOVET RD., SUITE 100","SAN MATEO",CA,"944022534","081",37.55095435959236,-122.3148234578312,"6505541000","00-08","16-01",true,"051665",,"09",,
"451793","1972552800","LS AND SS, INC","2115 W MAIN ST","GUN BARREL CITY",TX,"751564407",,32.33087394452835,-96.14874385072065,"8444744026","00-08",,,,"451793",,,
"161552","1639175599","BEACON OF HOPE HOSPICE","1020 WEST 35TH STREET","GALESBURG",IA,"614014601","163",41.5588831,-92.9463078,"5633916933","00-08","16-01",true,,,"07",,
"551500","1255549473","ST ANTHONY HOSPICE","512 EAST WILSON AVE, SUITE 208","GLENDALE",CA,"912064351","037",34.1480749,-118.2495231,"8182410082","00-08","16-01",true,,,"09",,
"361514","1508969072","HOMEREACH","800 MCCONNELL DRIVE","MARION",OH,"433027868",,40.5885271,-83.1895249,"6145665377","00-08",,,"36-1514",,,,
"051508","1255381547","BY THE BAY HEALTH","17 E SIR FRANCIS DRAKE BLVD","SONOMA",CA,"954766625",,38.5110803,-122.8473388,"4159272273","00-08",,,,,,,
"181517","1639170921","ST. ANTHONY'S HOSPICE, INC.","2410 S GREEN ST","HENDERSON",KY,"424204621",,37.802206,-87.6415877142857,"2708262326","00-08",,,,,,,
"221562","1750387981","ALL CARE HOSPICE INC.","210 MARKET ST","NORTH ANDOVER",MA,"018451656",,42.6839894,-71.1127065,"7815982454","00-08",,,,,,,
"251594","1851397921","KINDRED HOSPICE","301-B WEST COLLEGE STREET","TUPELO",MS,"388015337","117",34.2576067,-88.7033859,"6628449725","00-08","16-01",true,,,"04",,
"011566","1083651525","AMEDISYS HOSPICE OF DECATUR","432 MOULTON ST. EAST","DECATUR",AL,"356016335","001",34.6039689220754,-86.98205588301606,"2563508688","00-08","16-01",true,,,"04",,
"041519","1912045899","HOSPICE HOME CARE OF PINE BLUFF PLLC","3135 WEST 28TH STREET","WHITE HALL",AR,"716023261","069",34.2752744,-92.0917001,"8705400727","00-08","16-01",true,,,"06",,
"441591","1770509051","GUARDIAN HOSPICE OF NASHVILLE, LLC","741 COOL SPRINGS BOULEVARD, SUITE 102","FRANKLIN",TN,"370672743","187",35.945009,-86.803929,"6157718979","00-08","16-01",true,,,"04",,
"051692","1720032998","HEARTLAND HOSPICE SERVICES","2511 GARDEN ROAD, SUITE A-250","MONTEREY",CA,"939405331","053",36.58622209637583,-121.85346696997881,"8313738442","00-08","16-01",true,,,"09",,
"201511","1972594232","HOSPICE OF SOUTHERN MAINE","390 US ROUTE 1","SCARBOROUGH",ME,"040749772",,43.5555634,-70.4036562,"2072893640","00-08",,,,,,,
"451779","1164428934","TEXAS HOME HEALTH HOSPICE","101 W. GOODWIN AVE ST 925","VICTORIA",TX,"77901","469",28.8026443,-96.9766308,"3619983102","00-08","16-01",true,,,"06",,
"391661","1649217209","ASERACARE HOSPICE","12664 ROUTE 19 SOUTH UNIT 1","WATERFORD",PA,"164419028","049",41.9424811,-79.9842062,"8148365255","00-08","16-01",true,,,"03",,
"391664","1770583908","BETHANY HOSPICE SERVICES OF WESTERN PENNSYLVANIA LLC","875 GREENTREE RD STE 100","PITTSBURGH",PA,"152202727",,40.427047932124154,-80.04134230955498,"4129212209","00-08",,,,,,,
"041571","1609995653","WATCH CARE LLC","314 HWY 62 WEST","WALNUT RIDGE",AR,"72476",,36.0680241,-90.9561004,"8708952651","00-08",,,,,,,
"141618","1538267703","HERITAGE HOSPICE AND PALLIATIVE CARE","7444 W WILSON AVE, SUITE 102","HARWOOD HEIGHTS",IL,"60706","031",41.96358313297183,-87.81300538750453,"8478851818","00-08","16-01",true,,,"05",,
"051501","1508854423","HOSPICE OF THE CENTRAL COAST","2 UPPER RAGSDALE DRIVE, SUITE D120","MONTEREY",CA,"939407838","053",36.578084,-121.819567,"8316583737","00-08","16-01",true,,,"09",,
"391662","1508805417","ASERACARE HOSPICE","1410 OREGON PIKE","LANCASTER",PA,"176014332","071",40.06181470241951,-76.30606143359734,"7172852039","00-08","16-01",true,,,"03",,
"191607","1790743086","AMEDISYS  HOSPICE","3854 AMERICAN WAY, SUITE C","BATON ROUGE",LA,"708164896","033",30.417137525064973,-91.05359421675023,"2257514599","00-08","16-01",true,,,"06",,
"141616","1841295763","IROQUOIS MEMORIAL HOSPITAL AND RESIDENT HOME","200 LAIRD LN","WATSEKA",IL,"609707568",,40.7761465,-87.7364218,"8154320185","00-08",,,,,,,
"491572","1730293614","PREFERRED HOSPICE INC","2629 FRONT ST","RICHLANDS",VA,"246412303",,37.094253,-81.805896,"2765969181","00-08",,,,,,,
"261589","1346337516","VILLAGE HOSPICE","1001 NW CHIPMAN ROAD, APT 237","LEES SUMMIT",MO,"640813914","095",38.8856158,-94.2117959,"8165250986","00-08","16-01",true,,,"07",,
"361570","1740260751","HOSPICE OF MORROW COUNTY INC.","228 SOUTH ST","MOUNT GILEAD",OH,"433381450",,40.547101999999995,-82.83349629482416,"4199469822","00-08",,,,,,,
"381309","1518012764","LAKE DISTRICT HOSPITAL","700 S J ST","LAKEVIEW",OR,"976301677",,42.1812184,-120.35209243791223,"5419472114","00-08",,,,,,,
"251620","1184687725","MID-DELTA HOSPICE OF BATESVILLE","617 N STATE ST","CLARKSDALE",MS,"386146322",,34.19500527272727,-90.5640276060606,"6626244910","00-08",,,,,,,
"371649","1104840784","FULL LIFE HOSPICE, LLC.","8241 S WALKER AVE","OKLAHOMA CITY",OK,"731399401",,35.384147535353534,-97.521371,"4054182659","00-08",,,"37-1649",,,,
"051705","1427184712","HOSPICE OF IMPERIAL VALLEY","137 SOUTH 8TH STREET","EL CENTRO",CA,"922432901","025",32.79242065306123,-115.56130248979592,"7603528905","00-08","16-01",true,,,"09",,
"371654","1811098163","CHOICE HOSPICE, INC","3033 NW 63RD ST","ENID",OK,"737033320",,36.3967623,-97.8791341,"4058793470","00-08",,,,,,,
"371652","1396758199","CURA-HPC, LLC","4510 EAST 31ST STREET","TULSA",OK,"741352100","143",36.11876489795919,-95.92613569387754,"9189944807","00-08","16-01",true,,,"06",,
"231596","1104815752","HOSPICE ADVANTAGE LLC","5889 BAY RD STE 103","SAGINAW",MI,"486042539",,43.49287406992394,-83.9737407764944,"9898930500","00-08",,,,,,,
"401512","1437183779","CUIDADO CASERO HOSPICE INC","580 AVE DE DIEGO","SAN JUAN",PR,"009203723","127",18.465299,-66.116666,"7872874094","00-08","16-01",true,,,"02",,
"031556","1811981566","THEMA HEALTH SERVICES","1725 EAST OSBORN ROAD SUITE 2","PHOENIX",AZ,"850167123","013",33.487404263247505,-112.04525127569576,"6028894400","00-08","16-01",true,,,"09",,
"451797","1295793966","TENDER HEART HOSPICE CARE LLC","3210 W PARK ROW DR","ARLINGTON",TX,"760133138",,32.721333897959184,-97.16015146938776,"8172650066","00-08",,,,,,,
"461542","1497720080","CHARTER HEALTHCARE OF WEST JORDAN, LLC","6671 SOUTH REDWOOD ROAD, SUITE 101","WEST JORDAN",UT,"840847489","035",40.6303,-111.938645,"8012619490","00-08","16-01",true,,,"08",,
"311505","1942204474","CENTER FOR HOPE HOSPICE AND PALLIATIVE CARE","1900 RARITAN ROAD","SCOTCH PLAINS",NJ,"070762963","039",40.618172,-74.361052,"9088897780","00-08","16-01",true,,,"02",,
"061504","1003831835","HOSPICE OF METRO DENVER, INC","8289 E LOWRY BLVD","DENVER",CO,"802461328",,39.7196718,-104.8905338,"3033212828","00-08",,,,,,,
,"1205879061","SAINT JOHNS HOSPICE & PALLIATIVE CARE","106 N RUBY AVE","RULEVILLE",MS,"387713940",,33.72621789349793,-90.55161560069746,"6627560928","00-08",,,,,,,
"551524","1699815530","ST. JACOB HOSPICE, INC.","17042 DEVONSHIRE ST","NORTHRIDGE",CA,"913251689",,34.25744314925373,-118.50376098507462,"8183689995","00-08",,,,,,,
"031523","1568492395","HOSPICE COMPASSUS-PAYSON","511 SOUTH MUDSPRING ROAD, SUITE #1","PAYSON",AZ,"855415747","007",34.2406479,-111.3230261,"9284726340","00-08","16-01",true,,,"09",,
"031550","1568492304","HOSPICE COMPASSUS - WHITE MOUNTAIN","1789 WEST COMMERCE DRIVE, SUITE A","LAKESIDE",AZ,"859295354","017",34.154488,-109.9734405,"9283684400","00-08","16-01",true,,,"09",,
"031562","1578569430","VALOR HOSPICECARE, LLC","1820 EAST RIVER ROAD, SUITE 100","TUCSON",AZ,"857185991","019",32.287059,-110.943636,"5206153996","00-08","16-01",true,,,"09",,
"311513","1376517011","HOLY REDEEMER HOSPICE INC.","150 E 9TH AVE","RUNNEMEDE",NJ,"080781170",,39.85735996086157,-75.07254145572502,"8002558986","00-08",,,,"311513",,,
"391592","1306843354","ALL CARE HOSPICE CARE, INC.","1710 E BROAD ST STE D","HAZLETON",PA,"182015695",,40.94148944528169,-75.9519922838658,"5704592004","00-08",,,,,,,
"261614","1942304266","HEART & SOUL HOSPICE","412 CAYCEE","FARMINGTON",MO,"636401701","187",36.7291152,-108.205445,"5737567066","00-08","16-01",true,,,"07",,
"371657","1295819050","NEW CENTURY HOSPICE OF TULSA","4111 SOUTH DARLINGTON AVENUE, SUITE 650","TULSA",OK,"741356348","143",36.10418728571428,-95.91715010204082,"9184934930","00-08","16-01",true,,,"06",,
"111553","1932242260","VITAS HEALTHCARE CORPORATION OF GEORGIA","2000 RIVER EDGE PARKWAY, STE GL-100","ATLANTA",GA,"303284694","121",33.7489924,-84.3902644,"4048436500","00-08","16-01",true,,,"04",,
"521514","1891889911","ASPIRUS COMFORT CARE AND HOSPICE SERVICES","520 N 32ND AVE","WAUSAU",WI,"544014102","073",44.96949325,-89.6781441280911,"7158472424","00-08","16-01",true,,,"05",,
,"1144280017","PATIENT CARE NEW JERSEY, INC.","9 QUINCY ST","MOUNTAIN LAKES",NJ,"07046",,40.8948212,-74.4329314,"9733655200","00-08",,,,,,,
"051716","1043211931","KINDRED HOSPICE","36947 COOK STREET, BUILDING 10, SUITE 102","PALM DESERT",CA,"922116078","065",33.77948717683687,-116.3558755000679,"7603462816","00-08","16-01",true,,,"09",,
"191581","1831267558","HOSPICE IN HIS CARE, LLC","3233 S. SHERWOOD FOREST BLVD","BATON ROUGE",LA,"708099643",,30.423778916117303,-91.05138594727731,"2252140010","00-08",,,,,,,
"331528","1417999053","HOSPICE OF THE NORTH COUNTRY, INC","358 TOM MILLER ROAD","PLATTSBURGH",NY,"129016430",,44.705853,-73.511032,"5185618465","00-08",,,,,,,
"191601","1386607331","HOSPICE ASSOCIATES OF NEW ORLEANS, LLC","3941 HOUMA BLVD SUITE 1 A","METAIRIE",LA,"700062920","051",30.0117542,-90.1802683,"5044572200","00-08","16-01",true,,,"06",,
"451790","1700083524","C.C. YOUNG MEMORIAL HOME","4829 W. LAWTHER DR","DALLAS",TX,"752141853",,32.8532239,-96.7312823294811,"2148412825","00-08",,,,,,,
"551507","1164538765","ADMIRAL HOSPICE CARE, INC","4010 WATSON PLAZA DRIVE SUITE 120","LAKEWOOD",CA,"907124035","037",33.83117228571429,-118.15501518367347,"5624291500","00-08","16-01",true,,,"09",,
"391615","1710930425","HOPE HOSPICE INC","3292 BABCOCK BLVD","PITTSBURGH",PA,"152372422",,40.4416941,-79.9900861,"4123673685","00-08",,,,,,,
"441526","1346236494","BLOUNT MEMORIAL HOSPITAL HOSPICE","1095 EAST LAMAR ALEXANDER PARKWAY","MARYVILLE",TN,"378045134","009",35.755089289123056,-83.95552987145072,"8659775702","00-08","16-01",true,,,"04",,
"051523","1215987532","BY THE BAY HEALTH","180 REDWOOD ST","SAN FRANCISCO",CA,"941023280",,37.7808915,-122.4200711,"4156265900","00-08",,,,"051523",,,
"451784","1417937806","IPH HOSPICE CARE INC","190 ABNER JACKSON PKWY STE 220","LAKE JACKSON",TX,"775665160","039",29.043225765306122,-95.45610768367347,"8005745179","00-08","16-01",true,,,"06",,
"391612","1437150430","KINDRED HOSPICE","5315 CAMPBELLS RUN ROAD, SUITE 190","PITTSBURGH",PA,"152059005","003",40.4416941,-79.9900861,"4129205500","00-08","16-01",true,,,"03",,
"307015","1710960265","VISITING NURSE ASSOCIATION OF FRANKLIN","75 CHESTNUT ST","FRANKLIN",NH,"032351306",,43.44937742640736,-71.6375374332072,"6039343454","00-08",,,,,,,
"051792","1437267309","CARE ALTERNATIVES OF CALIFORNIA LLC","650 E HOSPITALITY LN STE 460","RIVERSIDE",CA,"925043857",,33.7219991,-116.0372472,"9513538006","00-08",,,"051792",,,,
"281537","1912971789","HOSPICE AND HOME HEALTHCARE OF SAUNDERS COUNTY","141 EAST 5TH STREET","WAHOO",NE,"680661922","155",41.20992469387755,-96.61940573469387,"4024434798","00-08","16-01",true,,,"07",,
"391653","1932140449","ASERACARE HOSPICE","984 LOUCKS ROAD SUITE I","YORK",PA,"174042274","133",39.97941055165796,-76.75407315442686,"7178458599","00-08","16-01",true,,,"03",,
"171500","1487638508","HARRY HYNES MEMORIAL HOSPICE","313 S MARKET ST","WICHITA",KS,"672143821",,37.68342675510204,-97.33693626530612,"3162659441","00-08",,,,,,,
"311537","1033112685","AMEDISYS HOSPICE","261 CONNECTICUT DRIVE, SUITE 1","TOMS RIVER",NJ,"087538345","005",39.9537359,-74.1979576,"6092450095","00-08","16-01",true,,,"02",,
"311542","1245233816","COMPASSIONATE CARE HOSPICE","300 BROADACRES DRIVE, SUITE 275","BRANCHBURG",NJ,"088763374","013",40.5688245,-74.70027388974506,"9739161400","00-08","16-01",true,,,"02",,
"461511","1649277955","VALI DIVISION OF WASATCH, INC","576 W 900 S STE 106","WOODS CROSS",UT,"840108194",,40.880591,-111.89501542857143,"8013974900","00-08",,,,,,,
"221561","1689605859","HOSPICE OF FRANKLIN COUNTY, INC.","329 CONWAY ST","GREENFIELD",MA,"013011522",,42.6031458,-72.60983214642542,"4137742400","00-08",,,,,,,
"491546","1437155124","CHESAPEAKE HOSPITAL AUTHORITY","1301 EXECUTIVE BLVD STE 200","CHESAPEAKE",VA,"233204999",,36.769706150000005,-76.23351906915,"7573126460","00-08",,,,,,,
"491527","1346208337","GENTLE SHEPHERD HOSPICE INC.","6045 PETERS CREEK RD","ROANOKE",VA,"240194029",,37.270973,-79.9414313,"5409896265","00-08",,,,,,,
"051725","1396726493","OPTIMAL HOSPICE, INC.","1675 CHESTER AVE","LAKE ISABELLA",CA,"932409479",,35.6132276,-118.4777199,"6617164000","00-08",,,,,,,
"151590","1538106018","ASERACARE HOSPICE","8401 NORTH KENTUCKY AVENUE, SUITE G","EVANSVILLE",IN,"477256301","001",38.0001888,-87.5471866,"8128581032","00-08","16-01",true,,,"05",,
"061526","1326043019","COLORADO VISITING NURSE ASSOCIATION","6750 W 52ND AVE","ARVADA",CO,"800023928",,39.79114351515152,-105.07264790404041,"3936982121","00-08",,,,"065126",,,
"051542","1760487987","HOSPICE OF PRESBYTERIAN","15050 IMPERIAL HWY","WHITTIER",CA,"906041757","037",33.9174366,-117.9803628,"5629027770","00-08","16-01",true,,,"09",,
"501529","1639197882","KITTITAS COUNTY PUBLIC HOSPITAL DIST 1","309 E MOUNTAIN VIEW AVE","ELLENSBURG",WA,"989269589",,46.984642,-120.54419612771159,"5099627438","00-08",,,,,,,
"311530","1144227851","COMMUNITY CARE HOSPICE","110 WEST END AVENUE","SOMERVILLE",NJ,"088761824","035",40.570245,-74.618449,"9087259355","00-08","16-01",true,,,"02",,
"481502","1790943991","CONTINUUM CARE, INC","9150 ESTATE THOMAS, SUITE 211","ST THOMAS",VI,"008022612","020",18.340433,-64.9444618,"3407142273","00-08","16-01",true,,,"02",,
"451697","1609822295","KINDRED HOSPICE","112 WEST CONCHO AVENUE","SAN ANGELO",TX,"769036416","451",31.459376024085085,-100.43778026935176,"3254810123","00-08","16-01",true,,,"06",,
"421558","1619906757","HEARTLAND HOSPICE SERVICES - GREENVILLE","421 SE MAIN STREET","SIMPSONVILLE",SC,"296812697","045",34.730215010416664,-82.25415932291668,"8649630045","00-08","16-01",true,,,"04",,
"391667","1386647915","COMPASSIONATE CARE HOSPICE","1444 E LACKAWANNA STREET SUITE 218","OLYPHANT",PA,"184472181","069",41.4688301,-75.602387,"5704511031","00-08","16-01",true,,,"03",,
"461548","1801894597","SILVERADO HOSPICE-SALT LAKE CITY","5242 SOUTH COLLEGE DRIVE, SUITE 206","MURRAY",UT,"841235548","035",40.6667841,-111.888417,"8015061500","00-08","16-01",true,,,"08",,
"461553","1821046236","CNS COMMUNITY HOSPICE - PROVIDENCE","221 NORTH GATEWAY DRIVE, SUITE G","PROVIDENCE",UT,"843329791","005",41.712523150428574,-111.82961544580054,"4357523355","00-08","16-01",true,,,"08",,
"501526","1366472508","FRANCISCAN HOSPICE","2901 BRIDGEPORT WAY","UNIVERSITY PLACE",WA,"984664614","053",47.23335,-122.536919,"2535347000","00-08","16-01",true,,"GAB38085","10",,
"131547","1497706485","HANDS OF HOPE HOSPICE, LLC.","1379 E 17TH ST","IDAHO FALLS",ID,"834046235",,43.4826619,-112.006769,"2085237441","00-08",,,,,,,
"451799","1205939816","GOOD SHEPHERD HOSPICE OF DALLAS, LLC","7920 BELT LINE RD STE 760","FORT WORTH",TX,"761026632",,32.753177,-97.3327459,"9728709991","00-08",,,,,,,
"051786","1336116284","SILVERADO HOSPICE - VENTURA COUNTY","15821 VENTURA BOULEVARD, SUITE 515","ENCINO",CA,"914362937","037",34.157949,-118.4951625,"8883286636","00-08","16-01",true,,,"09",,
"361625","1205876653","CROSSROADS HOSPICE OF NORTHEAST OHIO, LLC","3743 BOETTLER OAKS DRIVE, SUITE E","UNIONTOWN",OH,"446856227","151",40.9730285,-81.40463515669745,"3308999100","00-08","16-01",true,,,"05",,
"521559","1538160163","KINDRED HOSPICE","10150 W NATIONAL AVE  SUITE 140","WEST ALLIS",WI,"532272145","079",42.99737147610595,-88.04072341681459,"4145463200","00-08","16-01",true,,,"05",,
"281504","1851477038","BEATRICE COMMUNITY HOSPITAL HOSPICE","1110 JACKSON STREET","BEATRICE",NE,"683102117","067",40.2781647,-96.7392253,"4022232366","00-08","16-01",true,,,"07",,
"301526","1023193703","BEACON HOSPICE, AN AMEDISYS COMPANY","25 NEW HAMPSHIRE AVENUE,  SUITE 272","PORTSMOUTH",NH,"038012841","015",43.08402683220087,-70.81076784867706,"6034332480","00-08","16-01",true,,,"01",,
"171517","1609852979","HOMECARE AND HOSPICE, INC.","3801 VANESTA DR","MANHATTAN",KS,"665030316",,39.208308450000004,-96.63464637623207,"7855370688","00-08",,,,,,,
"171511","1831396944","VISITING NURSES HOSPICE","200 MAINE  STE C (3RD FLOOR)","LAWRENCE",KS,"660441396","045",38.9796897,-95.2468492,"7858433738","00-08","16-01",true,,,"07",,
"031560","1457381295","HOSPICE COMPASSUS - SEDONA/ FLAGSTAFF","7000 STATE ROUTE 179, SUITE D100","SEDONA",AZ,"863519066","005",34.8629426,-111.8137097,"9282840180","00-08","16-01",true,,,"09",,
"381533","1407967557","KLAMATH HOSPICE INC","4745 S 6TH ST","KLAMATH FALLS",OR,"976034958",,42.2103507,-121.7549341,"5418822902","00-08",,,,,,,
"011628","1972603991","DALE MEDICAL CENTER","368 JAMES ST","OZARK",AL,"363602015",,31.452257208333332,-85.63313610416667,"3347742601","00-08",,,,,,,
"401509","1205870086","SALUD INTEGRAL EN LA MONTANA INC","CARR 152 KM 12.2","NARANJITO",PR,"007190515",,-6.2380512,-78.8760489,"7878575800","00-08",,,,,,,
"381501","1093753386","WILLAMETTE COMMUNITY HEALTH SOLUTIONS","2650 SUZANNE WAY #200","EUGENE",OR,"974087619",,44.09161155443088,-123.06371891673369,"5412283008","00-08",,,,"381501",,,
"221500","1053311514","GOOD SHEPHERD COMMUNITY CARE","160 WELLS AVENUE","NEWTON",MA,"024593302","017",42.29337605,-71.19806353028767,"6179696130","00-08","16-01",true,,"S100276478","01",,
"251606","1801812185","HOSPICE CARE GROUP LLC","114 E DONALD ST","QUITMAN",MS,"393552025",,32.0366264,-88.7253266,"6017768880","00-08",,,,,,,
"401540","1093922163","HOSPICIO EL NUEVO AMANECER","CALLE B AA 14 ALTURAS DE RIO GRANDE","RIO GRANDE",PR,"007453447","119",-14.4875712,-70.2546924,"7878887700","00-08","16-01",true,,,"02",,
"361622","1720131238","OHI HOSPICE INC","7575 PARAGON RD","MARIETTA",OH,"457509517",,39.4167742,-81.4548392,"9372564490","00-08",,,,,,,
"381517","1174671044","ALBANY GENERAL HOSPITAL","4600 EVERGREEN PLACE SE","NEWPORT",OR,"97365",,44.636755,-124.053442,"5418124460","00-08",,,,,,,
"397089","1780687913","COMMUNITY NURSING SERVICES OF NORTH EAST","7 PARK STREET","NORTH EAST",PA,"164281016","049",42.2162062,-79.835904,"8147254300","00-08","05-01",true,,,"03",,
"051717","1346241056","KINDRED HOSPICE & PALLIATIVE CARE","5080 SHOREHAM PLACE SUITE 105","VISTA",CA,"920816632","073",33.2000368,-117.2425355,"8585652499","00-08","16-01",true,,,"09",,
"051740","1740281633","KINDRED HOSPICE","5001 EAST COMMERCE CENTER DRIVE, SUITE 140","VISALIA",CA,"932779543","029",36.3302284,-119.2920585,"6613241232","00-08","16-01",true,,,"09",,
"461547","1609982107","HOSPICE ALLIANCE OF SOUTHERN UTAH, INC.","965 E 700 S","ST GEORGE",UT,"847902288",,37.096363247806735,-113.5632934481457,"4356562889","00-08",,,,,,,
"521573","1194877902","CEDAR COMMUNITY HOSPICE","5595 COUNTY ROAD Z","WEST BEND",WI,"530959224","131",43.35656,-88.2213386,"2623062691","00-08","16-01",true,,,"05",,
"031564","1174575781","KINDRED HOSPICE","3107 CLEARWATER DRIVE, SUITE B","PRESCOTT",AZ,"863057167","025",34.59698901876847,-112.4657847213785,"9284605965","00-08","16-01",true,,,"09",,
"061560","1831489970","ACCENTCARE HOME HEALTH OF MOUNTAIN VALLEY LLC","4065 ST CLOUD DR","LOVELAND",CO,"805389233","069",40.434347,-104.985839,"3036205402","00-08","16-01",true,,,"08",,
"011583","1487714218","COMMUNITY HOSPITAL INC","805 FRIENDSHIP RD","TALLASSEE",AL,"360782336",,32.534988,-85.910695,"3342833734","00-08",,,,,,,
"201517","1083798938","BEACON HOSPICE, AN AMEDISYS COMPANY","245 CENTER STREET, SUITE 10A","AUGUSTA",ME,"043308087","001",44.3082398,-69.7764057,"2077844242","00-08","16-01",true,,,"01",,
"451563","1265441190","GENTIVA HOSPICE","1222 N. MAIN  AVENUE STE 600","SAN ANTONIO",TX,"782096353","029",29.44024165,-98.49376205,"2107388141","00-08","16-01",true,,,"06",,
"241579","1588601348","HEARTLAND HOME HEALTH CARE AND HOSPICE","821 3RD AVE SE STE 15","ROCHESTER",MN,"559047300","109",44.014641492290195,-92.458884,"5072921170","00-08","16-01",true,,,"05",,
"311559","1194787366","HOMESIDE HOSPICE LLC","67 WALNUT AVENUE","CLARK",NJ,"070661640",,40.6311765,-74.3022585,"7323813444","00-08",,,,,,,
"231570","1790739282","FAITH HOSPICE","2100 RAYBROOK STREET SE, SUITE 300","GRAND RAPIDS",MI,"495465783","081",42.9224132,-85.5901882,"6162355100","00-08","16-01",true,,,"05",,
"201516","1437236551","BEACON HOSPICE, AN AMEDISYS COMPANY","52 ATLANTIC PLACE, SUITE B-50","SOUTH PORTLAND",ME,"041062316","005",43.6379887,-70.3290153,"2077720929","00-08","16-01",true,,,"01",,
"411510","1558445569","BEACON HOSPICE, AN AMEDISYS COMPANY","1 CATAMORE BOULEVARD","NORTH KINGSTON",RI,"028524127","007",41.5551014,-71.4403345,"4014380008","00-08","16-01",true,,,"01",,
"051662","1750320719","ASERACARE HOSPICE","3203 W MARCH LANE, SUITE 140","STOCKTON",CA,"952192365","077",37.984041591836736,-121.35260612244899,"9257985791","00-08","16-01",true,,,"09",,
"161517","1639190259","LEE COUNTY HEALTH DEPARTMENT","3 JOHN BENNETT DRIVE","HAMILTON",IA,"623411436","111",42.382945,-93.7083849,"3193725225","00-08","16-01",true,,,"07",,
"381551","1033191440","HIGH DESERT HOSPICE LLC","2210 SHALLOCK AVENUE","KLAMATH FALLS",OR,"976014290",,42.24918804515187,-121.78836786348431,"5418821636","00-08",,,,"381551",,,
"011602","1326091273","KINDRED HOSPICE - PHENIX CITY","3615 SOUTH RAILROAD STREET, SUITE 3","PHENIX CITY",AL,"368675452","113",32.496957761953915,-85.04057345619412,"3342988898","00-08","16-01",true,,,"04",,
"111544","1043257934","KINDRED HOSPICE","1303 HIGHTOWER TRAIL, SUITE 100","DOUGLASVILLE",GA,"301341871","121",33.7514966,-84.7477136,"7709525574","00-08","16-01",true,,,"04",,
"451640","1790795524","KINDRED HOSPICE","1911 CORPORATE DRIVE SUITE 104","SAN MARCOS",TX,"786666171","209",29.86464469387755,-97.9577352244898,"5123929138","00-08","16-01",true,,,"06",,
"361601","1154469930","CHILDREN'S HOSPITAL MEDICAL CENTER","660 LINCOLN AVE","CINCINNATI",OH,"452061100",,39.132836,-84.494761,"5136364225","00-08",,,,,,,
"391651","1902843527","ASERACARE HOSPICE","415 EAGLEVIEW BOULEVARD SUITE 108","EXTON",PA,"193411143","029",40.02985865,-75.62897763847262,"6104583703","00-08","16-01",true,,,"03",,
"221544","1932283694","BEACON HOSPICE LLC","529 MAIN ST STE 126","PLYMOUTH",MA,"023604842",,41.7664657,-70.7266525,"6176172424","00-08",,,,,,,
"531509","1407835960","HOSPICE OF LARAMIE","1754 CENTENNIAL DR","LARAMIE",WY,"820708417",,41.32440253061225,-105.61901320408163,"3077459254","00-08",,,,,,,
"261507","1912007006","MOSAIC LIFE CARE HOSPICE","5506 CORPORATE DRIVE","SAINT JOSEPH",MO,"645077764","021",39.75504639475637,-94.76483406954827,"8162717190","00-08","16-01",true,,,"07",,
"101500","1134126774","COMMUNITY HOSPICE OF N.E. FLORIDA","4266 SUNBEAM RD","ST AUGUSTINE",FL,"320865791",,29.8946952,-81.3145395,"9042685200","00-08",,,,,,,
"171533","1568409183","HAYS MEDICAL CENTER INC","2220 CANTERBURY DR","HAYS",KS,"676012370",,38.8800487,-99.29560935478031,"7856235000","00-08",,,,,,,
"551513","1104854298","MOGUL CORPORATION","1126 W FOOTHILL BLVD","RANCHO CUCAMONGA",CA,"917303851",,34.1033192,-117.5751735,"9099814065","00-08",,,,,,,
"311560","1336125459","THE MARTIN AND EDITH STEIN HOSPICE","49 VERONICA AVE","SOMERSET",NJ,"088734925",,40.479802290643796,-74.50058191577098,"7322271212","00-08",,,,,,,
"261612","1538104914","PREFERRED HOSPICE OF MISSOURI (CENTRAL)","1900 NORTH PROVIDENCE ROAD  SUITE 311","LEXINGTON",MO,"640671511","019",39.1851824,-93.8828515,"5734994540","00-08","16-01",true,,,"07",,
"051537","1023011178","COLLABRIA CARE","414 S JEFFERSON ST","NAPA",CA,"945594515",,38.28427932725869,-122.29375859111144,"7072589080","00-08",,,,,,,
"501523","1285719609","EVERGREEN HEALTH HOSPICE CARE","11800 NE 128TH STREET SUITE 200","KIRKLAND",WA,"980347612","033",47.7150738,-122.1839625,"4258991040","00-08","16-01",true,,,"10",,
"201513","1780631770","ANDROSCOGGIN HOME HEALTH SERVICES INC","15 STRAWBERRY AVE","WILTON",ME,"042943044",,44.592912,-70.228729,"2077777740","00-08",,,,,,,
"251616","1316900962","MID DELTA HOSPICE OF CANTON, INC.","1150 E PEACE ST","LEXINGTON",MS,"390953626",,33.1131834,-90.0531408,"6018552400","00-08",,,,,,,
"341579","1396712212","CARTERET COUNTY GENERAL HOSPITAL CORPORATION","3722 BRIDGES ST STE 201","MOREHEAD CITY",NC,"285572944",,34.72576973357256,-76.76083019248841,"2528086085","00-08",,,,,,,
"131524","1720086283","HOSPICE VISIONS","455 PARK VIEW LOOP","TWIN FALLS",ID,"833013252","083",42.5704456,-114.4602554,"2087350121","00-08","16-01",true,,,"10",,
"261610","1821025826","PREFERRED HOSPICE OF MISSOURI (NORTHEAST), LLC","301 SOUVEREIGN COURT, SUITE 206","ROLLA",MO,"65401","189",37.9509324,-91.7708076,"6365279330","00-08","16-01",true,,,"07",,
"051611","1609960897","PEC HOSPICE","10507 GARDEN GROVE BLVD","GARDEN GROVE",CA,"928431128","059",33.7746655,-117.94918299551372,"7145903620","00-08","16-01",true,,,"09",,
"051761","1104850015","SUTTER VISITING NURSE ASSOCIATION AND HOSPICE","110 STONY POINT ROAD, SUITE 200C","SANTA ROSA",CA,"954014118","097",38.4415113,-122.7461223,"7075425045","00-08","16-01",true,,,"09",,
"271507","1750398665","BENEFIS HOSPITALS, INC.","1101 26TH ST S","GREAT FALLS",MT,"594055161",,47.490690900000004,-111.2617623299094,"4064555000","00-08",,,,,,,
"521542","1538169693","ST NICHOLAS HOSPITAL-SISTERS OF THE THIRD ORDER OF ST FRANCIS","3100 SUPERIOR AVENUE","SHEBOYGAN",WI,"530811948",,43.76312245,-87.74736497220302,"9204598300","00-08",,,"521542",,,,
"461549","1083622187","FIRST CHOICE HOME HEALTH & HOSPICE SPECIALISTS INC","1365 W 1250 S","OREM",UT,"840573746",,40.2743477,-111.7060718,"8014344100","00-08",,,,,,,
"161530","1598869232","HOSPICE OF PALO ALTO COUNTY","3201 FIRST STREET","EMMETSBURG",IA,"505362516","147",43.1108076,-94.6781897,"7128525419","00-08","16-01",true,,,"07",,
"261575","1447245360","PATHWAYS HOSPICE AND PALLIATIVE CARE","14805 NORTH OUTER 40 ROAD, SUITE 160","CHESTERFIELD",MO,"630176060","189",38.661953,-90.5643258,"6367337399","00-08","16-01",true,,,"07",,
"391629","1104816206","GOOD SAMARITAN HOSPICE OF PITTSBURGH","116 BROWNS HILL RD STE 100","WEXFORD",PA,"150907537",,40.6264561,-80.055891,"7249338888","00-08",,,,,,,
"491522","1366444630","HOSPICE CHOICE INC","18 7TH ST NW","NORTON",VA,"242731946",,36.934892500000004,-82.62853333333334,"2766797212","00-08",,,,,,,
"281514","1538101852","ASERACARE HOSPICE","5715 S 34TH STREET, SUITE 100","LINCOLN",NE,"685166648","109",40.75504083333333,-96.67165266666666,"4024881363","00-08","16-01",true,,,"07",,
"551593","1124145099","COMFORT HOSPICE CARE, INC.","12900 GARDEN GROVE BLVD.","GARDEN GROVE",CA,"928432006",,33.77434527629363,-117.90744102522801,"7146388846","00-08",,,,,,,
"281513","1790771301","ST. JOSEPH VILLA HOMECARE & HOSPICE","825 DORCAS ST","OMAHA",NE,"681081160","055",41.23934397959184,-95.92714795918367,"4029264444","00-08","16-01",true,,,"07",,
"361626","1528175304","HOSPICE CARE OF MIDDLETOWN INC","1131 MANCHESTER AVE","MIDDLETOWN",OH,"450446183",,39.5150576,-84.3982763,"5134242273","00-08",,,,,,,
"101532","1144328881","GULFSIDE HOSPICE INC.","2061 COLLIER PKWY","ZEPHYRHILLS",FL,"335416938",,28.2336196,-82.1811947,"7278455707","00-08",,,,"10-1532",,,
"551509","1629118898","HOSPICE OF ST MARY","1985 YOSEMITE AVE SUITE #240","SIMI VALLEY",CA,"930635200","111",34.2713965625,-118.6784715625,"8053060440","00-08","16-01",true,,,"09",,
"111571","1063450666","PRUITTHEALTH HOSPICE, INC.","407 COWART AVE","VALDOSTA",GA,"316022635",,30.862642749432876,-83.28340714278715,"2292421187","00-08",,,,,,,
"111579","1154369171","PRUITTHEALTH HOSPICE-GAINESVILLE","715 QUEEN CITY PKWY STE 200","GAINESVILLE",GA,"305014335",,34.289686821625644,-83.82797656100306,"7702971970","00-08",,,,,,,
"331542","1528002862","HOSPICE CARE IN WESTCHESTER AND PUTNAM INC","540 WHITE PLAINS RD","TARRYTOWN",NY,"105915132",,41.06066585,-73.84057410145188,"9146667616","00-08",,,,,,,
"251602","1851377469","HOME HEALTH CARE SERVICES, INC.","15359 HIGHWAY 49 S","YAZOO CITY",MS,"391944517",,32.8550965,-90.4056469,"6627465815","00-08",,,,"25-1602",,,
"031563","1679558050","AMERICARE HOSPICE AND PALLIATIVE CARE","1212 NORTH SPENCER STREET, SUITE 2","MESA",AZ,"852108722","013",33.4151117,-111.8314792,"4807267773","00-08","16-01",true,,,"09",,
"051526","1760454672","HOSPICE OF SANTA CRUZ COUNTY","940 DISC DR","WATSONVILLE",CA,"950762491",,36.9092773,-121.7529071,"8314303000","00-08",,,,,,,
"341589","1841247335","COMMUNITY HOME CARE OF VANCE COUNTY, LLC","946 W ANDREWS AVE STE S","STATESVILLE",NC,"286773514",,35.7826363,-80.8872959,"2524307760","00-08",,,,"341589",,,
"141556","1811935240","UPLIFTED CARE","482 MAIN STREET NW","BOURBONNAIS",IL,"60914","091",41.15904679744988,-87.88585831183228,"8159363370","00-08","16-01",true,"K22142",,"05",,
"321555","1538213095","HARMONY HOME HEALTH SERVICES, LLC","5700 HARPER DR NE","ALBUQUERQUE",NM,"871093588",,35.15301147791165,-106.5857169879518,"8015058282","00-08",,,,,,,
"231501","1689616054","HOSPICE OF MICHIGAN, INC.","43097 WOODWARD AVE STE 102","SOUTHFIELD",MI,"480342162",,42.4733689,-83.2218731,"2483532070","00-08",,,,,,,
"411500","1871674796","HOPEHEALTH HOSPICE & PALLIATIVE CARE","1085 NORTH MAIN STREET","WAKEFIELD",RI,"028793511","007",41.437324,-71.5014469,"4014154200","00-08","16-01",true,,,"01",,
"161575","1821075201","KINDRED HOSPICE","5399 CHIMRA ROAD","PANORA",IA,"502168738","077",41.708404,-94.364955,"5152766696","00-08","16-01",true,,,"07",,
"031519","1760467575","HOSPICE FAMILY CARE, INC. - TUCSON","6300 EAST EL DORADO PLAZA, A-100","TUCSON",AZ,"857437382","019",32.23876525,-110.85502373122823,"5207909299","00-08","16-01",true,,,"09",,
"191603","1649205261","PROFESSIONAL HOSPICE CARE, LLC","118 MONTICELLO DRIVE, SUITE A","RUSTON",LA,"71270","061",32.5232053,-92.637927,"3182321107","00-08","16-01",true,"191603",,"06",,
"011629","1437220456","ADORATION HOSPICE BIRMINGHAM","1000 SOUTHLAKE PARK, SUITE 100","ROCKFORD",AL,"35136","073",32.8895681,-86.2196936,"2056829996","00-08","16-01",true,,,"04",,
"331550","1487715173","UR MEDICINE HOSPICE","2180 EMPIRE BOULEVARD","WEBSTER",NY,"145802029","055",43.200779999999995,-77.496486183764,"5857878315","00-08","16-01",true,,,"02",,
"451786","1124228317","LEGACY HOME HEALTH AGENCY INC","5277 OLD BROWNSVILLE ROAD SUITE 205","CORPUS CHRISTI",TX,"784054119","355",27.758622509323164,-97.4559037432769,"3618550848","00-08","16-01",true,,"451786","06",,
"361611","1962483594","CORNERSTONE HOSPICE OF WEST CENTRAL","514 HIGH STREET","WAYNESVILLE",OH,"45086",,39.531010847112185,-84.09202205977591,"9372072493","00-08",,,,,,,
"191602","1417900838","ST. JOSEPH HOSPICE OF BAYOU REGION, L.L.C.","108 W MAIN ST STE C","THIBODAUX",LA,"703015233",,29.766344,-90.815957,"9854470095","00-08",,,,,,,
"451553","1447399746","VITAS HEALTHCARE OF TEXAS LP","6100 WESTERN PLACE, STE 800","FT. WORTH",TX,"76107","439",32.753177,-97.3327459,"8178707070","00-08","16-01",true,,,"06",,
"491516","1750381901","ROCKBRIDGE AREA HOSPICE INC","315 MYERS STREET","LEXINGTON",VA,"244502040","678",37.78346895,-79.4496463,"5404631848","00-08","16-01",true,,,"03",,
"041512","1538197389","ST BERNARDS HOSPITAL INC.","1726 MARIE CIR","JONESBORO",AR,"724015355",,35.82465467346939,-90.67189812244898,"8709356310","00-08",,,,,,,
"341500","1548398720","HOSPICE & PALLIATIVE CARE CHARLOTTE REGION","7845 LITTLE AVE","LINCOLNTON",NC,"280923643",,35.473745,-81.2545251,"7043750100","00-08",,,,"2330680",,,
"451722","1821043852","KINDRED HOSPICE","2824 TERRELL ROAD SUITE 500","GREENVILLE",TX,"754025529","231",33.106380242718444,-96.11011929126214,"9034541107","00-08","16-01",true,,,"06",,
"321520","1033127147","KINDRED HOSPICE","7500 JEFFERSON STREET NE, STE 210","ALBUQUERQUE",NM,"871094384","001",35.165131,-106.592725,"5058215404","00-08","16-01",true,,,"06",,
"45U221","1700991700","MOORE COUNTY HOSPITAL DISTRICT","224 E 2ND ST","DUMAS",TX,"790293805",,35.86446415,-101.9709962636158,"8069357171","00-08",,,,"673411",,,
"191569","1942302153","HOSPICE COMPASSUS - GREATER NEW ORLEANS","1301 WEST CAUSEWAY APPROACH","METAIRIE",LA,"70001","103",29.9899926,-90.1505426,"9856398000","00-08","16-01",true,,,"06",,
"281535","1265589220","PRIME HOME CARE LLC","6818 GROVER ST","OMAHA",NE,"681063632",,41.22749815,-96.0185513762109,"4023902492","00-08",,,,,,,
"361525","1881693125","HOSPICE OF CENTRAL OHIO","2269 CHERRY VALLEY ROAD","ZANESVILLE",OH,"437011562",,39.9403453,-82.0131924,"7407881400","00-08",,,,"36-1525",,,
"421556","1902844830","UNITED HOSPICE OF THE PEE DEE","2051 ELIJAH LUDD ROAD, SUITE 1","FLORENCE",SC,"295013942","041",34.193165698010475,-79.80431998623939,"8436628633","00-08","16-01",true,,,"04",,
"421552","1003864869","REGENCY HOSPICE OF GEORGIA, LLC","1690 UNIVERSITY PKWY","ORANGEBURG",SC,"291182547",,33.4918203,-80.8556476,"8036482117","00-08",,,,"42-1552",,,
"521528","1023145331","AURORA AT HOME","1155 HONEY CREEK PARKWAY","WAUWATOSA",WI,"532133189","079",43.0312011,-88.0171747,"4146155900","00-08","16-01",true,,,"05",,
"371655","1134161466","HCR INC.","701 N BROADWAY AVE","ADA",OK,"748205003",,34.781394,-96.678823,"5803328009","00-08",,,,,,,
"451787","1144226499","FAITH COMMUNITY HOSPICE LLC","4721 GARTH RD","BAYTOWN",TX,"775212153",,29.776495,-94.9784774,"2814220414","00-08",,,,,,,
"743115","1770515561","MAVERICK ADULT DAY CARE LLC","3147 MEGAN ST","EAGLE PASS",TX,"788523390",,28.7099337,-100.493813,"8307570966","00-08",,,,"451745",,,
"051799","1689716797","CHARTER HOSPICE OF COLTON LLC","1007 E COOLEY DR STE 100","COLTON",CA,"923243901",,34.05468321054617,-117.30963405857905,"9098252969","00-08",,,,,,,
"551502","1548217011","REMITA HEALTH","4010 WATSON PLAZA DR SUITE 140","LAKEWOOD",CA,"907124047","037",33.83117228571429,-118.15501518367347,"5629046777","00-08","16-01",true,,,"09",,
"461557","1902855083","CNS COMMUNITY HOSPICE - PRICE","480 SOUTH CARBON AVENUE","PRICE",UT,"845013227","007",39.592526285714285,-110.811317,"4356138887","00-08","16-01",true,,,"08",,
"011640","1588697056","COMFORT CARE HOSPICE OF MONROEVILLE","29 PINEVILLE ROAD","MONROEVILLE",AL,"364601827","099",31.537345,-87.310538,"2512278880","00-08","16-01",true,,,"04",,
"521556","1760421739","ASERACARE HOSPICE","2204 E MORELAND BLVD  SUITE 101","WAUKESHA",WI,"531862942","133",43.02877184478603,-88.18529496053962,"2627851356","00-08","16-01",true,,,"05",,
"671516","1861414799","ALLSTAR HOSPICE","1032 WEST PIONEER PARKWAY SUITE 200","ARLINGTON",TX,"760137629","439",32.7122298,-97.0580262,"8177940048","00-08","16-01",true,,,"06",,
"011591","1649279050","HOPE HOSPICE, INC.","651 MAIN ST STE 159","GARDENDALE",AL,"350712793",,33.639858,-86.809549,"2055420836","00-08",,,,,,,
"331535","1184652018","VISITING NURSE SERVICE AND HOSPICE OF SUFFOLK INC.","505 MAIN ST","EAST NORTHPORT",NY,"117311415",,40.8767648,-73.3245614,"6312617200","00-08",,,,,,,
"111558","1467453092","KINDRED HOSPICE","2302 PARKLAKE DRIVE NE, SUITE 150","ATLANTA",GA,"303452918","089",33.7489924,-84.3902644,"6789371800","00-08","16-01",true,,,"04",,
"391671","1316921323","KINDRED  HOSPICE","205 GRANDVIEW AVENUE SUITE 304","LANCASTER",PA,"176014106","041",40.024714,-76.328149,"7176121200","00-08","16-01",true,,,"03",,
"101517","1598876088","HOSPICE OF THE TREASURE COAST INC","5000-5090 DUNN ROAD","FORT PIERCE",FL,"349814941",,27.4467056,-80.3256056,"7724628999","00-08",,,,"101517",,,
"261537","1982788196","SOUTHEAST HOSPICE","#10 DOCTOR'S PARK","CAPE GIRARDEAU",MO,"637034928","031",37.3034933,-89.5230357,"5733356208","00-08","16-01",true,,,"07",,
"311504","1144227646","SAMARITAN HEALTHCARE AND HOSPICE","3906 CHURCH ROAD","VOORHEES",NJ,"080433803","005",39.8512162,-74.9619779,"8565961600","00-08","16-01",true,,"311504","02",,
"341515","1912962697","LOWER CAPE FEAR HOSPICE CARE","1414 PHYSICIANS DRIVE","WILMINGTON",NC,"284017335","129",34.198046,-77.928602,"9107967900","00-08","16-01",true,,,"04",,
