provider_num,npi,name,address,city,state,zip,fips_county,lat,lon,phone,provider_type_code,category,emergency,upin,pin,region_code,bed_count,clia_lab_number
,"1699732123","JORDAN RIVER WOMEN'S HEALTH, P.C.","3584 W 9000 S","WEST JORDAN",UT,"840885711",,40.5879199,-112.0072092,"8015612227","12-70",,,,,,,
,"1205982329","MIDDLE TN WOMENS HEALTH GROUP","808 JENLAND DR","COLUMBIA",TN,"384011801",,35.613347389902025,-87.06652855638788,"9313813030","12-70",,,,,,,
,"1063418960","WOMENS SPECIALISTS OF NEW MEXICO LTD","6320 RIVERSIDE PLAZA LN NW STE B","ALBUQUERQUE",NM,"871201710",,35.15646269801409,-106.67988515984163,"5058436168","12-70",,,,,,,
,"1740376086","SOUTHEASTERN WOMEN'S HEALTH CENTER","807 N MONTE VISTA ST","ADA",OK,"748207711",,34.78172030333072,-96.63486276139109,"5803328855","12-70",,,,,,,
,"1306878780","UNIVERSITY SPECIALTY CLINICS - OBSTETRICS/GYNECOLOGY","TWO MEDICAL PARK","COLUMBIA",SC,"292299422",,34.0007493,-81.0343313,"8037794928","12-70",,,,"3922",,,
,"1528005055","PACIFIC GYNECOLOGY & OBSTETRICS MEDICAL GROUP INC","2100 WEBSTER ST","SAN FRANCISCO",CA,"941152377",,37.7790262,-122.419906,"4159233123","12-70",,,,,,,
,"1285746560","WOMEN'S PHYSICIAN GROUP","1469 POPLAR AVE","MEMPHIS",TN,"381042934",,35.143505210526314,-90.01165231578948,"9012763222","12-70",,,,,,,
,"1013094002","MCMINNVILLE WOMENS HEALTH CARE PC","2700 SE STRATUS AVENUE","MCMINNVILLE",OR,"971286258",,45.19890235,-123.16512037734205,"5034352020","12-70",,,,,,,
,"1265468524","UNIVERSITY OF UTAH DEPARTMENT OF OB/GYN","50 N MEDICAL DR","SALT LAKE CITY",UT,"841320001",,40.77303195744681,-111.83727257446809,"8015812719","12-70",,,,,,,
,"1508838095","CAROLINA OB-GYN LLC","4017 HWY 17 BYPASS","MURRELLS INLET",SC,"295765032",,33.5499183,-79.0430329,"8436516525","12-70",,,,"4243",,,
,"1578584199","TENNESSEE WOMEN'S CARE, PC","1900 CHURCH ST","SPRINGHILL",TN,"37174",,52.5573809,-2.170022849667955,"6159862410","12-70",,,,,,,
,"1497713002","WOMEN FIRST, OBSTETRICS & GYNECOLOGY, P.C.","4700 UNION DEPOSIT RD","MILLERSBURG",PA,"170611258",,40.5417153,-76.9614003,"7176526605","12-70",,,,"164548",,,
,"1053471748","PRINCE WILLIAM OB GYN ASSOCIATES LTD","8640 SUDLEY ROAD","MANASSAS",VA,"201104404",,38.76779105,-77.48925131124759,"7033617778","12-70",,,,,,,
,"1376651091","WOMAN TO WOMAN GYN OF NAPLES","3920 VIA DEL REY","BONITA SPRINGS",FL,"341347594",,26.326459217670422,-81.818322637724,"2396769406","12-70",,,"F77288","K0776",,,
,"1942248661","WOMENS HEALTH GROUP INC.","121 NORTHWEST AVE","TALLMADGE",OH,"442781809",,41.10469155717692,-81.44526518065915,"3306331352","12-70",,,,"9293752",,,
,"1316050214","RUSHMORE OB-GYN PC","3006 TOWER RD","RAPID CITY",SD,"577015392",,44.0385501,-103.2466843,"6053437295","12-70",,,,,,,
,"1447291190","MEDICAL PARK OBGYN PC","150 SOUTH INGLESIDE AVE","FAIRHOPE",AL,"365321804",,30.5231647,-87.9028458,"2519281222","12-70",,,,,,,
,"1700853553","CORNERSTONE CLINIC FOR WOMEN","9500 BAPTIST HEALTH DR STE 100","LITTLE ROCK",AR,"722056340",,34.746789,-92.385743,"5012245500","12-70",,,,"57069",,,
,"1942290143","OBSTETRICS & GYNECOLOGY OF INDIANA LLC","11595 N MERIDIAN ST","ZIONSVILLE",IN,"460778051",,39.950724,-86.2616968,"3175757304","12-70",,,,"677690",,,
,"1700956596","CLARKSVILLE OB GYN ASSOCIATES","1824 MEMORIAL DRIVE","CLARKSVILLE",TN,"370434605",,36.51968237274864,-87.30603565688065,"9315526070","12-70",,,,,,,
"511872","1194759290","WOMEN CARE INC","97 GREAT TEAYS BLVD","WINFIELD",WV,"252139791",,38.5331448,-81.8934676,"3047576999","12-70",,,,"9293223",,,
,"1770625600","AUDUBON WOMEN'S MEDICAL ASSOCIATES, PC","2240 NORTH FOREST RD.","WILLIAMSVILLE",NY,"142211357",,42.9637836,-78.7377258,"7166394034","12-70",,,,,,,
,"1821167115","WOMEN'S INSTITUTE FOR SPECIALIZED HEALTH, PLLC","1751 GUNBARREL RD","CHATTANOOGA",TN,"374217162",,35.022664750000004,-85.16089981149356,"4236971857","12-70",,,,,,,
,"1306816079","OB-GYN ASSOCIATES, PA","3520 E. LOUISE DR","NAMPA",ID,"836877912",,43.5737361,-116.559631,"2089550350","12-70",,,,,,,
,"1770501132","METRO OB GYN LLC","201 RIDGE ST","OMAHA",NE,"681302318",,41.2587459,-95.9383758,"7123295700","12-70",,,,"I0370",,,
,"1790865087","PARKSIDE WOMENS CENTRE, LLC","1518 TWO NOTCH RD SE","AIKEN",SC,"298035551",,33.530498147799484,-81.719387826813,"8036497746","12-70",,,"F89894",,,,
,"1396780193","WOMAN'S MATERNAL FETAL MEDICINE","9000 AIRLINE HIGHWAY","BATON ROUGE",LA,"708175100",,30.4436926,-91.0906731,"2259248338","12-70",,,,,,,
,"1023050630","COURTVIEW OB GYN ASSOCIATES PA","527 S NEW HOPE RD","GASTONIA",NC,"280542175",,35.257223052465285,-81.14956740881863,"7048543600","12-70",,,,,,,
,"1750489399","SOMERSET OBGYN ASSOCIATION","215 UNION AVE","HILLSBOROUGH",NJ,"088445006",,40.5052296,-74.6732941,"9087222900","12-70",,,,,,,
,"1497788079","PIEDMONT GYNECOLOGICAL AND OBSTETRICAL ASSOCIATES","704 GOLD HILL ROAD","SHELBY",NC,"281503917",,35.2923513,-81.5356463,"8038350434","12-70",,,,"CJ4433",,,
,"1376588970","COMPREHENSIVE WOMEN'S CARE, INC.","3600 OLENTANGY RIVER RD","WESTERVILLE",OH,"430816045",,40.126139,-82.9295287,"6145835552","12-70",,,,,,,
,"1215297007","ALL ABOUT WOMEN","4735 OGLETOWN STANTON RD","WILMINGTON",DE,"198082954",,39.7459468,-75.546589,"3022248400","12-70",,,,,,,
,"1568456945","MID-KANSAS WOMENS CENTER PA","9300 E 29TH ST N","WICHITA",KS,"672262183",,37.7384073,-97.2302056,"3166851277","12-70",,,,"110964",,,
"GAB39974","1629186457","RIVERVIEW OBSTETRICS AND GYNECOLOGY PLLC","5908 BEDFORD STREET","PASCO",WA,"993016605",,46.2779493,-119.2208874,"5095474724","12-70",,,,"GAB39974",,,
,"1316128127","SNYDER OBGYN","3980 SHERIDAN DR","SNYDER",NY,"142261727",,42.9636689,-78.7839218,"7169292600","12-70",,,"E84823","BA0004",,,
,"1821055252","SEASONS OB GYN LLC","9279 MEDICAL PLAZA DR STE A","N CHARLESTON",SC,"294069141",,32.974995957541545,-80.07237261591698,"8435692900","12-70",,,"5918",,,,
,"1154354140","UNIVERSITY GYNECOLOGISTS & OBSTETRICIANS,INC.","1001 MAIN ST FL 4","WILLIAMSVILLE",NY,"142213647",,42.9637836,-78.7377258,"7166368284","12-70",,,,"13089A",,,
,"1043247307","WOMEN'S HEALTH CORPORATION","6845 ELM ST","MCLEAN",VA,"221016027",,38.93629,-77.1807844,"7037489880","12-70",,,"B95164",,,,
,"1619070497","CENTER FOR WOMENS HEALTH AT EVERGREEN","12303 NE 130TH LN","KIRKLAND",WA,"980342901",,47.7155693,-122.1774539,"4258994455","12-70",,,,,,,
,"1093733537","BRIGHAM AND WOMENS PHYSICIANS ORGANIZATION INC","75 FRANCIS ST","BOSTON",MA,"021156110",,42.335679999999996,-71.1060436296658,"6177325500","12-70",,,,,,,
,"1952492175","TOTAL WOMEN'S CARE, INC","1445 HARRISON AVE NW","CANTON",OH,"447082634",,40.81473748800607,-81.39792253792929,"3304529900","12-70",,,"F59317",,,,
,"1801826680","PHYSICIANS FOR WOMEN'S HEALTH, LLC","22 WATERVILLE ROAD","WINSTED",CT,"060981140",,41.927511,-73.07178492682925,"8606783400","12-70",,,,,,,
,"1437361557","BLOSSOM OBSTETRICS GYNECOLOGY & INFERTILITY PA","420 THE PKWY STE C","GREER",SC,"296505206",,34.8714175,-82.2545087,"8646625000","12-70",,,"F16258",,,,
,"1679619449","PAINT CREEK OBSTETRICS & GYNECOLOGY PC","6700 NORTH ROCHESTER ROAD","ROCHESTER HILLS",MI,"483064378",,42.6583661,-83.1499322,"2486501534","12-70",,,"F27398",,,,
,"1780788828","DIX RIVER FAMILY MEDICINE & WOMENS HEALTHCARE CENTER PSC","102 AGRICULTURAL WAY","STANFORD",KY,"404840330",,37.532075772575546,-84.65259798341414,"6063651547","12-70",,,,"5551",,,
,"1780916486","PIEDMONT GYNECOLOGICAL AND OBSTETRICAL ASSOCIATES","1656 RIVERCHASE BLVD","ROCK HILL",SC,"297320275",,34.9800828,-80.98933142037009,"8033247606","12-70",,,,"7165",,,
,"1275635591","GLENS FALLS OBSTETRICS & GYNECOLOGY PC","28 S WESTERN AVE","GLENS FALLS",NY,"128043323",,43.309941,-73.644447,"5187986165","12-70",,,,,,,
,"1134214380","EXODUS WOMENS CENTER INC","401 OAKFIELD DR","WINTER HAVEN",FL,"338804307",,28.0222435,-81.7328568,"8136842229","12-70",,,,,,,
,"1790871028","HEART OF FLORIDA OB/GYN ASSOCIATES PA","2221 NORTH BLVD W","WINTER HAVEN",FL,"338804334",,28.0222435,-81.7328568,"8634217600","12-70",,,,,,,
,"1346230885","WOMENS HEALTH SPECIALISTS LLC","1901 LAFAYETTE RD","CRAWFORDSVILLE",IN,"479331098",,40.0401991,-86.8990249,"7653618586","12-70",,,"G26404",,,,
,"1699746347","CENTER FOR WOMENS HEALTH OF LANSDALE LLC","1000 WALNUT ST","LANSDALE",PA,"194461127",,40.250163,-75.277734,"2153681950","12-70",,,,,,,
,"1629181219","WOMEN'S CARE GROUP PC","1932 ALCOA HWY","MARYVILLE",TN,"378035134",,35.80124380428547,-83.98934801595166,"8655446196","12-70",,,,,,,
,"1619159795","WESTERN GYNECOLOGICAL AND OBSTETRICAL CLINIC INC","12842 S 3600 W STE 200","RIVERTON",UT,"840657296",,40.5179761,-111.9393701,"8012854800","12-70",,,,"000007044",,,
,"1154598324","PROGRESSIVE WOMEN'S HEALTHCARE","10 PARK PLACE SE","FOREST PARK",GA,"30297",,33.6220542,-84.3690918,"4046997096","12-70",,,,,,,
,"1588661144","WOMEN'S IMAGING AND WELLNESS, INC.","5156 BLAZER PKWY","DUBLIN",OH,"430177318",,40.087593510962854,-83.13327632599247,"6147919355","12-70",,,,"W09336081",,,
,"1518926005","SOUTH DENVER OBSTETRICS & GYNECOLOGY PC","7780 S BROADWAY STE 280","LITTLETON",CO,"801222633",,39.57408008108108,-104.98836040540542,"3037381100","12-70",,,,,,,
,"1922214931","NORTH POINTE OBGYN ASSOCIATES, LLC","1800 NORTHSIDE FORSYTH DR","DAWSONVILLE",GA,"305340990",,34.4212053,-84.1190804,"7708863555","12-70",,,,"GRP2935",,,
,"1073552493","OSU GYN & OB CONSULTANTS, LLC","2020 KENNY RD","WESTERVILLE",OH,"430812062",,40.126139,-82.9295287,"6142933069","12-70",,,,"9273073",,,
,"1548215692","KAPIOLANI MEDICAL CENTER FOR WOMEN & CHILDREN","1319 PUNAHOU ST","WAILUKU",HI,"967932528",,20.8894684,-156.5089397899955,"8089836000","12-70",,,"W19935","0000WCCHH",,,
,"1376678235","WOMENS HEALTH CARE OF WARREN P A","65 MOUNTAIN BLVD EXT","WARREN",NJ,"070595678",,40.8602222,-74.9720493,"7324699400","12-70",,,"074594",,,,
,"1871509612","MONARCH WOMENS WELLNESS PC","3802 POPLAR HILL RD","CHESAPEAKE",VA,"233215523",,36.86393115,-76.4011684602673,"7576738383","12-70",,,,"C05605",,,
,"1841232501","CHARLESTON OB/GYN LLC","1027 PHYSICIANS DR STE 110","SUMMERVILLE",SC,"294862807",,33.0186699,-80.1762704,"8437406700","12-70",,,,,,,
,"1033175609","WISE OBSTETRICS & GYNECOLOGY PA","2451 S FM 51","DECATUR",TX,"762343861",,33.2281157,-97.5930316,"9406268008","12-70",,,,"00871V",,,
,"1114075694","WEST GEORGIA OBSTETRICS & GYNECOLOGY P.C.","109 PROFESSIONAL PL","CARROLLTON",GA,"301173862",,33.57204486250768,-85.07395471217252,"7708340170","12-70",,,"D46029",,,,
,"1780638114","MORELAND OB-GYN ASSOCIATES S C","1111 DELAFIELD ST","WAUKESHA",WI,"531883407",,43.023231279637,-88.24069220892791,"2625444411","12-70",,,,,,,
,"1497702294","OB GYN ASSOCIATES OF ERIE PC","100 PEACH ST STE 300","TITUSVILLE",PA,"163541404",,41.624468,-79.669652,"8144591851","12-70",,,,,,,
,"1447410634","C JOSEPH GLENN MD OBGYN PC","1055 N 300 W","PROVO",UT,"84604",,40.24760058773419,-111.66411052932534,"8013577377","12-70",,,,"000057186",,,
,"1427092303","REGIONAL WOMENS HEALTH GROUP LLC","2401 E EVESHAM RD","VOORHEES",NJ,"080439616",,39.8659468,-74.9547893,"8564895700","12-70",,,,,,,
,"1770607913","NORTHWEST WOMEN'S CONSULTANTS, S.C.","1630 W CENTRAL RD","ARLINGTON HTS",IL,"600052453",,42.0667,-88.00130900764309,"8473943553","12-70",,,,"773670",,,
,"1316907926","NORTH FLORIDA OBSTETRICAL AND GYNECOLOGICAL ASSOCIATES PA","11437 CENTRAL PKWY","YULEE",FL,"320972848",,30.627848,-81.59022781318026,"9044722300","12-70",,,,"00933",,,
,"1932176146","ADVENTIST HEALTH ST. HELENA OB/GYN","1530 RAILROAD AVE","ST HELENA",CA,"945749554",,38.50743020833333,-122.47151479166666,"7079635006","12-70",,,,,,,
,"1124129515","ABOUT WOMEN OB/GYN","2296 OPITZ BLVD STE 440","WOODBRIDGE",VA,"221913311",,38.6375733,-77.28511966116855,"7038780740","12-70",,,,,,,
,"1720012412","R-P-W OBSTETRICS & GYNECOLOGY SC","360 W BUTTERFIELD RD","ELMHURST",IL,"601265098",,41.8636329,-87.9503536,"6308324210","12-70",,,,"207528",,,
,"1336184928","GREAT FALLS OBSTETRICAL AND GYNECOLOGICAL ASSOCIATES","1522 9TH ST S","GREAT FALLS",MT,"594055316",,47.48861522170865,-111.29232827491441,"4067617924","12-70",,,,,,,
,"1568593978","HAHN OB GYN ASSOCIATES","12255 DE PAUL DR STE 320","BRIDGETON",MO,"630442533",,38.7566055,-90.42352,"3143448100","12-70",,,,,,,
,"1972594778","HENRY OB/GYN ASSOCIATES, PC.","135 EAGLES WALK","STOCKBRIDGE",GA,"302817391",,33.51294887755102,-84.22966202040816,"7703898520","12-70",,,,,,,
,"1376505925","KERR COUNTY OB/GYN ASSOCIATES, P.A.","708 HILL COUNTRY DR STE 300A","KERRVILLE",TX,"780286079",,30.041757577490014,-99.14874712487978,"8308957755","12-70",,,,"00686K",,,
,"1205956638","GALLATIN WOMENS CENTER, P.C.","437 E MAIN ST","GALLATIN",TN,"370662982",,36.39022255555555,-86.43845211111112,"6154528705","12-70",,,,"3707632",,,
,"1033204524","CNY OBSTETRICS & GYNECOLOGY, PC","5800 HERITAGE LANDING DRIVE","EAST SYRACUSE",NY,"130579378",,43.04749965,-76.04922164999999,"3154452701","12-70",,,,"55222A",,,
,"1982774287","MID ATLANTIC WOMENS CARE PLC","12706 MCMANUS BLVD","VIRGINIA BEACH",VA,"234644122",,36.8529841,-75.9774183,"7578742229","12-70",,,,"C05528",,,
,"1407878119","COMPREHENSIVE WOMENS HEALTH SVC","622 WASHINGTON STREET","WATERTOWN",NY,"136014036",,43.96763249999999,-75.91267281351301,"3157882003","12-70",,,,"BB0024",,,
,"1720188261","WINCHESTER WOMEN'S HEALTH CARE, P.C.","27 MAIN ST STE UL1","WOBURN",MA,"018017420",,42.46687139368778,-71.14655180925908,"7819339993","12-70",,,"F32849",,,,
,"1326018706","MATERNAL FETAL MEDICINE OF SOUTHWEST FLORIDA PA","9981 HEALTHPARK CIRCLE","PORT CHARLOTTE",FL,"33952",,26.982419999999998,-82.10688734598534,"2394815477","12-70",,,,,,,
,"1518912351","WOMENS HEALTHCARE OF DOTHAN PC","4300 W. MAIN","DOTHAN",AL,"363051051",,31.2237434,-85.3933906,"3347936511","12-70",,,,"D538",,,
,"1164449930","ALTOONA OB/GYN ASSOCIATES INC","1701 12TH AVE","ALTOONA",PA,"166013100",,40.512943,-78.407566,"8149445062","12-70",,,,"074997",,,
,"1134313323","PHASE II CENTER FOR WOMENS HEALTH","348 E 4500 S","MURRAY",UT,"841078509",,40.6745484,-111.9020116,"8012629800","12-70",,,,,,,
,"1972629459","WOMEN & INFANTS HOSPITAL OF RHODE ISLAND","101 DUDLEY ST","PROVIDENCE",RI,"029052401",,41.8107718,-71.4124738,"4012730641","12-70",,,,"429080354",,,
,"1699746537","WOMEN'S HEALTH CONSULTANTS, PLC","46325 W 12 MILE ROAD","SOUTHFIELD",MI,"480754818",,42.5005243,-83.3092185,"2484651200","12-70",,,,"0N72590",,,
,"1447200654","MIDWEST CENTER FOR WOMEN'S HEALTHCARE, LTD","2801 LAKESIDE DR STE 209","VERNON HILLS",IL,"600611582",,42.220977,-87.984236,"8475621410","12-70",,,,"202300",,,
,"1932292521","OBSTETRICS AND GYNECOLOGY CARE ASSOCIATES, S.C.","1414 WOODBINE RD","BLOOMINGTON",IL,"617042817",,40.50106547123329,-88.90670851074941,"3096622273","12-70",,,"C38674",,,,
,"1356470223","CARING FOR WOMEN, INC","166 TOLL GATE RD","WARWICK",RI,"028864411",,41.70052382786257,-71.46910181390109,"4017392000","12-70",,,,,,,
"370199","1639170699","LAKESIDE WOMEN'S HOSPITAL, A MEMBER OF INTEGRIS HE","11200 NORTH PORTLAND AVENUE","OKLAHOMA CITY",OK,"731205065","109",35.5349856,-97.5834337,"4059361500","12-70","01-01",true,,"400522024","06",23,"37D2028222"
,"1255346946","HANOVER WOMEN'S HEALTH CARE PC","200 E WALNUT ST","HANOVER",PA,"173312534",,39.801942,-76.980235,"7176309330","12-70",,,,"016516",,,
,"1154519502","MILFORD OB GYN PHYSICIANS P C","309 SEASIDE AVE","MILFORD",CT,"064604625",,41.2172169,-73.0640173,"2038785913","12-70",,,,"C03051",,,
,"1225187727","TARRANT WOMENS HEALTH MEDICAL GROUP, P.A.","6100 HARRIS PKWY","JOSHUA",TX,"760586159",,32.4615291,-97.3880732,"8173465336","12-70",,,,"00855K",,,
,"1114021409","OBSTETRICS & GYNECOLOGY OF DOTHAN INC","104 MEDICAL DR","TROY",AL,"36079",,31.8087678,-85.969951,"3346719445","12-70",,,"I14449","051520983",,,
,"1013902923","WOMENS CARE FLORIDA LLC","5002 W LEMON ST","YULEE",FL,"320972848",,30.627848,-81.59022781318026,"8132860033","12-70",,,,"21238",,,
,"1932269073","SOUTHWEST WOMENS HEALTH P A","883 LEAD AVE SE","ALBUQUERQUE",NM,"871023876",,35.07988453061224,-106.63826440816327,"5052478820","12-70",,,"E07884","400521075",,,
,"1609856525","SEVEN HILLS OB-GYN ASSOCIATES LLC","2060 READING RD","WEST CHESTER",OH,"450697112",,39.3303357,-84.408275,"5137213200","12-70",,,"9295658","SE9295657",,,
,"1770692139","ASSOCIATES IN CENTRAL OHIO OBSTERTICS & GYNECOLOGY, INC.","6482 E MAIN ST","WESTERVILLE",OH,"430827800",,40.1267464,-82.9306683,"6148560327","12-70",,,,"9283641",,,
,"1427081330","NORTHWEST OBSTETRICS & GYNECOLOGY ASSOCIATES INC","3841 TRUEMAN COURT","HILLIARD",OH,"430262496",,40.037861,-83.1198629,"6147774801","12-70",,,,"N09297611",,,
,"1528152048","CONTEMPORARY OBSTETRICS & GYNECOLOGY, PC","1135 W UNIVERSITY DR STE 100","WASHINGTON",MI,"480943855",,38.8950368,-77.0365427,"2486562022","12-70",,,,,,,
,"1396817193","LOS ALAMITOS OB-GYN MEDICAL GROUP","3771 KATELLA AVE STE 219","LOS ALAMITOS",CA,"907203372",,33.8032838,-118.083338,"5625965566","12-70",,,,,,,
,"1003811993","WOMENS CARE OF WISCONSIN SC","200 THEDA CLARK MEDICAL PLZ STE 130","WAUPACA",WI,"549817580",,44.4927889,-88.9650419,"9207297105","12-70",,,,,,,
,"1568562627","GWINNETT GYNECOLOGY ASSOCIATES, PC","1800 TREE LN","SNELLVILLE",GA,"300786782",,33.878568900000005,-84.0193173871009,"7709726464","12-70",,,,,,,
,"1548351802","OB-GYN ASSOCIATES OF N VA LTD","6355 WALKER LN","ALEXANDRIA",VA,"22310",,38.7672402,-77.16077657300656,"7037195901","12-70",,,,"409891",,,
,"1316036353","WOMENS HEALTH ASSOCIATES PLLC","1050 RIVER OAKS DR","FLOWOOD",MS,"392329564",,32.32760955406836,-90.10640200562544,"6014200265","12-70",,,,,,,
,"1558415919","GRIFFIN OBGYN CLINIC PA","503 S 8TH STREET","THOMASTON",GA,"302863503",,32.8881879,-84.3265855,"7702275505","12-70",,,,,,,
,"1215951819","BRICK WOMEN'S PHYSICIANS","1140 BURNT TAVERN RD","MANASQUAN",NJ,"087363633",,40.126226,-74.049304,"7322020700","12-70",,,,,,,
,"1609957984","OB/GYN ASSOCIATES OF SPOKANE, PS","601 W 5TH AVE","SPOKANE",WA,"99204",,47.651335,-117.421181,"5094558866","12-70",,,,,,,
,"1871576512","ADVANCED GYNECOLOGY PROF,LLC","5731 SILVERSTONE TER STE 250","COLORADO SPRINGS",CO,"809193545",,38.91288293913547,-104.86444520706458,"7196338773","12-70",,,,"C480578",,,
,"1407939069","DOWNRIVER OBSTETRICS AND GYNECOLOGY PLC","1651 KINGSWAY CT","TRENTON",MI,"481831959",,42.15427151121529,-83.19118232221014,"7346712110","12-70",,,,,,,
,"1760407274","WOMENS CLINIC OF LINCOLN PC","220 LYNCREST DR","LINCOLN",NE,"685102462",,40.81241037919624,-96.63820200408338,"4024343370","12-70",,,,,,,
,"1053597427","OBGYN PROFESSIONALS OF ETN PC","9330 PARK WEST BLVD","KNOXVILLE",TN,"379234313",,35.91831535898302,-84.09858795231983,"8655313303","12-70",,,,,,,
,"1134285869","OB-GYN ASSOCIATES OF DANVILLE","101 HOLBROOK ST","DANVILLE",VA,"245411759",,36.581899,-79.401993,"4347927765","12-70",,,,,,,
,"1275544199","WOMEN FIRST OF LOUISVILLE PLLC","3900 KRESGE WAY","LOUISVILLE",KY,"402074680",,38.2542376,-85.759407,"5028918700","12-70",,,,,,,
,"1851363659","PARTNERS IN WOMEN'S HEALTHCARE, PC","1 LEMOYNE SQ","NEWPORT",PA,"170748706",,40.4778612,-77.1305373,"7177374511","12-70",,,,,,,
,"1134133630","WOMAN CARE OBGYN PLC","493 W NORTON AVE","NORTON SHORES",MI,"494443748",,43.1907699,-86.2600671,"2317276093","12-70",,,,,,,
,"1992710552","FRESNO WOMENS MEDICAL GROUP INC","7050 N RECREATION AVE","FRESNO",CA,"937208001",,36.83892897959184,-119.740343,"5593222900","12-70",,,,,,,
,"1720035223","ASSOCIATES FOR WOMEN'S CARE, P.S.C.","3213 SUMMIT SQUARE PL","LEXINGTON",KY,"405092652",,38.001611,-84.4414567,"8593811066","12-70",,,,,,,
,"1174590509","WOMEN'S HEALTH CARE, P.C.","4199 GATEWAY BLVD","NEWBURGH",IN,"476308968",,37.9745356,-87.44767614546319,"8128584610","12-70",,,,"CC1635",,,
,"1942315304","CASCADIA WOMENS CLINIC LLP","14508 NE 20TH AVE","VANCOUVER",WA,"986852519",,45.6584474,-122.6508669,"3604330022","12-70",,,,,,,
,"1568419281","TRI STATE OBSTETRICS & GYNECOLOGY","2620 CONSTITUTION BLVD","BEAVER FALLS",PA,"150101278",,40.7520097,-80.3192295,"7248430737","12-70",,,,"808839",,,
,"1376556217","CENTRAL COAST OBSTETRICS AND GYNECOLOGY, INC., A MEDICAL GROUP","100 CASA ST","TEMPLETON",CA,"934654060",,35.5496939,-120.706004,"8055448811","12-70",,,,"W15907B",,,
,"1871898536","NAUGATUCK VALLEY WOMEN'S HEALTH SPECIALISTS, PC","133 SCOVILL ST","WATERBURY",CT,"067061127",,41.55351367806351,-73.0367739377623,"2035751811","12-70",,,,,,,
,"1073786463","NORTH SHORE CONSULTANTS IN OB GYN S C","1170 E BELVIDERE RD","GRAYSLAKE",IL,"600302076",,42.338818949736485,-88.01504685691957,"8475489999","12-70",,,,,,,
,"1508892050","WOMENS HEALTH LLC","75 CLAREMONT ST","KALISPELL",MT,"599013500",,48.21173380357143,-114.32447153571428,"4067528282","12-70",,,,,,,
,"1881628535","SOUTH SHORE WOMEN'S HEALTH PC","90 LIBBEY PARKWAY","WHITMAN",MA,"02382",,46.9428831,-117.5286172,"3392014120","12-70",,,"M20388",,,,
,"1487691481","WOMEN'S CONTEMPORARY CARE ASSOCIATES, PC","120 MINEOLA BLVD","VALLEY STREAM",NY,"115811233",,40.6631362,-73.7056955,"5166633010","12-70",,,,"W20421",,,
,"1407855323","COLUMBUS OBSTETRICIANS - GYNECOLOGISTS, INC.","750 MOUNT CARMEL MALL","PICKERINGTON",OH,"431479346",,39.8842304,-82.7535049,"6144342400","12-70",,,,,,,
,"1659496552","WOMENS CLINIC AT CHERRY CREEK","4500 E 9TH AVE","DENVER",CO,"802203926",,39.73082375,-104.93450206544118,"3033225595","12-70",,,"F05714",,,,
,"1780990135","LAWRENCE OB/GYN PC","123 FRANKLIN CORNER RD","YARDLEY",PA,"190675515",,40.245664,-74.8459972,"6098961400","12-70",,,,,,,
,"1538189857","MIDWEST OB/GYN CLINIC, PC","1410 N 13TH ST","PLAINVIEW",NE,"681692037",,42.349618,-97.7934793,"4023792322","12-70",,,,,,,
,"1245265479","WOMENS CARE CENTER OF PASCO","5422 US HIGHWAY 19","TRINITY",FL,"346551810",,28.185724999999998,-82.66114095772059,"7278491659","12-70",,,"K1390",,,,
,"1104856392","NORTH PARK OB/GYN ASSOC, PC","2051 HAMILL RD # A","HIXSON",TN,"373434026",,35.1414606,-85.1746774,"4238774549","12-70",,,,,,,
,"1285830646","KALISPELL OBSTETRICS & GYNECOLOGY PLLC","210 SUNNYVIEW LN STE 201","KALISPELL",MT,"599013128",,48.21507118480673,-114.32729478956794,"4067525252","12-70",,,,,,,
,"1720151418","WOMEN'S CARE CENTER OF MEMPHIS, MPLLC","80 HUMPHREYS CTR","MEMPHIS",TN,"381208328",,35.127470252130195,-89.85585340541361,"9017471200","12-70",,,,,,,
,"1023096724","WOMENS OB GYN PC","5400 MACKINAW RD","SAGINAW",MI,"486049533",,43.479166449999994,-83.9969516512436,"9897923100","12-70",,,,,,,
,"1053416966","WOMEN'S HEALTH ASSOCIATES OF WALTON, PC","513 GREAT OAKS DR STE A","MONROE",GA,"30655",,33.0142344,-83.9044159,"7702678368","12-70",,,"F63961",,,,
,"1750597480","DEDICATED WOMENS HEALTH SPECIALISTS INC P.S.","1701 3RD ST SE","PUYALLUP",WA,"983724511",,47.17589,-122.290981,"2538404444","12-70",,,"I44317",,,,
,"1801823661","WOMEN'S DIAGNOSTIC CENTER, PA","89 SPARTA AVE","SPARTA",NJ,"078711790",,41.038819309871364,-74.64152917508952,"9737290002","12-70",,,,"055158",,,
,"1265487094","CRESCENT STREET OBSTETRICS AND GYNECOLOGY LLC","49 CRESCENT ST","MIDDLETOWN",CT,"064573601",,41.5555065,-72.6473728,"8603449993","12-70",,,,,,,
,"1245298017","PREFERRED WOMEN'S HEALTHCARE, LLC","500 MEDICAL CENTER BLVD","LAWRENCEVILLE",GA,"300463332",,33.96504,-84.016494,"7709625100","12-70",,,,,,,
,"1356525745","ADVANCED WOMENS CARE INC","1111 BOARDMAN CANFIELD RD","BOARDMAN",OH,"445124062",,41.024454,-80.674696,"3309650909","12-70",,,,"9340941",,,
,"1205832664","MED CENTER OB/GYN LLP","6550 FANNIN STREET","HOUSTON",TX,"770302722",,29.711489800000003,-95.40001664962,"7137979666","12-70",,,"H99010",,,,
,"1114943669","NORTHWEST OB-GYN, P.S.","105 W 8TH AVE STE 6020","SPOKANE",WA,"992042318",,47.647814100000005,-117.4137853079558,"5094555050","12-70",,,,,,,
,"1649282930","EASTOVER UNIVERSITY OBSTETRICS & GYNECOLOGY ASSOCIATES","101 E W T HARRIS BLVD","SHELBY",NC,"281503917",,35.2923513,-81.5356463,"7048639640","12-70",,,,"2344603",,,
,"1316035199","CENTER FOR WOMENS HEALTH CARE LLC","3505 E MERIDIAN PARK LOOP STE 100","WASILLA",AK,"996547294",,61.5824216,-149.442563,"9073574963","12-70",,,,"K151206",,,
,"1437361375","NORTHLAKE WOMEN'S SPECIALISTS","2183 NORTHLAKE PKWY","SNELLVILLE",GA,"300786797",,33.857328,-84.0199108,"7709346464","12-70",,,,,,,
,"1427194802","CORNERSTONE WOMENS HEALTHCARE A MEDICAL CORP","24619 WASHINGTON AVE STE 104","MURRIETA",CA,"925628228",,33.55603799769639,-117.21687140992366,"9518947555","12-70",,,"G61332",,,,
,"1912010729","VALLEY WOMEN'S CLINIC PLLC","16850 SE 272ND ST STE 250","RENTON",WA,"980555744",,47.4799078,-122.2034496,"2536303644","12-70",,,,,,,
,"1487737284","INTERIOR WOMEN'S HEALTH, LLC","1919 LATHROP ST","FAIRBANKS",AK,"997017423",,64.83014927543643,-147.74450862701326,"9074797701","12-70",,,,,,,
,"1427089150","KINGS COMPREHENSIVE WOMEN'S HEALTHCARE MEDICAL GROUP, INC.","460 GREENFIELD AVE","HANFORD",CA,"932303785",,36.32967913358744,-119.65829276301776,"5595840141","12-70",,,,"ZZZ00739Z",,,
,"1205006533","WOMEN'S HEALTH WISE","630 15TH AVE STE 200","LONGMONT",CO,"805012764",,40.18550105,-105.10355544949675,"3037765820","12-70",,,,,,,
,"1962415216","ONEIDA OB GYN GROUP PC","4857 STATE ROUTE 5","VERNON",NY,"134763530",,43.079672,-75.539589,"3153639995","12-70",,,,,,,
,"1518033554","SOUTH SOUND WOMEN'S CENTER LLP","3920 CAPITAL MALL DR SW","OLYMPIA",WA,"985028703",,47.0451022,-122.8950075,"3607051259","12-70",,,,,,,
,"1083778443","TTNYD&D OBGYN INC","1329 LUSITANA STREET STE B2","WAIPAHU",HI,"967972500",,21.3866667,-158.009166,"8085994200","12-70",,,,"HNTT001",,,
,"1275547606","KENTUCKY FERTILITY AND GYNECOLOGY PLLC","170 N EAGLE CREEK DR","LEXINGTON",KY,"405099087",,38.0008998,-84.4389193,"8592775736","12-70",,,,"6275",,,
,"1811953912","CLINIC FOR WOMEN, P.A.","910 ADAMS ST SE","MADISON",AL,"357582222",,34.7216617,-86.5745517475213,"2565337420","12-70",,,,,,,
,"1376756908","OBGYN GROUP OF EASTERN CONNECTICUT PC","2600 TAMARACK AVENUE","SOUTH WINDSOR",CT,"060745560",,41.8197725,-72.5546254,"8606461157","12-70",,,,"C01028",,,
,"1144250044","WOMENS CARE PC","3100 MARTIN LUTHER KING JR PKWY","SPRINGFIELD",OR,"974778800",,44.080558,-123.030895,"5414852777","12-70",,,,"R0000WCJNM",,,
,"1598873606","NORTH SEATTLE WOMEN SPECIALISTS","1801 NW MARKET ST","SEATTLE",WA,"981172000",,47.668195850000004,-122.3802073,"2067829335","12-70",,,,"215101900",,,
,"1205882602","ADVANCED OBSTETRICS AND GYNECOLOGY, LLC","4 WALTER E FORAN BLVD","LEBANON",NJ,"088332205",,40.6417683,-74.8359987,"9088060080","12-70",,,,"051097",,,
,"1336148378","SOUTHWEST OB/GYN ASSOC LLP","16651 SOUTHWEST FREEWAY","SUGAR LAND",TX,"774792347",,29.5607284,-95.6946105,"7137745131","12-70",,,,"00R39C",,,
,"1184756793","SPOKANE OBSTETRICS & GYNECOLOGY, PS","105 W 8TH AVE","SPOKANE",WA,"992042312",,47.647814100000005,-117.4137853079558,"5098384211","12-70",,,,,,,
,"1396883104","WOMENS HEALTHCARE ASSOCIATES OF SANTA MONICA A MEDICAL CORPORATION","1245 16TH ST","SANTA MONICA",CA,"904041239",,34.027749634345085,-118.48615248744964,"3104536767","12-70",,,,"W6951",,,
,"1649295304","WEST GEORGIA HEALTHCARE FOR WOMEN, P.C.","150 HENRY BURSON DR. STE. # 215","CARROLLTON",GA,"301174466",,33.5801103,-85.0766113,"7702142121","12-70",,,,,,,
"DE3439","1700925583","LAKE SHORE OB GYN OF DECATUR SC","1770 E LAKE SHORE DR","DECATUR",IL,"625264163",,39.82639463963136,-88.93365065398221,"2174294119","12-70",,,"H99460","208014",,,
,"1821100132","NORTH SPOKANE WOMENS HEALTH PS","235 E. ROWAN","SPOKANE",WA,"992071240",,47.7080593,-117.4357655,"5094892101","12-70",,,,"1700883121",,,
,"1750495859","VALLEY OBSTETRICS AND GYNECOLOGY PS","1415 N HOUK RD STE A","SPOKANE VALLEY",WA,"992161043",,47.669995,-117.23709857142858,"5099241990","12-70",,,,,,,
,"1780635219","WOMENS CENTER FOR HEALTH LP","1220 HOBSON RD","PLAINFIELD",IL,"605859518",,41.6086711,-88.2054345,"6304163300","12-70",,,,,,,
,"1306805833","ASSOCIATED WOMEN'S CARE PHYSICIANS, P.C.","3450 NE RALPH POWELL RD","LEES SUMMIT",MO,"640862361",,38.8856158,-94.2117959,"8162467200","12-70",,,,,,,
,"1891917639","OBGYN ASSOCIATES OF LANCASTER, INC.","1532 WESLEY WAY","LANCASTER",OH,"431307642",,39.7322911,-82.5645477,"7406535088","12-70",,,,,,,
"148999","1851307532","HEARTLAND WOMEN'S HEALTHCARE, LTD","430 NORTH PLEASANT","WEST FRANKFORT",IL,"62896","121",37.8978275,-88.9314583,"6184368350","12-70","12-01",true,,,"05",,
,"1275591281","FORT COLLINS WOMENS CLINIC PC","1107 S LEMAY AVE","LOVELAND",CO,"805389004",,40.3977612,-105.0749801,"9704937442","12-70",,,,"C84008",,,
,"1043241052","LINK INSTITUTE FOR WOMEN'S HEALTH","230 S MAIN ST","ORANGE",CA,"928683851",,33.74404730886905,-117.86775253098185,"7145410101","12-70",,,"A42790",,,,
,"1033104310","MT AUBURN OBSTETRICS & GYNECOLOGIC ASSOC INC","2123 AUBURN AVE","CINCINNATI",OH,"452192906",,39.12078,-84.508638,"5132414774","12-70",,,,"MT9264482",,,
,"1801953096","CEDAR RAPIDS OB-GYN SPECIALISTS, P.C.","1260 3RD AVE SE","CEDAR RAPIDS",IA,"524012106",,41.984033897959186,-91.65486714285714,"3193632682","12-70",,,,,,,
,"1255524542","OBSTETRICS AND GYNECOLOGY OF FAIRFIELD COUNTY LLC","1735 POST RD","STRATFORD",CT,"066155835",,41.2319481,-73.1420032,"2032563990","12-70",,,,,,,
,"1629159553","SARPY COUNTY OB/GYN, PC","8419 S 73RD PLZ STE 107","PAPILLION",NE,"680461507",,41.175970238663005,-96.0259669697817,"4028988500","12-70",,,,,,,
,"1205889227","SEMO GYNECOLOGY LLC","2210 BARRON RD","POPLAR BLUFF",MO,"639011908",,36.78722534068642,-90.4221926860663,"5736864133","12-70",,,"A11461","000014128",,,
,"1295746949","UNIQUE HEALTHCARE FOR WOMEN, MEDICAL CORPORATION","891 KUHN DR STE 111","CHULA VISTA",CA,"919143551",,32.65180335,-116.96491615322348,"6194759744","12-70",,,,,,,
,"1801861422","CLINIC OF OBSTETRICS AND GYNECOLOGY LTD","8905 W LINCOLN AVE","WEST ALLIS",WI,"532272469",,43.002631,-88.02368924575173,"4145458808","12-70",,,,"73116",,,
,"1134185721","OBGYN AFFILIATES","1745 SHEA CENTER DR","WHEAT RIDGE",CO,"800336040",,39.766098,-105.0772063,"7203444915","12-70",,,,"C364108",,,
,"1275600660","ASSOCIATED VALLEY OBSTETRICS AND GYNECOLOGY, INC., P.S.","4011 TALBOT RD S STE 430","RENTON",WA,"980555791",,47.443855600000006,-122.21385740788915,"4252513454","12-70",,,,"217129600",,,
,"1538100375","WOMENS HEALTHCARE OF WESTERN COLORADO PC","2525 NORTH 8TH ST","GRAND JUNCTION",CO,"815018847",,39.0910303,-108.5585653,"9702451168","12-70",,,"CB4408",,,,
,"1427003011","OBSTETRICS AND GYNECOLOGY SPECIALISTS PC","5350 EASTERN AVENUE","MAQUOKETA",IA,"520602163",,42.0690915,-90.6654748,"5633551853","12-70",,,,,,,
,"1750453346","RUTGERS HEALTH-RWJ MATERNAL FETAL MEDICINE","110 REHILL AVE","SOMERVILLE",NJ,"08879",,40.568073549999994,-74.59495675107048,"9086852864","12-70",,,,"046349",,,
,"1255360343","BRIELLE OBSTETRICS & GYNECOLOGY, PA","2671 HIGHWAY 70","MANASQUAN",NJ,"087362605",,40.126226,-74.049304,"7325286999","12-70",,,,,,,
,"1629051909","SOUTHWEST WOMENS HEALTHCARE ASSOCIATES SC","3700 W 203RD ST","OLYMPIA FIELDS",IL,"604611181",,41.5164045,-87.70289568910842,"7086791890","12-70",,,,,,,
,"1679534069","CAPITAL WOMENS CARE LLC","8110 MAPLE LAWN BLVD STE 235","WASHINGTON",DC,"200371810",,38.8950368,-77.0365427,"3013408339","12-70",,,,,,,
,"1417926676","WOMEN'S HEALTH ASSOCIATES, INC.","1601 E BROADWAY","COLUMBIA",MO,"652015821",,38.9506208,-92.3159889,"5734438796","12-70",,,,,,,
,"1538200811","CEDAR CITY INSTITUTE OF WOMEN'S HEALTH PC","110 W 1325 N","CEDAR CITY",UT,"847208183",,37.70182755,-113.06516036269605,"4358659500","12-70",,,,,,,
,"1740390640","BIRMINGHAM OBSTETRICS GYNECOLOGY, PC","800 SAINT VINCENTS DR","TUSCALOOSA",AL,"354042983",,33.2095614,-87.5675258,"2059338334","12-70",,,"E709",,,,
,"1972539401","OVERLAKE OBSTETRICIANS & GYNECOLOGIST PS","1231 116TH AVE NE","BELLEVUE",WA,"980043832",,47.6209064,-122.1859767,"4254543366","12-70",,,,"G217137400",,,
,"1811080666","FLEISCH OBSTETRICAL & GYNECOLOGICAL GROUP, PA","3 LINCOLN HIGHWAY","EDISON",NJ,"088203970",,40.55540185,-74.34579025,"7326359800","12-70",,,,,,,
,"1700870649","OBSTETRIC AND GYNECOLOGIC ASSOCIATES OF IOWA CITY PC","2769 HEARTLAND DR","IOWA CITY",IA,"522459571",,41.6612561,-91.5299106,"3193373193","12-70",,,,,,,
,"1417007576","VEENA MUMMANENI AND AFSHAN GHIAI OBGYN MED. GRP. INC.","1700 N ROSE AVE","OXNARD",CA,"93030",,34.218166,-119.158159,"8059830208","12-70",,,,,,,
"183926","1063454650","LONDON WOMEN'S CARE LLC","803 MEYERS BAKER RD STE 200","LONDON",KY,"407413040",,37.11654018940518,-84.09644441001636,"6068783240","12-70",,,,,,,
,"1043387574","WOMENS HEALTH & PREGNANCY CARE MEDICAL CENTER INC","440 GREENFIELD AVE","HANFORD",CA,"932303568",,36.32919494348092,-119.65836694266405,"5595821045","12-70",,,"E35428",,,,
,"1134250939","SIOUXLAND OBSTETRICS & GYNECOLOGY, P.C.","2730 PIERCE ST STE 201","SIOUX CITY",IA,"511043764",,42.5195016,-96.4043454,"7122773141","12-70",,,"H12209","S8602",,,
,"1417025545","PACIFIC WOMENS OBSTETRICS & GYNECOLOGY MEDICAL GROUP INC","3838 CALIFORNIA ST","SAN FRANCISCO",CA,"941095465",,37.786074,-122.4576715,"4153799600","12-70",,,,,,,
,"1609881564","ABOUT WOMEN BY WOMEN A PROFESSIONAL CORPORATION","30 WASHINGTON STREET","WELLESLEY",MA,"024811929",,42.324765,-71.260945,"7812630033","12-70",,,"G77498",,,,
,"1386636165","P. GILL OBSTETRICS & GYNECOLOGY MEDICAL GROUP, INC.","999 S FAIRMONT AVE","STOCKTON",CA,"952046117",,37.92001,-121.281814,"2094655550","12-70",,,,,,,
,"1538703772","SARASOTA OB GYN ASSOCIATES PA","2439 BEE RIDGE RD","SARASOTA",FL,"342396304",,27.298914800000002,-82.521097,"9419535022","12-70",,,,,,,
,"1063421899","ILLINOIS UROGYNECOLOGY LTD","1875 DEMPSTER ST","WINFIELD",IL,"60190",,41.8616956,-88.1609031,"8478251590","12-70",,,,,,,
,"1720056492","WOMENS HEALTH SERVICES OF EASTERN IOWA INC","2635 LINCOLN WAY","MAQUOKETA",IA,"520603056",,42.0690915,-90.6654748,"5632431413","12-70",,,"15447",,,,
,"1760664502","OBGYN SPECIALTY CLINIC PC","625 W 18TH ST","SIOUX FALLS",SD,"571050602",,43.5366100923077,-96.73360296923077,"6053380836","12-70",,,"F09103","S40491",,,
,"1457489494","ARCADIA OBGYN, PC","148 MADISON AVE","NEW YORK",NY,"100166700",,42.6461854,-73.7568802,"2122520111","12-70",,,,,,,
,"1427232545","ATHANASIOS ANTONIADIS OB GYN PC","750 MONTAUK HWY","WEST ISLIP",NY,"117954411",,40.695273549999996,-73.2993993537259,"6313761010","12-70",,,,"W2L611",,,
,"1508997719","FIFTH AVENUE GYNECOLOGISTS LTD","3033 W BELL RD STE 100","PHOENIX",AZ,"850833000",,33.63932545,-112.1246576228844,"6025880316","12-70",,,,,,,
,"1912045345","OBSTETRICAL AND GYNECOLOGICAL ASSOCIATES, INC","85 EAST US HIGHWAY 6","VALPARAISO",IN,"463838949",,41.4730948,-87.0611412,"2194626144","12-70",,,,"651320",,,
,"1700878592","SIOUXLAND WOMEN'S HEALTH CARE PC","1000 JACKSON ST","SIOUX CITY",IA,"511051431",,42.50101415,-96.40159540568382,"7122520501","12-70",,,,"17067",,,
,"1124111794","WOMENS HEALTH & WELLNESS MEDICAL ASSOCIATES PLLC","244 GRAND ST FL 6","NEW YORK",NY,"100024937",,40.7127281,-74.0060152,"2123349898","12-70",,,,,,,
,"1184668311","STRONG OBSTETRICS-GYNECOLOGY GROUP","601 ELMWOOD AVE","ROCHESTER",NY,"146234284",,43.122906349999994,-77.62538540097447,"5852563887","12-70",,,,,,,
,"1366525321","OB-GYN ASSOCIATES PC","855 A AVE NE","CEDAR RAPIDS",IA,"524025057",,41.984280454545456,-91.66125209090909,"3193685500","12-70",,,,,,,
,"1609064435","ADVANCED WOMEN'S HEALTHCARE A MEDICAL CORPORATION","79200 CORPORATE CENTER DR","YUCCA VALLEY",CA,"922843273",,34.1236205,-116.4139839,"7605647900","12-70",,,"ZZZ27958Z",,,,
,"1427061589","SOUTHERN CRESCENT WOMEN'S HEALTHCARE","1279 HIGHWAY 54 W","NEWNAN",GA,"30265",,33.3806716,-84.7996573,"7709912200","12-70",,,,,,,
,"1023123809","HARTSDALE DIAGNOSTIC AND WOMENS IMAGING SERVICES PC","141 S CENTRAL AVE","HARTSDALE",NY,"105302319",,41.01587395,-73.80292650804688,"9147614030","12-70",,,,,,,
,"1841348521","STATESBORO OB-GYN SPECIALISTS, PC","1523 FAIR RD","VIDALIA",GA,"304748914",,32.2176855,-82.4134614,"9128712000","12-70",,,,"GRP102",,,
,"1265461339","DELAWARE VALLEY OB-GYN AND INFERTILITY GROUP PC","2 PRINCESS RD","LAWRENCEVILLE",NJ,"086482320",,40.300987649999996,-74.73737283395636,"6098960777","12-70",,,,,,,
,"1891710679","MARIETTA OB GYN AFFILIATES, P.A.","699 CHURCH ST NE","MARIETTA",GA,"300646409",,33.969244395833336,-84.55042722916667,"7704228509","12-70",,,,,,,
,"1972573541","MIDTOWN OBSTETRICS AND GYNECOLOGY, P.C.","4600 HALE PKWY","DENVER",CO,"802204000",,39.73335575799369,-104.93443173810624,"3033212166","12-70",,,,"C61704",,,
,"1427076967","BRIGHAM AND WOMENS PHYSICIANS ORGANIZATION INC","75 FRANCIS ST","BOSTON",MA,"02115",,42.335679999999996,-71.1060436296658,"6177325500","12-70",,,,,,,
,"1336186501","PRATT OB/GYN ASSOCIATES, INC","800 WASHINGTON ST","WOBURN",MA,"018011976",,42.4946907,-71.1242899,"6176365000","12-70",,,,,,,
,"1124060595","ST. BARNABAS OB/GYN, P.C.","4422 3RD AVE","BRONX",NY,"104623365",,40.85338135,-73.89087797899765,"7189609415","12-70",,,,,,,
,"1760596381","ASSOCIATES IN WOMEN'S HEALTH PC","3555 LUTHERAN PARKWAY","WHEATRIDGE",CO,"800334342",,41.149953350000004,-85.12945374617999,"3039401867","12-70",,,"P02231","A0408",,,
,"1083609796","PUEBLO ASSOC IN OB & GYN PC","1120 MINNEQUA AVE","PUEBLO",CO,"810043734",,38.23311970055791,-104.62374310378986,"7195640660","12-70",,,,,,,
,"1225058027","COOPER FACULTY OB GYN PC","1103 KINGS HWY N","WILLINGBORO",NJ,"080461126",,40.0278894,-74.8690542,"8563211800","12-70",,,,"526556",,,
,"1609071570","NORTHWEST GYNECOLOGY ASSOCIATES PLLC","406 SE 131ST AVE BLDG C","VANCOUVER",WA,"986834104",,45.6306954,-122.6744557,"3608924024","12-70",,,,,,,
,"1215054275","CENTER FOR WOMEN'S HEALTH P C","16122 8TH AVE SW","SEATTLE",WA,"981662967",,47.5191486,-122.3454451,"2062462291","12-70",,,,"AB32087",,,
,"1538114723","UNIVERSITY ASSOCIATES IN OBSTETRICS & GYNECOLOGY, UNIVERSITY FACULTY P","100 NICOLLS RD","WEST ISLIP",NY,"117954927",,40.7058564,-73.3077301,"6314442731","12-70",,,,"W07161",,,
,"1487604963","PARK SLOPE OBSTETRICS & GYNECOLOGY PC","506 6TH ST","BROOKLYN",NY,"112153609",,40.667825449999995,-73.97914371327701,"7187803272","12-70",,,,"W32311",,,
,"1598709263","WOMENS HEALTH SPECIALISTS PLLC","7800 WOLF TRAIL COVE","GERMANTOWN",TN,"381381753",,35.11540682984117,-89.80232960913257,"9016829222","12-70",,,,"3723253",,,
,"1518186881","SOUTHSIDE OB-GYN PC","8051 S EMERSON AVE STE 400","MOORESVILLE",IN,"461581737",,39.6128243,-86.37416,"3178653600","12-70",,,,,,,
,"1104863588","BETHANY WOMENS HEALTHCARE","3660 W BETHANY HOME RD","PHOENIX",AZ,"850191953",,33.52404395833334,-112.13734120833334,"6029733200","12-70",,,"D35812",,,,
,"1275588014","NORTHERN OBSTETRICS & GYNECOLOGY, PC","3111 NEW HYDE PARK RD","NEW HYDE PARK",NY,"110421209",,40.7643406,-73.6904856,"5163656100","12-70",,,,,,,
,"1295919355","ASSOCIATES IN OBSTETRICS & GYNECOLOGY PC","8580 SCARBOROUGH DRIVE","COLORADO SPRINGS",CO,"809207583",,38.9604238,-104.7411601,"7195963344","12-70",,,,"F24398",,,
,"1427067057","SHAW CENTER FOR WOMEN'S HEALTH","918 S BROAD ST","THOMASVILLE",GA,"317926198",,30.82812521433061,-83.97169334929313,"2292268800","12-70",,,,,,,
,"1710978861","WOMENS HEALTH OF NORTHEAST NEBRASKA PC","2504 W BENJAMIN AVE","NORFOLK",NE,"687013120",,42.0283379,-97.4169964,"4023799999","12-70",,,,,,,
,"1790953438","SCOTTSDALE OBSTETRICS & GYNECOLOGY P. C.","7331 E OSBORN DR","SCOTTSDALE",AZ,"852516422",,33.48679008163265,-111.92433408163265,"4809454849","12-70",,,"H41460","Z66272",,,
,"1790726149","RUTGERS HEALTH-RWJ OB/GYN GROUP","125 PATERSON ST","SOMERSET",NJ,"088731344",,40.5675084,-74.6189556,"7322356600","12-70",,,,"423949",,,
,"1669643698","PRIORITY WOMEN'S HEALTH ALLIANCE","1140 WESTMONT DR","HOUSTON",TX,"770154364",,29.773295909285586,-95.194571593701,"7134504457","12-70",,,"H54552","00835U",,,
,"1063461580","UNDERSTANDING WOMEN PC","1008 E MCDOWELL RD","PHOENIX",AZ,"850283851",,33.4659381,-112.0602728,"6023930661","12-70",,,"F99276",,,,
,"1871649533","WOMENS MEDICAL CENTER OF MERIDIAN","1523 22ND AVE","MERIDIAN",MS,"393014016",,32.37226234372778,-88.70002686613387,"6014830039","12-70",,,"H12197",,,,
,"1245307842","WESTVIEW WOMEN'S CENTER","3451 S 5600 W","WEST VALLEY",UT,"841201301",,40.7181912,-112.024862,"8019631880","12-70",,,,,,,
,"1396721197","OMNI WOMENS HEALTH MEDICAL GROUP INC","3812 N 1ST ST","FRESNO",CA,"937305938",,36.78709345637336,-119.77232184531748,"5594953120","12-70",,,,,,,
,"1255444576","CENTENNIAL VALLEY WOMENS CLINIC","511 CROSSING DR","LAFAYETTE",CO,"800263176",,40.0025684,-105.1021506,"3036730777","12-70",,,,,,,
,"1417093808","OB-GYNE ASSOCIATES OF LAKE FOREST LTD","959 S. WAUKEGAN RD","LAKE FOREST",IL,"600452654",,42.22265163265306,-87.87299363265306,"8472343250","12-70",,,"H58544",,,,
,"1437332517","OB GYN SPECIALISTS OF NORTH ATLANTA PC","330 TURNER MCCALL BLVD SW STE 105","ROME",GA,"301655631",,34.257038,-85.1646726,"7062356539","12-70",,,"G28468","GRP6286",,,
,"1366576100","GREATER ATLANTA OBGYN ASSOCIATES","6285 SHANNON PKWY","UNION CITY",GA,"30291",,33.57850952035438,-84.54034174013923,"7709644142","12-70",,,"F67595",,,,
,"1366483257","VICTORIA WOMEN'S CLINIC ASSOCIATES","110 MEDICAL DR","VICTORIA",TX,"779043101",,28.855201333333333,-97.02052133333333,"3615785233","12-70",,,,,,,
,"1134167158","COASTAL CAROLINA OB GYN LLC","620 SINGLETON RIDGE RD","CONWAY",SC,"295269154",,33.7816198549937,-79.01258162095316,"8433490100","12-70",,,"B90123",,,,
,"1467467845","SAVANNAH OBGYN PC","5356 REYNOLDS ST","SAVANNAH",GA,"314056082",,32.02849285714286,-81.10122928571428,"9123558136","12-70",,,"R99017",,,,
,"1770501132","METRO OB GYN LLC","201 RIDGE ST","DENISON",IA,"51442",,42.0177718,-95.3553286,"7123295700","12-70",,,,"I0370",,,
,"1982600466","GYNECOLOGICAL & OBSTETRIC ASSOCS SC","1614 W CENTRAL RD STE 205","ARLINGTON HEIGHTS",IL,"600052453",,42.06669475848065,-88.0002194559849,"8473929191","12-70",,,,"675390",,,
"311837","1700816816","COMPLETECARE ADULT & WOMEN'S MED PROFESSIONALS","70 COHANSEY STREET - PO BOX 597","VINELAND",NJ,"08306","011",39.4862777,-75.0254256,"8564514700","12-70","21-01",true,,,"02",,
,"1003038415","JUNAELO WOMEN'S HEALTH & FERTILITY CENTER","4601 EVERHARD RD NW","CANTON",OH,"447182408",,40.8595877,-81.4154787,"3304979400","12-70",,,,,,,
,"1750334363","METRO OBSTETRICS & GYNECOLOGY PC","8391 COMMERCE RD","COMMERCE TOWNSHIP",MI,"483824489",,42.5915986,-83.44888898571102,"2483609090","12-70",,,,"0M95880",,,
,"1649362948","JUNEAU OBSTETRICS AND GYNECOLOGY, P.C.","3268 HOSPITAL DR STE B","JUNEAU",AK,"998017800",,58.32962730110534,-134.46976870954424,"9075861717","12-70",,,"D37792",,,,
,"1447378518","CAMELBACK WOMENS HEALTH PC","11209 N TATUM BLVD","PHOENIX",AZ,"850286025",,33.5883218,-111.97671124753396,"6024945050","12-70",,,"67303",,,,
,"1659327567","WOMENS HEALTH PARTNERS PA","75 SPRINGVIEW LANE","SUMMERVILLE",SC,"294858154",,32.96124919366987,-80.15960257959401,"8438325096","12-70",,,,,,,
,"1174702468","WOMENS CARE OF ALASKA PC","2741 DEBARR RD STE C205","ANCHORAGE",AK,"995082961",,61.20978366160248,-149.82975141436035,"9072792273","12-70",,,,"0000WFBRL",,,
,"1265496061","ANCHORAGE WOMEN'S CLINIC AT PROVIDENCE LLC","3260 PROVIDENCE DR STE 425","EAGLE RIVER",AK,"995777043",,61.3154099,-149.561315,"9075617111","12-70",,,,,,,
,"1619053899","OBSTETRICS AND GYNECOLOGY MEDICAL ASSOCIATES OF REDDING, INC.","2626 EDITH AVENUE","REDDING",CA,"960013056",,40.570892971800525,-122.39727357521102,"5302442130","12-70",,,"A48037",,,,
,"1578521464","PARTNERS IN OBSTETRICS AND GYNECOLOGY PLC","3421 W 9TH ST","WATERLOO",IA,"507025401",,42.4606665,-92.34607912254894,"3192338865","12-70",,,,,,,
,"1326066267","OBGYN SPECIALISTS OF THE PALM BEACHES PA","770 NORTHPOINT PKWY STE 200","WEST PALM BEACH",FL,"334072450",,26.7607567,-80.0967002,"5616553331","12-70",,,,"40880",,,
,"1538275870","ESSEX COUNTY OBGYN ASSOC INC","83 HERRICK ST","GLOUCESTER",MA,"019304832",,42.6159286,-70.6619888,"9787508300","12-70",,,,,,,
,"1003896341","ROWANSOM DEPT OF MATERNAL-FETAL MEDICINE","570 EGG HARBOR RD","SEWELL",NJ,"080809344",,39.7665029,-75.1443435,"8562180300","12-70",,,"C55363",,,,
"220110","1790717650","BRIGHAM & WOMENS HOSPITAL INC","75 FRANCIS ST","WEST BRIDGEWATER",MA,"023791542",,42.0219112,-71.019004,"6177325500","12-70",,,,,,,
,"1326086331","PISCATAWAY SOMERSET OB GYN GROUP","31 STELTON RD","SOMERSET",NJ,"088735036",,40.49917805,-74.59083795,"7327527755","12-70",,,,,,,
,"1811957491","LOW COUNTRY WOMENS SPECIALISTS","83 SPRINGVIEW LN","SUMMERVILLE",SC,"294858154",,32.96090537989725,-80.15992552105655,"8437973664","12-70",,,,,,,
,"1306854302","WOMENS HEALTHCARE PC","1402 WEST 4TH STREET","GILLETTE",WY,"827163426",,44.29111356798729,-105.523254521398,"3076822233","12-70",,,,,,,
,"1124203229","GLEN LAKES OB GYN PA","997 RAINTREE CIR","ALLEN",TX,"750134955",,33.11167715,-96.6795578306573,"2146928660","12-70",,,,"00257W",,,
,"1659452977","DOVER WOMEN'S HEALTH, P.A.","700 CENTRAL AVE","PORTSMOUTH",NH,"038018001",,43.0822771,-70.7728896,"6037422424","12-70",,,,,,,
,"1871595702","PROGRESSIVE WOMEN'S CARE, INC.","7600 SOUTHERN BLVD","YOUNGSTOWN",OH,"445041315",,41.061522,-80.65776,"3306292677","12-70",,,,,,,
,"1144304817","VALLEY OBSTETRICS & GYNECOLOGY MEDICAL GROUP INC","400 N PEPPER AVE","COLTON",CA,"923241801",,34.0695909,-117.3530211,"9095806333","12-70",,,,,,,
,"1811003627","CENTRAL WOMEN'S HEALTH CARE, PA","1200 BROOKLYN AVE","SAN ANTONIO",TX,"782211703",,29.4402731,-98.49057710253513,"2102280705","12-70",,,,,,,
,"1083678130","B H C -PRINCETON OB/GYN","1925 AVENUE E","HUEYTOWN",AL,"350231845",,33.458102999999994,-86.95233276079975,"2057835164","12-70",,,,,,,
,"1790801587","NORTH FLORIDA WOMEN'S CARE, P.A.","1401 CENTERVILLE RD","TALLAHASSEE",FL,"323084638",,30.460591,-84.261317,"8508777241","12-70",,,"W13224","99644",,,
,"1891812483","COASTAL BEND WOMENS CENTER","7121 S PADRE ISLAND DR STE 200","CORPUS CHRISTI",TX,"784124940",,27.694760903615055,-97.34312930622785,"3619936000","12-70",,,,"00CB64",,,
,"1750475596","THE WOMEN'S PAVILION, PSC","2200 E PARRISH AVE","OWENSBORO",KY,"423031449",,37.7600097,-87.0783551,"2709263700","12-70",,,"C73904","504409",,,
,"1326014101","WEST DES MOINES OB/GYN ASSOCIATES PC","4949 WESTOWN PKWY","WEST DES MOINES",IA,"502667736",,41.5967407,-93.7704378,"5152235466","12-70",,,,,,,
,"1447325915","COMPREHENSIVE WOMENS HEALTHCARE PLLC","201 W GUADALUPE RD","GILBERT",AZ,"852333319",,33.364347154991094,-111.79464063399466,"4808130944","12-70",,,,"Z64824",,,
,"1306847140","MATLOCK OBSTETRICS AND GYNECOLOGY ASSOCIATES, P.A","515 W MAYFIELD RD","ARLINGTON",TX,"760142084",,32.69091469696969,-97.11140589393939,"8174684689","12-70",,,,"00R31C",,,
,"1376678854","TENNESSEE VALLEY OB-GYN CLINIC PC","910 ADAMS ST SE STE 200","HUNTSVILLE",AL,"358013759",,34.7216617,-86.5745517475213,"2562656512","12-70",,,,"I605",,,
,"1639159619","ASSOCIATED OB GYN SPECIALISTS OF SANTA BARBARA","2329 OAK PARK LN","SANTA BARBARA",CA,"931054280",,34.42896,-119.725391,"8056828166","12-70",,,,,,,
,"1487696837","WOMEN'S HEALTHCARE OF MIDDLE GEORGIA, INC.","130 BYRD WAY","WARNER ROBINS",GA,"310888937",,32.61057183059838,-83.68564026372525,"4789229136","12-70",,,,,,,
,"1316128085","LINDSTROM OB GYN","2204 S. DOBSON RD","MESA",AZ,"852026457",,33.3751785,-111.8800498,"4806336868","12-70",,,,"Z68686",,,
,"1508939166","PARK AVENUE OBSTETRICS AND GYNECOLOGY PC","5757 W THUNDERBIRD RD STE W310","GLENDALE",AZ,"853065601",,33.609475,-112.1826005,"6023932450","12-70",,,,,,,
,"1144252990","UNIVERSITY OF MARYLAND OBSTETRICAL AND GYNECOLOGICAL ASSOCIATES PA","419 W REDWOOD ST","COLUMBIA",MD,"210452638",,39.1938429,-76.86460919353361,"4103286640","12-70",,,,"CI3558",,,
,"1841329794","CALHOUN OBSTETRICS AND GYNECOLOGY ASSOCIATES","170 CURTIS PKWY NE","CALHOUN",GA,"307010170",,31.5311784,-84.614328,"7066251275","12-70",,,,,,,
,"1699740407","HEARTLAND REGIONAL OBGYN PA","514 CLEVELAND ST","GREAT BEND",KS,"675303562",,38.35568455000001,-98.79078539841993,"6207922151","12-70",,,,,,,
,"1740391200","THE CENTER FOR WOMENS HEALTH","122 W COLLEGE AVENUE","HARTSVILLE",SC,"295504114",,34.37513907305045,-80.07448273321995,"8433838889","12-70",,,"F94831",,,,
,"1952406761","OB/GYN SPECIALISTS, LLP","380 HOSPITAL DR","MACON",GA,"312178005",,32.84565828884281,-83.61843020632718,"4787434646","12-70",,,"GRP910",,,,
,"1801829346","MEDFORD WOMENS CLINIC LLP","3170 STATE ST","MEDFORD",OR,"975048450",,42.31435642483067,-122.82370619570945,"5418648900","12-70",,,,,,,
,"1568465151","THE WOMEN'S HEALTH GROUP, P.A.","1620 CHARLES PL","MANHATTAN",KS,"665024861",,39.19787315000001,-96.60359483599194,"7857761400","12-70",,,,"110318",,,
,"1780683292","WOMEN'S MEDICAL CENTER LLP","2000 W 21ST ST","CLOVIS",NM,"881014092",,34.41935443495131,-103.22959415715499,"5057628055","12-70",,,"D35474",,,,
,"1063441921","LONE STAR OB/GYN ASSOCIATES, P.A.","7950 FLOYD CURL DR","SAN ANTONIO",TX,"782293916",,29.512238333333332,-98.57633712121212,"2106156505","12-70",,,,"00U29Q",,,
,"1093700551","WESTWOOD OBSTETRICS & GYNECOLOGY","375 N WALL ST","KANKAKEE",IL,"609013675",,41.12350559490662,-87.88204626032007,"8159327474","12-70",,,,,,,
,"1548215536","REGIONAL WOMENS HEALTH GROUP LLC","101 OLD SHORT HILLS RD BLDG STE 101","WOOLWICH TOWNSHIP",NJ,"080851276",,39.741175,-75.34835656769522,"9737361100","12-70",,,,,,,
,"1780990135","LAWRENCE OB/GYN PC","123 FRANKLIN CORNER RD","LAWRENCEVILLE",NJ,"086482524",,40.300987649999996,-74.73737283395636,"6098961400","12-70",,,,,,,
,"1538285739","DAKOTA WOMENS CLINIC MICHAEL R KRAUSE DO PC","625 N FOSTER ST # 108","MITCHELL",SD,"573012971",,43.70953,-98.025379,"6059901995","12-70",,,"H90947",,,,
,"1710194097","AZALEA WOMENS CENTER, PC","2307 N PATTERSON ST","VALDOSTA",GA,"316022510",,30.858009458663524,-83.28888080785849,"2292428888","12-70",,,,"GRP3948",,,
,"1568561637","AFFILIATES IN OB GYN PA","111 STATE ROUTE 31","FLEMINGTON",NJ,"088224953",,40.5130953,-74.8591333,"9087822825","12-70",,,,,,,
,"1407840069","DOUGLAS WOMENS CENTER PC","880 CRESTMARK DR","LITHIA SPRINGS",GA,"301222646",,33.7939953,-84.6604899,"7709418662","12-70",,,,,,,
,"1174501902","ATLANTA WOMEN'S HEALTH GROUP PC","5780 PEACHTREE DUNWOODY ROAD","WOODSTOCK",GA,"301894898",,34.1014112,-84.5192192,"4043031224","12-70",,,,,,,
,"1376874958","WOMEN'S HEALTH ENTERPRISE, INC","634 MCDONOUGH BLVD SE","ATLANTA",GA,"303154424",,33.71348291304348,-84.36724526086957,"4046351300","12-70",,,"S00370",,,,
,"1194849828","PARKWEST GYNECOLOGY, P.C.","9330 PARK WEST BLVD","KNOXVILLE",TN,"379234311",,35.91831535898302,-84.09858795231983,"8655315878","12-70",,,"S54506",,,,
,"1790720910","WINFIELD OB/GYN","191 CARAWAY DR","WINFIELD",AL,"355945067",,33.928993,-87.8172457,"2054871203","12-70",,,"C74689",,,,
,"1255399564","CONTRA COSTA MEDICAL GROUP FOR WOMEN, INC.","500 ALFRED NOBEL DR","LAFAYETTE",CA,"945493952",,37.8857582,-122.1180201,"5107244435","12-70",,,,,,,
,"1215980925","OB/ GYN ASSOCIATES OF THE CENTRAL COAST","335 KATHERINE AVE.","SALINAS",CA,"939013176",,36.660139273680066,-121.6502920375692,"8318001913","12-70",,,,"ZZZ26927Z",,,
,"1053377473","CHICAGO WOMEN'S HEALTH GROUP AT NORTHWESTERN","333 E SUPERIOR ST","CHICAGO",IL,"606112637",,41.895733,-87.619418,"3129430282","12-70",,,,,,,
,"1346296142","WOMEN'S HEALTHCARE ASSOCIATES LLC","7650 SW BEVELAND RD","TUALATIN",OR,"970627707",,45.3838546,-122.766351,"5036013615","12-70",,,,"R106566",,,
,"1235236472","OB GYN ASSOCIATES WOMENS HEALTH INC","9 S MEDICAL PARK DR","LEXINGTON",VA,"244502457",,37.7840208,-79.4428157,"5409325577","12-70",,,,,,,
,"1750337069","BLACK HILLS OBSTETRICS AND GYNECOLOGY LLP","677 CATHEDRAL DRIVE","RAPID CITY",SD,"577016018",,44.058615450000005,-103.22996678245173,"6053439224","12-70",,,,"S7509",,,
,"1043204225","NORTHWEST WOMEN'S CLINIC, PC","2222 NW LOVEJOY ST","PORTLAND",OR,"972255911",,45.5294739,-122.69692925000001,"5032297720","12-70",,,,,,,
,"1700878592","SIOUXLAND WOMEN'S HEALTH CARE PC","1000 JACKSON ST","DAKOTA DUNES",SD,"570495000",,42.4874948,-96.48642,"7122520501","12-70",,,,"17067",,,
,"1720115389","CHEROKEE WOMEN'S HEALTH SPECIALIST, P.C.","227 RIVERSTONE DR","WOODSTOCK",GA,"301894822",,34.1014112,-84.5192192,"7707207733","12-70",,,,,,,
,"1730269242","MISSISSIPPI COAST OB/GYN, P.A.","21 DOCTORS DR","OCEAN SPRINGS",MS,"395645709",,30.41313855,-88.76865409078025,"2288721505","12-70",,,,,,,
,"1972660116","ALL WOMENS HEALTHCARE OF SAWGRASS INC","603 N FLAMINGO RD","PEMBROKE PINES",FL,"330281016",,26.0121989,-80.30921913474819,"9548451190","12-70",,,,,,,
,"1659560654","WOMEN 2 WOMEN MEDICAL CENTER, INC","33 CREEK RD","IRVINE",CA,"926047707",,33.6753016,-117.7968951,"9495591099","12-70",,,,"W17195",,,
,"1750482048","ASSOCIATES IN OBSTETRICS & GYNECOLOGY, PC","1105 BURLEYSON RD","DALTON",GA,"307203181",,34.79041695652174,-84.98601995652174,"7062784640","12-70",,,,,,,
,"1952358152","JAMES RIVER OB GYN, P.C.","7101 JAHNKE RD","RICHMOND",VA,"232254017",,37.512842750000004,-77.52632438990386,"8042725508","12-70",,,,,,,
,"1477623452","DENALI OB-GYN ASSOC","3976 UNIVERSITY LAKE DR STE 300","ANCHORAGE",AK,"995084644",,61.18691145,-149.80728459414695,"(907) 222-9930","12-70",,,,"153042",,,
,"1427108729","BROOKHAVEN OB-GYN ASSOCIATES, PA","1012 D A BIGLANE DR","BROOKHAVEN",MS,"396012331",,31.589723009001712,-90.45651983715918,"6018338157","12-70",,,,,,,
,"1811039191","WOMEN'S INTEGRATED HEALTH CARE, P.C.","5625 WATER TOWER PL","SANDUSKY",MI,"484710000",,41.2951563,-83.1555438,"2489220615","12-70",,,,,,,
,"1891803904","VALLEY OB GYN CLINIC PC","926 N MICHIGAN AVE","SAGINAW",MI,"486024323",,43.4228827755102,-83.95611991836735,"9897538453","12-70",,,,"0G36028",,,
,"1013012244","MISSON OB/GYN MEDICAL GROUP, INC.","26800 CROWN VALLEY PARKWAY","SAN CLEMENTE",CA,"926732841",,33.4270275,-117.6124179,"9493641040","12-70",,,,,,,
,"1225085475","DEKALB WOMENS SPECIALISTS","1458 CHURCH ST STE B","STONE MOUNTAIN",GA,"30087",,33.8062166,-84.1457505,"4045082000","12-70",,,,,,,
,"1275690604","NORTHLAKE OBSTETRICS AND GYNECOLOGY, PC","3957 HOLCOMB BRIDGE RD.","NORCROSS",GA,"300925244",,33.9449553,-84.2231059,"7709395102","12-70",,,,,,,
,"1871654624","THE WOMENS CENTER PC","2750 OWENS RD SW","STOCKBRIDGE",GA,"30281",,33.5442781,-84.2338093,"6784134644","12-70",,,,"GRP6104",,,
,"1578626552","CHARLESTON WOMENS WELLNESS CENTER LLC","5319 PARKSHIRE WAY","MONCKS CORNER",SC,"29461",,33.1960027,-80.0131374,"8437672121","12-70",,,"H06959","6843",,,
,"1679746986","COASTAL ASSOCIATES OF OB/GYN","2444 PARKWOOD DR","BRUNSWICK",GA,"315204721",,31.173691163265307,-81.48443318367346,"9122670424","12-70",,,"D39867",,,,
,"1578690392","BRIGHAM FAULKNER OB GYN ASSOCIATES PC","1153 CENTRE ST","BOSTON",MA,"02130",,42.3017598,-71.12855793387442,"6179837003","12-70",,,,,,,
,"1447340401","PEACHTREE CITY OBSTETRICS AND GYNECOLOGY, P.C.","210 CLOVER REACH","PEACHTREE CITY",GA,"302691657",,33.39268797169055,-84.58668542048301,"7704879604","12-70",,,,,,,
,"1346360138","FOXHALL OB GYN ASSOC PC","5215 LOUGHBORO RD NW","WASHINGTON",DC,"200162628",,38.9369511,-77.1085901,"2022433500","12-70",,,,"408689",,,
,"1649482217","WESTSIDE MIDWIFERY & WOMENS HEALTH PC","401 S ALABAMA ST","BUTTE",MT,"597012358",,46.009112,-112.547671,"4067238051","12-70",,,"P68360",,,,
,"1922171081","COBB GYN CLINIC, P.C.","3327 HIGHWAY 5","DOUGLASVILLE",GA,"301352307",,33.7514966,-84.7477136,"7705777030","12-70",,,"253781533A",,,,
,"1770770679","CHATTANOOGA WOMENS SPECIALISTS PC","2009 OLD LAFAYETTE RD","FORT OGLETHORPE",GA,"307423510",,34.95963679224596,-85.25967652546278,"7068615950","12-70",,,,"1770770679",,,
,"1609916337","DUBLIN OB-GYN & ASSOCIATES, P.C.","23 ERIN OFFICE PARK","DUBLIN",GA,"310212842",,32.5404447,-82.903754,"4782728580","12-70",,,,"GRP1765",,,
,"1770541609","EAST CASCADE WOMEN'S GROUP, PC","2400 NE NEFF RD STE A","BEND",OR,"977016752",,44.065818,-121.275542,"5413893300","12-70",,,,,,,
,"1982618278","OB/GYN SPECIALISTS OF SOUTHEASTERN OHIO, INC.","1230B CLARK STREET","CAMBRIDGE",OH,"43725",,40.0326234,-81.5805727,"7404398859","12-70",,,,,,,
,"1124129804","CENTRAL IOWA OB/GYN SPECIALISTS OF DES MOINES PLC","2501 WESTOWN PKWY","WEST DES MOINES",IA,"50266",,41.59746845,-93.74001106232726,"5152678300","12-70",,,,,,,
,"1760415202","SALEM WOMENS CLINIC, INC","1395 LIBERTY ST SE","SALEM",OR,"973024276",,44.92739125,-123.04307302505214,"5033992444","12-70",,,"W20533","0000WCNGH",,,
,"1750352894","OBSTETRICS GYNECOLOGY ASSOCIATES PA","1793 CLIFF GOOKIN BLVD","TUPELO",MS,"388016723",,34.23343878118986,-88.76400425451907,"6628421161","12-70",,,,,,,
,"1265593917","MILLEDGEVILLE OBGYN ASSOCIATES, P.C.","750 N COBB ST","MILLEDGEVILLE",GA,"310617163",,33.087568672434266,-83.24433331322464,"4784538511","12-70",,,,,,,
,"1073629630","MACON GYN/OB ASSOCIATES","650 COLISEUM PL","MACON",GA,"312173867",,32.8406946,-83.6324022,"4787457935","12-70",,,,,,,
,"1669410569","WEST AUGUSTA OBSTETRICS & GYNECOLOGY, P.C.","1126 MEDICAL CENTER DR","AUGUSTA",GA,"309091810",,33.484273969459956,-82.0916684296029,"7068635082","12-70",,,,,,,
,"1821070061","ALL WOMENS HEALTHCARE INC","4105 PEMBROKE RD","PLANTATION",FL,"333172835",,26.1275862,-80.2331036,"9549851551","12-70",,,,,,,
,"1134254741","WOMEN'S HEALTHCARE AFFILIATES, P. A.","9180 PINECROFT DRIVE","SHENANDOAH",TX,"773802794",,30.1777097,-95.4568377,"2813676836","12-70",,,,,,,
,"1083802110","HABERSHAM OB/GYN ASSOCIATES","870A AUSTIN DR","DEMOREST",GA,"305354508",,34.565193,-83.5453322,"7067543997","12-70",,,,,,,
,"1851336267","GREENBRIER OBSTETRICS AND GYNECOLOGY, P. C.","713 VOLVO PKWY","CHESAPEAKE",VA,"23320",,36.767506002921145,-76.2353683899353,"7575474500","12-70",,,"E57876",,,,
,"1235170150","UNIVERSITY OB/GYN ASSOCIATES, INC.","736 IRVING AVE","SYRACUSE",NY,"132152265",,43.04128485,-76.13882506907481,"3154707575","12-70",,,,"38443A",,,
,"1477683738","SOUTH FLORIDA WOMENS HEALTH ASSOCIATES INC","2345 W HILLSBORO BLVD","DEERFIELD BEACH",FL,"334421110",,26.318052162058965,-80.1351997824357,"9544274966","12-70",,,,"21912",,,
,"1053439174","GYNECOLOGY & OBSTETRICS PROFESSIONAL GROUP OF WEST GEORGIA PC","1602 VERNON RD STE 200","LAGRANGE",GA,"302404100",,33.03221218791946,-85.06799718120806,"7068846026","12-70",,,"F43088",,,,
,"1235351388","OB-GYN MEDICAL GROUP","15243 VANOWEN ST","VAN NUYS",CA,"914053600",,34.193999636363635,-118.46483781818182,"8187812330","12-70",,,,"W640",,,
,"1447304134","METRO-MIAMI OB/GYN ASSOCIATES, P.A.","100 NW 170TH ST","N MIAMI BEACH",FL,"331695511",,25.9306385,-80.2025155,"3056534105","12-70",,,,,,,
,"1598975542","ALBANY OB-GYN LLC","1001 N MONROE ST","ALBANY",GA,"317011952",,31.590348,-84.159141,"2294367248","12-70",,,,,,,
,"1295872992","ALEXANDRIA WOMENS CENTER A MEDICAL","3304 MASONIC DRIVE","ALEXANDRIA",LA,"713014255",,31.28343000344788,-92.45999617641756,"3184437222","12-70",,,"G86166",,,,
,"1225228604","LOW COUNTRY OB/GYN, PC","5353 REYNOLDS ST","SAVANNAH",GA,"314056087",,32.0277204,-81.1002568,"9123555755","12-70",,,,"GRP3254",,,
,"1952398125","SUSQUEHANNA VALLEY WOMENS HEALTH CARE PC","694 GOOD DR","WILLOW STREET",PA,"175849640",,39.9815552,-76.26998351878873,"7173978177","12-70",,,,"085705",,,
,"1821138942","WOMEN'S HEALTH ASSOCIATES, PC","980 JOHNSON FERRY RD NE","ATLANTA",GA,"303421628",,33.7489924,-84.3902644,"4042523898","12-70",,,"G30524",,,,
,"1598708224","WOMENS HEALTH OF BLAIRSVILLE","47 WEAVER RD","BLUE RIDGE",GA,"305136239",,34.863972,-84.324087,"7067459220","12-70",,,"H56014",,,,
,"1831208032","YVONNE L SCOTT OB GYN","2200 FOUNTAIN DR","SNELLVILLE",GA,"300782919",,33.856300820807704,-84.02893995037833,"7706829002","12-70",,,"D30755",,,,
,"1275664781","WOMENCARE PC","1201 18TH ST","COLUMBUS",GA,"319011724",,32.479563,-84.975655,"7063224950","12-70",,,"C75045",,,,
,"1467401901","WOMEN'S HEALTH CENTER OF LEBANON, LTD","300 WILLOW ST","PALMYRA",PA,"170783554",,40.3128701,-76.5994347,"7172738835","12-70",,,,,,,
,"1467664276","LIFE CYCLE OBGYN, LLC","2739 FELTON DR","EAST POINT",GA,"303443603",,33.68058135,-84.42433602469083,"4047668371","12-70",,,"I48677",,,,
,"1932144482","ROCK HILL GYNECOLOGICAL AND OBSTETRICAL ASSOCIATES, PA","1721 EBENEZER RD","ROCK HILL",SC,"297321119",,34.957454548005984,-81.04681206401447,"8033282401","12-70",,,,,,,
"800522098","1649218637","SOUTHERN OKLAHOMA WOMEN'S HEALTH","731 12TH AVE NW","ARDMORE",OK,"734015764",,34.186831229729734,-97.13909943243243,"5802249000","12-70",,,,,,,
,"1003912866","ANNAPOLIS OB/GYN ASSOCIATES, P.A.","2000 MEDICAL PKWY","GLEN BURNIE",MD,"210615707",,39.1595439,-76.61515136556432,"4105739530","12-70",,,,,,,
,"1235167867","WOMEN PARTNERS IN OB/GYN LLP","502 MADISON OAK DR","SCHERTZ",TX,"781541194",,29.5641617,-98.2695702,"2109461300","12-70",,,"0075BR",,,,
,"1083731137","NEW BRITAIN OBSTETRICAL & GYNECOLOGICAL GROUP PC","40 HART ST","SOUTHINGTON",CT,"064892539",,41.612598937044176,-72.87891280821525,"8602242447","12-70",,,,,,,
,"1043373855","OSWEGO COUNTY OB-GYN PC","42 MONTCALM ST","OSWEGO",NY,"131262564",,43.45978702729326,-76.51967014877953,"3153432590","12-70",,,,,,,
,"1588786495","WOMEN'S HEALTH PROFESSIONALS LLC","414 5TH AVE","ALBANY",GA,"317011918",,31.592886076274763,-84.15663600126584,"2298834555","12-70",,,,"GRP3716",,,
,"1861503948","FOUR CORNERS OB/GYN","1 MERCADO ST","DURANGO",CO,"813017311",,37.236276,-107.8254646,"9703828800","12-70",,,,"C196908",,,
,"1528149143","WEST OAKLAND OBGYN PLLC","34505 W 12 MILE RD","FARMINGTON HILLS",MI,"483313286",,42.49846779347826,-83.3881032146739,"2488481479","12-70",,,,,,,
,"1225054877","CUMBERLAND OBSTETRICS AND GYNECOLOGY PA","1102 E CHESTNUT AVE","VINELAND",NJ,"083607059",,39.47819390909091,-75.00744454545455,"8566901025","12-70",,,,,,,
,"1811920531","CROWN OBSTETRICS & GYNECOLOGY PC","300 CONGRESS STREET","QUINCY",MA,"021690907",,42.2345525,-71.01493330273374,"6174796636","12-70",,,,"M20169",,,
,"1326018656","WOMENS TOTAL CARE OF EAST TEXAS","649 S BROADWAY AVE STE 2","TYLER",TX,"757011677",,32.343390285714285,-95.30077744897959,"9039392273","12-70",,,,"00702R",,,
,"1962419978","WOOD COUNTY WOMENS CARE OF BOWLING GREEN, LLC","1214 RIDGEWOOD DR","BOWLING GREEN",OH,"434022664",,41.373118936439795,-83.67121163682678,"4193528427","12-70",,,,,,,
,"1306962410","CHESAPEAKE WOMEN'S HEALTH LLC","401 PURDY STREET","EASTON",MD,"216014060",,38.764051,-76.062822,"4108200038","12-70",,,,,,,
,"1598703233","SAN JOSE WOMENS MEDICAL GROUP INC","2504 SAMARITAN DR","SAN JOSE",CA,"95124",,37.25077,-121.9493197,"4083581804","12-70",,,"G46940",,,,
,"1215942677","NORTH PLATTE OB/GYN PC","1115 S WILLOW ST","OGALLALA",NE,"691532465",,41.1248328,-101.7189583,"3085344804","12-70",,,,,,,
,"1386827376","AUGUSTA WOMEN CENTER","2100 CENTRAL AVE","AUGUSTA",GA,"309046717",,33.469839,-82.01115,"7067365378","12-70",,,,"GRP3508",,,
,"1386768604","CONTEMPORARY OBGYN OF WESTERN KENTUCKY PSC","2605 KENTUCKY AVE","PADUCAH",KY,"420033800",,37.0745063342153,-88.62501943221197,"2704449199","12-70",,,,,,,
,"1326071309","GYNECOLOGY & FERTILITY, P.C.","1500 S 48TH ST","LINCOLN",NE,"685061279",,40.79777,-96.653568,"4024899684","12-70",,,,,,,
,"1215017447","PADUCAH WOMEN'S CLINIC PSC","2311 KY AVE","PADUCAH",KY,"420033243",,37.0833893,-88.6000478,"2704438425","12-70",,,,"2575",,,
,"1225030943","SUBURBAN WOMENS HEALTHCARE PC","4041 DELAWARE AVE","AMHERST",NY,"142261631",,42.9783924,-78.7997616,"7168765512","12-70",,,,,,,
,"1447387519","ROCKY MOUNTAIN WOMEN'S HEALTH CENTER INC","1580 W ANTELOPE DR STE 290","LAYTON",UT,"840411179",,41.08923712846643,-111.99464243017891,"8017760880","12-70",,,,"000055136",,,
,"1194991695","NORTHEAST GEORGIA GYNECOLOGY","440 WASHINGTON ST SE","GAINESVILLE",GA,"305013739",,34.30169455704698,-83.8228712885906,"7705329250","12-70",,,"H52815","16BBCGR",,,
,"1255380283","OCEAN GYNECOLOGICAL & OBSTETRICAL ASSOCIATES, PA","475 ROUTE 70","TOMS RIVER",NJ,"087557339",,39.9537359,-74.1979576,"7323648000","12-70",,,,,,,
,"1811928054","MT VERNON OB/GYN, LLC","755 MOUNT VERNON HWY NE","ATLANTA",GA,"303284277",,33.7489924,-84.3902644,"4042562277","12-70",,,,"GRP3738",,,
,"1952518698","SOUTHERN CRESCENT WOMENS HEALTH SPECIALISTS AT EAGLE'S LANDING","1050 EAGLES LANDING PKWY STE 302","STOCKBRIDGE",GA,"302816486",,33.5098449,-84.225017,"7704740064","12-70",,,,,,,
,"1457358004","TOMBALL WOMEN'S HEALTH CARE CENTER PA","929 GRAHAM DR","TOMBALL",TX,"773756451",,30.08868769258127,-95.62529528040682,"2813515548","12-70",,,,"00498W",,,
,"1083603005","ATHENS WOMEN'S CLINIC, LLP","1270 PRINCE AVE","ATHENS",GA,"306062762",,33.9632799,-83.3993088,"7065481388","12-70",,,,,,,
,"1407024557","SOUTHSIDE OB/GYN, P.C.","9390 FORD AVE","SAVANNAH",GA,"314054434",,32.061272,-81.137157,"9127563404","12-70",,,,"GRP109",,,
,"1902875966","WOMEN'S HEALTH OF AUGUSTA, P.C.","1303 DANTIGNAC ST","AUGUSTA",GA,"309012792",,33.4709714,-81.9748429,"7067334427","12-70",,,,"GRP1092",,,
,"1023124146","ARISTA OB/GYN ASSOCIATES, P.C.","12389 CRABAPPLE RD","ALPHARETTA",GA,"300046328",,34.08467815,-84.35486927252347,"7704757275","12-70",,,,,,,
,"1689711558","MATERNAL GYNERATIONS, PC","761 OLD NORCROSS RD","LAWRENCEVILLE",GA,"300454317",,33.958394863022896,-84.01535530685918,"7705134000","12-70",,,,,,,
,"1336194166","GRAND TRAVERSE WOMENS CLINIC PLLC","1200 6TH ST","TRAVERSE CITY",MI,"496842369",,44.7606441,-85.6165301,"2313920650","12-70",,,,"0N30860",,,
,"1598946899","CONTEMPORARY OB GYN ASSOCIATES LLC","11119 ROCKVILLE PIKE","SILVER SPRING",MD,"209024053",,38.9997621,-77.02403709829767,"3014680073","12-70",,,,,,,
,"1437175080","BLUE RIDGE OB/GYN ASSOCIATES PLLC","11001 DURANT RD","RALEIGH",NC,"276148390",,35.907381,-78.597118,"9197812500","12-70",,,,,,,
,"1154378198","CARTERSVILLE OB/GYN ASSOCIATES","958 JOE FRANK HARRIS PKWY SE","CARTERSVILLE",GA,"301202129",,34.19922571434737,-84.79468998939204,"7703864824","12-70",,,,,,,
,"1023139136","NORTH SHORE ASSOCIATES IN GYNECOLOGY AND OBSTETRICS SC","2500 RIDGE AVE","WILMETTE",IL,"60091",,42.0757315,-87.7193768,"8474751224","12-70",,,,,,,
,"1831389048","EMPOWER WOMEN HEALTH CENTER PC","900 1ST ST","MACON",GA,"312016806",,32.830807,-83.636096,"4787434030","12-70",,,,,,,
,"1467428334","COLBERT OB GYN","1120 S JACKSON HWY","SHEFFIELD",AL,"356605770",,34.746914535373655,-87.70212170453031,"2563860855","12-70",,,,,,,
,"1033324629","OGEECHEE OBGYN, P.C.","1310 BRAMPTON AVE","STATESBORO",GA,"304580851",,32.408596432053905,-81.77047360340667,"9128716206","12-70",,,,"DE6356",,,
,"1801825104","OBGYN PARTNERS OF AUGUSTA, PROFESSIONAL CORPORATION","1348 WALTON WAY","EVANS",GA,"308093191",,32.1613648,-81.8980725,"7067221381","12-70",,,,,,,
,"1912966847","DECATUR OB/GYN ASSOCIATES, P.A.","1304 13TH AVE SE STE B","DECATUR",AL,"356015514",,34.58826329985026,-86.97135113053328,"2563559711","12-70",,,"C75027",,,,
,"1245298934","WOMEN'S WELLNESS CENTER, PC","777 MAZZUCHELLI PL","DUBUQUE",IA,"520022628",,42.5006243,-90.6647985,"5635880011","12-70",,,,,,,
,"1649434952","NORTH METRO WOMENS'S HEALTHCARE P.C.","601A PROFESSIONAL DR","LAWRENCEVILLE",GA,"300458720",,33.9612281,-84.0172447,"7703388331","12-70",,,,,,,
,"1639211824","RUTHERFORD OB-GYN ASSOCIATES PA","446 NC 108 HWY","RUTHERFORDTON",NC,"281391208",,35.3692877,-81.9567716,"8282877383","12-70",,,,,,,
,"1922085364","WOMEN'S BREAST CARE CENTER, INC","3319 STATE ROAD 7","WELLINGTON",FL,"334498067",,26.62847654754457,-80.20424186043736,"5619651100","12-70",,,"D21058",,,,
,"1891864724","EAST ATLANTA GYNECOLOGY ASSOCIATES PC","5900 HILLANDALE DR","LITHONIA",GA,"300583858",,33.7123305,-84.1051939,"7705938866","12-70",,,"F11127",,,,
,"1669534210","MY OBGYN PC","81 UPPER RIVERDALE RD","RIVERDALE",GA,"302742627",,33.577238696804166,-84.39192038435256,"7709961200","12-70",,,,,,,
"268533","1033106166","OB/GYN SPECIALTY SERVICES","415-A BURKARTH ROAD","WARRENSBURG",MO,"640933101","101",38.7681503,-93.7236543,"6604292992","12-70","12-01",true,,,"07",,
,"1306884911","MEMPHIS OBSTETRICS AND GYNECOLOGICAL ASSOCIATION PC","6215 HUMPHREYS BLVD","MEMPHIS",TN,"381202382",,35.129063061837996,-89.85451812749221,"9017678448","12-70",,,,"3387157",,,
,"1134243249","ROSEBURG WOMEN S HEALTH CARE PC","1937 W HARVARD AVE","ROSEBURG",OR,"974712779",,43.213814702866905,-123.37293679475982,"5416777200","12-70",,,"C90928","114512",,,
,"1275662835","NORTHWESTERN WOMENS HEALTH ASSOCIATES SC","680 N LAKESHORE DRIVE","GLENVIEW",IL,"600268071",,42.0700662,-87.8114044,"3124409400","12-70",,,,,,,
,"1235177924","UNIVERSITY OBSTETRICIANS-GYNECOLOGISTS,INC","550 UNIVERSITY BLVD","MUNCIE",IN,"473033428",,40.1936892,-85.3865271,"3172741661","12-70",,,,,,,
,"1639114556","PERIMETER OB/GYN CARE, LLC","1462 MONTREAL RD","TUCKER",GA,"300846902",,33.826385375,-84.2500785,"7703963496","12-70",,,,"GRP2071",,,
,"1760676597","CATERINA VIOLI MD OBGYN LLC","2 1/2 DEARFIELD DR","GREENWICH",CT,"068315335",,41.0321665,-73.6327771,"2038619586","12-70",,,,,,,
,"1093818544","WOMENS IMAGING CENTER","3773 CHERRY CREEK NORTH DRIVE","WESTMINSTER",CO,"800218683",,39.8366528,-105.0372046,"3033212273","12-70",,,,,,,
,"1255533022","ASSOCIATES IN OBSTETRICS & GYNECOLOGY, PA","522 E BROAD ST","CHATHAM",NJ,"079282744",,40.7409242,-74.3836711,"9082322639","12-70",,,"078374",,,,
,"1952483612","OB-GYN SERVICES, P.C.","17 CASE ST","NORWICH",CT,"063602700",,41.5530516,-72.1023326,"8608862461","12-70",,,,,,,
,"1770581233","GYNECOLOGIC ASSOCIATES PARKERSBURG INC","705 GARFIELD AVE","PARKERSBURG",WV,"261015444",,39.269599105279376,-81.56112803690907,"3044854700","12-70",,,,"9348421",,,
,"1093862641","EASTERN SHORE GYNECOLOGY, P.A.","598 CYNWOOD DR # 105","EASTON",MD,"216013805",,38.761192,-76.063695,"4108221221","12-70",,,,,,,
,"1639276850","ACADIANA MATERNAL FETAL MEDICINE APMC","4630 AMBASSADOR CAFFERY PKWY","LAFAYETTE",LA,"705086949",,30.15472115647192,-92.04633127207025,"3379899826","12-70",,,,"5CB41",,,
,"1679784466","CROSSVILLE GYNECOLOGY ASSOCIATES, P.C.","448 W ADAMS ST","CROSSVILLE",TN,"385554981",,35.939171082916054,-85.02904083571428,"9314840042","12-70",,,,,,,
,"1033394333","FROM WOMAN TO ALL WOMEN PA","4542 N FEDERAL HWY","FORT LAUDERDALE",FL,"333085204",,26.1252386,-80.1374423,"9544929974","12-70",,,,"K1597",,,
,"1003821786","VALDOSTA WOMENS HEALTH CENTER PC","604 E PARK AVE","VALDOSTA",GA,"316023060",,30.85695179591837,-83.27955928571429,"2293330277","12-70",,,"GRP2129",,,,
,"1083774384","EAU CLAIRE WOMEN'S CARE S.C.","1110 OAK RIDGE DR","EAU CLAIRE",WI,"547016133",,44.79679995434804,-91.51728557883476,"7158349998","12-70",,,,,,,
,"1447232657","ALL WOMENS HEALTHCARE OF DADE INC","100 NW 170TH ST","N MIAMI BEACH",FL,"331695511",,25.9306385,-80.2025155,"3056530550","12-70",,,,,,,
,"1013001254","BAYVIEW OB/GYN, PC","560 W MITCHELL ST","SAINT IGNACE",MI,"497811712",,45.8686238,-84.7278281,"2314872340","12-70",,,,,,,
,"1760405021","WOMEN'S SPECIALTY CARE PC","682 HEMLOCK ST","MACON",GA,"312018310",,32.83200688,-83.63471156,"4787449683","12-70",,,,,,,
,"1598779050","OB GYN ASSOCIATES","5353 REYNOLDS ST","SAVANNAH",GA,"314056082",,32.0277204,-81.1002568,"9123554408","12-70",,,,,,,
,"1528162070","LARAMIE PHYSICIANS FOR WOMEN P.C.","2710 HARNEY ST SUITE 100","RAWLINS",WY,"823015371",,41.7907878,-107.239176,"3077458991","12-70",,,"H75424",,,,
,"1427182682","NORTHWEST NEW MEXICO WOMEN'S HEALTH SPECIALISTS LLC","610 W PINON ST","FARMINGTON",NM,"874015974",,36.723046,-108.21375388,"5053251123","12-70",,,,"300521039",,,
,"1134272917","CASPER OBSTETRICAL AND GYNECOLOGICAL ASSOCIATES PC","150 NORTH MELROSE ST.","CASPER",WY,"826012735",,42.850797403261105,-106.30830848800657,"3072346988","12-70",,,,"W4371034",,,
,"1962413260","OBSTETRICS & GYNECOLOGY, PA","105 BRIARCLIFF RD","WARNER ROBINS",GA,"310884039",,32.61774716666666,-83.63290983333333,"4789223191","12-70",,,,,,,
,"1235240136","THE NORTH TEXAS CENTER FOR WOMENS HEALTH","3305 NORTH CALAIS","SHERMAN",TX,"750901796",,33.67298733493582,-96.60312260848225,"9038931116","12-70",,,,,,,
,"1407800444","MAITRI HEALTH CARE FOR WOMEN PC","185 TILLEY DR","SOUTH BURLINGTON",VT,"054034484",,44.4490468661742,-73.1520651214039,"8028627338","12-70",,,"VN3131",,,,
,"1184623928","HIGHLAND OBSTETRICS AND GYNECOLOGY, INC.","484 HIGHLAND AVENUE","FALL RIVER",MA,"027203744",,41.7123245,-71.1456004,"5086723700","12-70",,,,"M15618",,,
,"1518011626","CHEYENNE OBSTETRICS & GYNECOLOGY, INC.","2301 HOUSE AVE","CHEYENNE",WY,"820013180",,41.1405788,-104.815424,"3076345216","12-70",,,,,,,
,"1346398807","THE WOMEN'S GROUP OF GWINNETT, P.C.","1700 TREE LN","LAWRENCEVILLE",GA,"30046",,33.9562149,-83.9879625,"7709794700","12-70",,,,,,,
,"1114906633","THE WOMENS CENTER OF TARRANT COUNTY INC","1723 HEMPHILL","FORT WORTH",TX,"761101516",,32.7244078,-97.33123905202109,"8179274040","12-70",,,,,,,
"091818","1962520288","MARY'S CENTER FOR MATERNAL AND CHILD CARE","508 KENNEDY STREET NW","WASHINGTON",DC,"200117517","001",38.9561565,-77.0203782,"2025456600","12-70","21-01",true,,,"03",,
,"1831294537","ADVANCED WOMEN'S HEALTHCARE IN OBSTETRICS & GYNECOLOGY PLLC","8 BROAD ST","PLATTSBURGH",NY,"129013420",,44.69554995,-73.45262905,"5185638880","12-70",,,,,,,
,"1639103757","BROOKSIDE GYNECOLOGY ASSOCIATES PC","159 W PUTNAM AVE","GREENWICH",CT,"068305329",,41.0271894,-73.6316766,"2038697080","12-70",,,,"C01494",,,
,"1942258702","ASSOCIATES FOR WOMEN'S MEDICINE PLLC","770 JAMES ST","SYRACUSE",NY,"132032502",,43.0557368,-76.1407602,"3154222222","12-70",,,"C59157",,,,
,"1174569974","CRYSTAL RIVER WOMENS HEALTH CENTER PA","6151 N SUNCOAST BLVD","CRYSTAL RIVER",FL,"344286719",,28.902479,-82.5926012,"3527940878","12-70",,,,"K5629",,,
,"1467593624","SOUTHWEST VA PHYSICIANS FOR WOMEN, INC","826 DAVIS ST","PEMBROKE",VA,"241363678",,37.3196202,-80.6390886,"5409511550","12-70",,,,"C05123",,,
,"1538197215","OB GYN OF HOUSTON LLP","6410 FANNIN ST","HOUSTON",TX,"77030",,29.714232833333334,-95.39741216666667,"7137968334","12-70",,,"E68210",,,,
,"1710106232","WEST VALLEY WOMENS CARE LTD","9305 W THOMAS RD","PHOENIX",AZ,"850373360",,33.4780586,-112.26037430723649,"6239361780","12-70",,,,,,,
,"1831304237","ANDOVER OBSTETRICS AND GYNECOLOGICAL ASSOCIATES PC","323 LOWELL STREET","LAWRENCE",MA,"018412961",,42.705272,-71.17293766666667,"9784752731","12-70",,,,,,,
,"1336167113","OBSTETRIC & GYNECOLOGIC ASSOCIATES OF HANOVER, INC.","120 PENN ST","HANOVER",PA,"173311928",,39.80974125755148,-76.97976484532695,"7176321477","12-70",,,,"458966",,,
,"1992750343","PREMIER WOMEN'S CARE INC","2606 WALES AVE NW","MASSILLON",OH,"446462394",,40.8226845,-81.5029818,"3308344000","12-70",,,"H21074",,,,
,"1245247386","PARTNERS IN WOMENS HEALTH,LLC","7420 CENTRAL AVE","RIVER FOREST",IL,"603051893",,41.88716227856459,-87.81040829698588,"7083862400","12-70",,,,,,,
,"1457398380","TRIANGLE PREMIER WOMENS HEALTH PA","520 NORTH ST","SMITHFIELD",NC,"275774016",,35.514251591125316,-78.33867482264203,"9199343015","12-70",,,"C82241",,,,
,"1366633539","DESERT MOUNTAIN OB GYN PC","14220 N NORTHSIGHT BLVD","SCOTTSDALE",AZ,"852603950",,33.61437424906285,-111.8978720630522,"4805850804","12-70",,,"G36794","Z68704",,,
,"1407941149","WOMENS HEALTH GROUP INC","9001 S 101ST EAST AVE","TULSA",OK,"741335798",,36.1298485,-95.8644339,"9182936200","12-70",,,,,,,
,"1932278652","OB-GYN ASSOCIATES OF MONTGOMERY, P.C.","495 TAYLOR RD","WETUMPKA",AL,"360923329",,32.5437448,-86.2119127,"3342799333","12-70",,,,"E013",,,
,"1255487385","ALTAMONTE WOMENS CENTER PA","707 BALLARD ST","ALTAMONTE SPRINGS",FL,"327015426",,28.653368469387754,-81.36564502040817,"4073317784","12-70",,,,"34993A",,,
,"1871556001","WOMENS HEALTH SERVICES OF BUCKS COUNTY","105 FLORAL VALE BLVD","YARDLEY",PA,"190675522",,40.245664,-74.8459972,"2154974975","12-70",,,,,,,
,"1568411197","GENESIS WOMENS CARE INC","741 PRESIDENT PL STE 250","SMYRNA",TN,"371676812",,35.97902261570527,-86.55950482780538,"6152239876","12-70",,,"3717809",,,,
,"1598863573","MIDWEST CENTER FOR WOMENS HEALTH S.C.","10222 74TH STREET","KENOSHA",WI,"531426810",,42.5674758,-87.8353724,"2626979200","12-70",,,,,,,
,"1881897346","ASSOCIATES IN WOMEN'S CARE PC","31100 TELEGRAPH RD","BINGHAM FARMS",MI,"480254347",,42.5223475,-83.2856414,"2482900390","12-70",,,"G07578","0N90690",,,
,"1235198045","CONWAY OB-GYN CLINIC PA","2180 ADA AVENUE","CONWAY",AR,"720344300",,35.08598506382728,-92.45512184024068,"5013276547","12-70",,,,,,,
,"1427154442","SOUTHEAST VALLEY OBSTETRICS & GYNECOLOGY PLC","4566 E INVERNESS AVE","MESA",AZ,"852095001",,33.3811223,-111.73483159871441,"4804642101","12-70",,,,,,,
,"1386839819","VALLEY UROGYNECOLOGY ASSOCIATES LTD","1616 E MARYLAND AVE","PHOENIX",AZ,"850161302",,33.5312092,-112.04666175517714,"6027881521","12-70",,,,"Z70982",,,
,"1114074457","NEW MEXICO GYNECOLOGY CONSULTANTS, PC","4901 LANG AVE. NE","ALBUQUERQUE",NM,"871094597",,35.17326662187805,-106.59078383353231,"5052425353","12-70",,,,"2372912",,,
,"1629037817","CENTER FOR WOMENS HEALTH","13921 N MERIDIAN AVE","OKLAHOMA CITY",OK,"731341104",,35.5362317,-97.6011384,"4057557430","12-70",,,,,,,
,"1255430088","ESSENTIAL WOMENS CARE, P.C.","4545 E 9TH AVE","DENVER",CO,"802203910",,39.7312918,-104.93469379999999,"7209418266","12-70",,,"H36064",,,,
,"1881879328","OBSTETRICS & GYNECOLOGY CONSULTANTS PC","6036 N 19TH AVE #401","PHOENIX",AZ,"850152142",,33.52523520408163,-112.09979063265305,"6022491377","12-70",,,,"ZWCHBG",,,
,"1447476239","MONADNOCK OBGYN ASSOCIATES PA","454 OLD STREET RD","PETERBOROUGH",NH,"034581200",,42.894075,-71.937707,"6039249444","12-70",,,"B57966",,,,
,"1801822119","FETAL AND WOMENS CENTER OF ARIZONA LLC","9440 E IRONWOOD SQUARE DR","TUCSON",AZ,"857111895",,32.2228765,-110.9748477,"4807566000","12-70",,,"A05282",,,,
,"1043439656","VALLEY OBSTETRICS & GYNECOLOGY PC","5111 N SCOTTSDALE RD STE 143","SCOTTSDALE",AZ,"852507076",,33.511785950000004,-111.92512527959515,"4809456583","12-70",,,,"ZWCLFM",,,
,"1588654560","DESERT WEST OBSTETRICS & GYNECOLOGY LTD","6678 W THUNDERBIRD RD","GLENDALE",AZ,"853041256",,33.610693323232326,-112.20220085858587,"6026781500","12-70",,,,,,,
,"1922270503","CENTRAL PHOENIX WOMEN'S HEALTH CARE LTD","1313 E OSBORN RD","PHOENIX",AZ,"850145699",,33.4868118,-112.0540516,"6022659161","12-70",,,,,,,
,"1992779326","COPPERSTATE OB-GYN ASSOCIATES, LTD","5550 E HAMPTON ST","TUCSON",AZ,"857111879",,32.24762275158698,-110.87453176754887,"5207218605","12-70",,,,,,,
,"1538202486","MESA OBSTETRICIANS AND GYNECOLOGISTS LTD","1039 N COUNTRY CLUB DR","MESA",AZ,"852095001",,33.43435055,-111.839588375,"4808373784","12-70",,,,,,,
,"1245432665","THUNDERBIRD OBSTETRICS & GYNECOLOGY, LTD.","5757 W. THUNDERBIRD ROAD","GLENDALE",AZ,"853065612",,33.609475,-112.1826005,"6026781111","12-70",,,,,,,
,"1396746624","SOUTHWEST CONTEMPORARY WOMEN'S CARE, PC","2545 W FRYE RD","PHOENIX",AZ,"850480566",,33.2972073,-112.094483,"4805054258","12-70",,,,"ZWMBFR",,,
,"1487796264","GERMANTOWN OB-GYN GROUP PLLC","7516 CAPITAL DR","GERMANTOWN",TN,"381383847",,35.09031946683569,-89.81259083363015,"9017534200","12-70",,,,"3377257",,,
,"1578767851","PARTNERS IN WOMENS HEALTH PC","2501 E SOUTHERN AVE","TEMPE",AZ,"852827667",,33.3926274,-111.8855921,"4807303331","12-70",,,"D00262",,,,
,"1396959359","DESERT ROSE OBGYN PC","6242 E ARBOR AVE","MESA",AZ,"852061309",,33.4114262,-111.6957148,"4808978000","12-70",,,,,,,
,"1922150192","WOMENS HEALTH SPECIALISTS OF YUMA PLLC","2911 S 8TH AVE","YUMA",AZ,"853648000",,32.67455275510204,-114.62871326530612,"9287833050","12-70",,,,,,,
,"1699796169","OBGYN CENTRE OF EXCELLENCE","2341 MCCALLIE AVE STE 302","CHATTANOOGA",TN,"374043237",,35.033152,-85.267024,"4236299743","12-70",,,,,,,
,"1740209618","WOMEN'S HEALTH CARE ASSOCIATES, P.C.","21 WOODLAND ST","SOUTH WINDSOR",CT,"060743720",,41.8489872,-72.5717551,"8605273435","12-70",,,,"C01146",,,
"253481","1518071570","LUCEDALE OB/GYN CENTER","859 WINTER STREET, STE A","LUCEDALE",MS,"394526537","039",30.921932,-88.592897,"6019476000","12-70","12-01",true,,,"04",,
,"1679504146","MID SHORE WOMEN'S HEALTH","403 PURDY ST","EASTON",MD,"216014059",,38.764066163265305,-76.06281865306123,"4108223246","12-70",,,"461MI",,,,
,"1689891970","ASSOCIATES IN WOMENS HEALTH","1046 N MONROE STREET","MONROE",MI,"481623113",,41.929901666666666,-83.39002699999999,"7344579034","12-70",,,"H06691",,,,
,"1114908803","OBSTETRICS AND GYNECOLOGY ASSOCIATES OF LAREDO, PA","7109 NORTH BARTLETT AVE SUTE 101","LAREDO",TX,"780416473",,27.5236998,-99.497352,"9567175775","12-70",,,,,,,
,"1720031602","TEVERBAUGH CROLAND & MUELLER OB/GYN & ASSOCIATES, S.C.","8600 N. RT 91","WASHINGTON",IL,"615719239",,38.3662806,-89.4201902,"3096922025","12-70",,,,"209017",,,
,"1679508105","CORNERSTONE WOMENS CARE PC","9377 E BELL RD STE 143","SCOTTSDALE",AZ,"852601503",,33.639999220980506,-111.87684649613986,"6028672690","12-70",,,,,,,
,"1770510042","CONWAY WOMENS HEALTH CENTER, PA","2519 COLLEGE AVE","CONWAY",AR,"720324986",,35.084826,-92.4633249109895,"5014503920","12-70",,,,,,,
,"1871531566","WOMEN PHYSICIANS IN OBGYN INC","3525 OLENTANGY RIVER RD","DUBLIN",OH,"43017",,40.0992294,-83.1140771,"6147343347","12-70",,,,,,,
,"1295923688","SUNCOAST OBSTETRICS AND GYNECOLOGY PA","582 SE 7TH AVE","CRYSTAL RIVER",FL,"344294840",,28.892084203632937,-82.58271740779216,"3525648245","12-70",,,"F74037","K5793",,,
,"1942391149","PHYSICIANS FOR WOMEN, PA","330 RATZER RD","WAYNE",NJ,"074707704",,40.9472775,-74.2638082,"9736942222","12-70",,,,,,,
,"1164517132","GENESIS OBGYN MEDICAL GROUP INC","16000 APPLE VALLEY ROAD","APPLE VALLEY",CA,"923071377",,34.541744,-117.273174,"7609463806","12-70",,,"H08746",,,,
,"1831215490","SIERRA WOMEN'S HEALTH","1500 E 2ND ST STE 202","RENO",NV,"895021196",,39.527378,-119.793119,"7753231300","12-70",,,"F60964",,,,
,"1154398212","ALLIANCE OBSTETRICS & GYNECOLOGY PLLC","1560 TURF LANE","MASON",MI,"488542009",,43.9778831,-86.246291,"5174843000","12-70",,,,,,,
,"1699988998","COLUMBUS METROPOLITAN OB-GYN, INC.","1375 CHERRY WAY DR STE 100","GAHANNA",OH,"432308700",,40.0195625,-82.8791363,"6147596200","12-70",,,,"9284101",,,
,"1255400636","WOMEN'S HEALTHCARE ASSOCIATES, P.A.","2327 CORONADO ST","IDAHO FALLS",ID,"834044970",,43.472447,-111.9878798265306,"2085572900","12-70",,,,,,,
,"1013942861","PERMIAN WOMEN'S CENTER, P.A","405 N TOM GREEN AVE","ODESSA",TX,"797615145",,31.849766918367347,-102.36484279591836,"4325809876","12-70",,,"87571F",,,,
,"1730154469","WHITE ROSE OB/GYN ASSOCIATES","1225 E MARKET ST","YORK",PA,"174031250",,39.971683612244895,-76.70404785714285,"7178462168","12-70",,,"F80707",,,,
,"1285784587","ASSOCIATES IN WOMENS HEALTH LLC","5300 HARROUN RD","SYLVANIA",OH,"435602146",,41.709163,-83.694304,"4198434836","12-70",,,,,,,
,"1669565479","GREEN VALLEY OB-GYN LLP","100 N GREEN VALLEY PKWY #345","HENDERSON",NV,"890747705",,36.0259559,-115.0837649,"7022600600","12-70",,,,,,,
,"1467663930","THE CENTER FOR WOMEN, INC.","4139 BOARDMAN CANFIELD RD","COLUMBIANA",OH,"444089457",,40.7787016,-80.7648602,"3307021372","12-70",,,,"9274072",,,
,"1255480513","BARDSTOWN WOMENS CENTER PLLC","201 S. 5TH ST.","BARDSTOWN",KY,"400041142",,37.808298,-85.470657,"5023487755","12-70",,,"F59150",,,,
,"1598924458","MANHATTAN BEACH OBGYN, P.C.","3047 BRIGHTON 6TH ST","BROOKLYN",NY,"112356534",,40.578503,-73.9615178,"7187437877","12-70",,,,,,,
,"1770550477","STONY BROOK GYNECOLOGY & OBSTETRICS PC","200 MAIN ST","SETAUKET",NY,"117332918",,40.9416759,-73.10423812017359,"6317519595","12-70",,,,,,,
,"1164600243","NORTHWEST GYNECOLOGY ASSOCIATES,LLC","4660 NE BELKNAP CT STE 109","HILLSBORO",OR,"971248402",,45.53029225,-122.93481899099999,"5033523854","12-70",,,,"R119335",,,
,"1033151733","CENTRAL VIRGINIA OB GYN GROUP PC","1011 CARE WAY","FREDERICKSBURG",VA,"224087766",,38.3031837,-77.4605399,"5403734900","12-70",,,,"C02529",,,
"793827","1184686925","WOMENS HEALTH SPECIALISTS, PC","2340 KATY LN","POPLAR BLUFF",MO,"639012300",,36.78886217462049,-90.42736410576332,"5737767393","12-70",,,,,,,
,"1720028392","WOMENS CARE OF BEVERLY HILLS MEDICAL GROUP","8920 WILSHIRE BLVD #511","BEVERLY HILLS",CA,"902111949",,34.06695487328086,-118.38637832808585,"3103589506","12-70",,,,,,,
,"1295807832","WOMEN'S HEALTH & WELLNESS OF LONG ISLAND, PLLC","155 FROEHLICH FARM BLVD","WOODBURY",NY,"117972906",,40.8016566,-73.4780509,"5169215900","12-70",,,"B88439",,,,
,"1164428983","ASSOCIATES IN OBSTETRICS & GYNECOLOGY, P.C.","25 DEGRANDPRE WAY","PLATTSBURGH",NY,"129016449",,44.701330999999996,-73.49902144894574,"5185633260","12-70",,,,,,,
,"1871511287","OBSTETRICS & GYNECOLOGY OF BATH, INC","3636 YELLOW CREEK RD","AKRON",OH,"443332269",,41.083064,-81.518485,"3306661166","12-70",,,,,,,
,"1437355062","MATERNAL MEDICINE CTR","1630 PEACHTREE INDUSTRIAL BLVD","SUWANEE",GA,"300241839",,34.037157,-84.101134,"7708319957","12-70",,,,,,,
"38965761","1992888283","OB/GYN ASSOCIATES","645 N. ARLINGTON AVE.","RENO",NV,"895034451",,39.5317133,-119.81972593222353,"7753296241","12-70",,,"G90705","32082",,,
,"1437114352","WOMENS LIFECYCLES PC","530 KENHORST BLVD","READING",PA,"196111716",,40.318281877551016,-75.9515319387755,"6107757133","12-70",,,,,,,
,"1205996667","GLENDALE OBSTETRICS AND GYNECOLOGY PC","5750 W THUNDERBIRD","GLENDALE",AZ,"853041273",,33.5386858,-112.1859941,"6022988977","12-70",,,,"Z27533",,,
,"1013135771","WOMENS HEALTHCARE ASSOCIATES OF IL, SC","17901 GOVERNORS HWY","TINLEY PARK",IL,"604771608",,41.5733669,-87.7844944,"7087996450","12-70",,,,"209221",,,
,"1831226000","PRIME OBSTETRICS & GYNECOLOGY, PC","301 WOLVERINE TRL","SMYRNA",TN,"371675656",,35.9855,-86.556241,"6154595228","12-70",,,"F64976",,,,
,"1700978228","WOMEN'S SPECIALISTS OF BUCKS COUNTY, P.C.","360 MIDDLETOWN BLVD","LANGHORNE",PA,"190471237",,40.18673022374779,-74.8797442313508,"2157507771","12-70",,,,"016058",,,
,"1952383127","ALL WOMENS HEALTHCARE OF WEST BROWARD INC","140 SW 84TH AVE","PLANTATION",FL,"333242736",,26.12066719017008,-80.26073705911668,"9544525850","12-70",,,,,,,
,"1144361619","GENERATIONS OBGYN,P.C.","9430 PARK WEST BLVD STE 320","KNOXVILLE",TN,"379234209",,35.91773248408667,-84.10254057570398,"8657694444","12-70",,,,,,,
,"1386690394","WOMEN'S INTERNAL MEDICINE INC.","1672 S COUNTY TRL","EAST GREENWICH",RI,"028181629",,41.65130205,-71.49564689481349,"4018840020","12-70",,,,,,,
,"1467590901","BEACH CITIES MIDWIFERY AND WOMENS HEALTH CARE","23141 MOULTON PKWY","LONG BEACH",CA,"908074833",,33.7690164,-118.191604,"9492157575","12-70",,,"R78924",,,,
,"1578672408","WOMENS GROUP OF FRANKLIN","2023 N CAROTHERS RD","FRANKLIN",TN,"370675916",,46.5654696,-118.8935483,"6157780010","12-70",,,,,,,
,"1639137979","VIRGINIA PHYSICIANS FOR WOMEN, LTD","1212 KOGER CENTER BLVD","RICHMOND",VA,"232337460",,37.5385087,-77.43428,"8048972100","12-70",,,,,,,
,"1487858932","SIMI OBSTETRICS & GYNECOLOGY MEDICAL GROUP A MEDICAL CORP","1147 RED TAIL WAY","SIMI VALLEY",CA,"930657232",,34.25928685714286,-118.7951922244898,"8055278055","12-70",,,"A36647","W15350",,,
,"1578515672","ARIZONA WOMENS IMAGING","4566 N 1ST AVE","TUCSON",AZ,"857185686",,32.28988267567568,-110.960989,"5204982095","12-70",,,,,,,
,"1538185988","GRACE OB GYN PA","2 YORKSHIRE ST","ASHEVILLE",NC,"288032752",,35.554962026585684,-82.53503906056005,"8282521050","12-70",,,,"230804",,,
,"1548290752","LANCASTER PHYSICIANS FOR WOMEN LTD","694 GOOD DR","LANCASTER",PA,"176012433",,40.0648077,-76.3501199,"7175443788","12-70",,,,"053970QAA",,,
,"1043215742","COMPREHENSIVE WOMEN'S HEALTH SERVICES, P.C.","171 RED HORSE RD","POTTSVILLE",PA,"179019119",,40.6625329,-76.2204957,"5706282229","12-70",,,,,,,
,"1972531986","SADDLEBACK WOMENS MEDICAL GROUP A MEDICAL CORPORATION","24411 HEALTH CENTER DR STE 640","LAGUNA HILLS",CA,"926533633",,33.6093964,-117.7096048000003,"9497704115","12-70",,,,"W10487",,,
,"1487601555","NORTH LITTLE ROCK WOMENS CLINIC PA","3401 SPRINGHILL DR","NORTH LITTLE ROCK",AR,"721172937",,34.784106,-92.218784,"5018359444","12-70",,,,"57325",,,
,"1427229798","PRIMARY CARE WOMENS SERVICES","7500 GREENWAY CENTER DR STE 620","GREENBELT",MD,"207703570",,38.9896917,-76.8801628,"3014745400","12-70",,,,"G00830",,,
,"1013061381","ALLIANCE OB GYN CONSULTANTS LLC","5045 ROUTE 130","HAINESPORT",NJ,"080362768",,39.9821579,-74.8085704,"8567647660","12-70",,,,,,,
,"1962507327","RUBINO OB GYN GROUP PA","101 OLD SHORT HILLS ROAD","WEST ORANGE",NJ,"070521023",,40.7579447,-74.3050191,"9737361100","12-70",,,,"021865",,,
,"1205882677","LIFESTAGES - SAMARITAN CENTERS FOR WOMEN LTD","9000 N MAIN ST","HUBER HEIGHTS",OH,"45424",,39.85902405,-84.11141951604947,"9372778988","12-70",,,,,,,
,"1487782546","RAMAPO VALLEY OBGYN PC","974 ROUTE 45","POMONA",NY,"109703568",,41.189153,-74.054249,"8453541113","12-70",,,,"WJD371",,,
,"1578669081","OBSTETRICS & GYNECOLOGY ASSOCIATES OF NORTHWEST ALABAMA, P.C.","2407 HELTON DR","FLORENCE",AL,"356301067",,34.8367955,-87.67162575477721,"2567185900","12-70",,,,,,,
,"1104818871","SUSQUEHANNA OB-GYN PA","308 N UNION AVE","HAVRE DE GRACE",MD,"210780420",,39.5501605,-76.0920126,"4109393121","12-70",,,"B69959","KQ13",,,
,"1811003353","FERTILITY & GYNECOLOGY ASSOCIATES, P.C.","800 SPRUCE ST","PHILADELPHIA",PA,"191076130",,39.944912450000004,-75.15564194733723,"2158296385","12-70",,,,"755403",,,
,"1790819811","PHYSICIANS FOR WOMEN, PLC","1900 MALVERN AVE STE 401","HOT SPRINGS",AR,"719017779",,34.48690379423123,-93.03409357324239,"5016236455","12-70",,,,,,,
,"1396795571","WOMENS PAVILION OF SOUTH MISSISSIPPI PLLC","6524 U S HIGHWAY 98","HATTIESBURG",MS,"394028569",,31.3271189,-89.2903392,"6012689393","12-70",,,,"C03089",,,
,"1932266475","OB/GYN ASSOCIATES OF CENTRAL NEW YORK, P.C","3 PARKSIDE CT","UTICA",NY,"135015643",,43.086642,-75.2570631,"3157246787","12-70",,,,"AA0039",,,
,"1225084684","COASTAL WOMENS CARE","9221 UNIVERSITY BLVD","N CHARLESTON",SC,"294069148",,32.977094375300254,-80.06925893865098,"8435725001","12-70",,,"C60737","3903",,,
,"1992829550","HARLINGEN OBSTETRICS & GYNECOLOGY ASSOCIATES, PA","2230 HAINE DR","HARLINGEN",TX,"785508549",,26.173613,-97.66206,"9564254901","12-70",,,"B21669",,,,
,"1003821877","ADEFRIS & TOPPIN WOMEN'S SPECIALISTS,MDPC","215 RADIO DRIVE","WOODBURY",MN,"551254452",,44.94572208837634,-92.93470096669324,"6516866400","12-70",,,,,,,
"410010","1447233788","WOMEN & INFANTS HOSPITAL OF RHODE ISLAND","101 DUDLEY ST","PROVIDENCE",RI,"029052401",,41.8107718,-71.4124738,"4012741122","12-70",,,,"229006195",,,
,"1629019088","ARBORETUM OBSTETRICS & GYNECOLOGY","3125 SPRINGBANK LN","MATTHEWS",NC,"281052389",,35.1159532,-80.7224386,"7043411103","12-70",,,,,,,
,"1760567457","WINCHESTER OBSTETRICS & GYNECOLOGY","1705 AMHERST STREET","WINCHESTER",VA,"226013346",,39.19144082474201,-78.19085825264187,"5406620711","12-70",,,,,,,
,"1053320960","WOMEN AND CHILDREN FIRST, PA","816 REUBEN ST","FREDERICKSBURG",TX,"786244436",,30.26627694435559,-98.88048320815076,"8309973132","12-70",,,,"00266K",,,
,"1265629521","GYNECOLOGY OF VENICE, P.L.","241 NOKOMIS AVE S","VENICE",FL,"342852319",,27.0974702,-82.4453762,"9414859941","12-70",,,,,,,
,"1619983285","WOMENS HEALTH SERVICES CHATTANOOGA PC","6229 VANCE RD","OOLTEWAH",TN,"373636561",,35.072036,-85.08885976005197,"4238993804","12-70",,,,,,,
,"1154453884","WOODS GYNECOLOGY, PC","4322 HARDING PIKE","NASHVILLE",TN,"372052664",,36.12628300403964,-86.84596278522731,"6156306969","12-70",,,,,,,
,"1801951454","SOUTHERN OB GYN ASSOCIATES P C","220 NORTHSIDE DR","VALDOSTA",GA,"316021858",,30.869813749849364,-83.28722359916362,"2292412800","12-70",,,,,,,
,"1578769956","PLANO WOMENS HEALTHCARE","1600 COIT RD","PLANO",TX,"750756171",,33.020955,-96.76786,"9725962470","12-70",,,"G03786",,,,
,"1508855362","WOMENS HEALTH SPECIALISTS LLP","615 N SEWARD AVE","AUBURN",NY,"130212107",,42.942398999999995,-76.54999599102871,"3152539749","12-70",,,,,,,
,"1952499014","AUGUSTA OBSTETRICS AND GYNECOLOGY SPECIALISTS, LLC","2806 HILLCREEK DR","AUGUSTA",GA,"309096484",,33.47924440472599,-82.09361315573814,"7068630200","12-70",,,,,,,
,"1487833554","ADVANCED WOMEN'S OBGYN HEALTH CARE OF L.I. P.C.","20 W LINCOLN AVE","VALLEY STREAM",NY,"115805762",,40.6642135,-73.6993348,"5168251885","12-70",,,,"WEQ931",,,
,"1558303750","WOMENS HEALTH ASSOCIATES,P.C.","111 W HIGH ST","MIDDLETOWN",DE,"19709",,41.50828,-71.295959,"4103926033","12-70",,,,,,,
,"1508928847","DAVINCII OBSTETRICS & GYNECOLOGY PLC","1435 E 12 MILE RD","MADISON HEIGHTS",MI,"480712653",,42.50515620805369,-83.09149481208054,"2485432229","12-70",,,"G86089","0N34980",,,
,"1366542342","BAYSTATE OB/GYN GROUP INC","3455 MAIN ST STE C","SPRINGFIELD",MA,"011071167",,42.1244877,-72.60951477819263,"4137948484","12-70",,,,,,,
,"1518912435","EAST NORRITON WOMEN'S HEALTHCARE","325 W GERMANTOWN PIKE","KING OF PRUSSIA",PA,"19406",,40.09476245,-75.3851333563417,"6102398970","12-70",,,,,,,
,"1669567616","WOMEN'S HEALTH OF CENTRAL MA. PC","328 SHREWSBURY ST","WORCESTER",MA,"016081216",,42.2698581,-71.77890415388931,"5087554861","12-70",,,,,,,
,"1265493266","TYLER OBSTETRICS AND GYNECOLOGY L L P","700 OLYMPIC PLAZA CIR","TYLER",TX,"757011954",,32.3375093,-95.2921812,"9035932468","12-70",,,,,,,
,"1730186461","EAST DESERT OB-GYN ASSOCIATES PA","10657 VISTA DEL SOL DR","EL PASO",TX,"799354504",,31.755500309516627,-106.3404331421911,"9155949600","12-70",,,"I10863","00091X",,,
,"1720103484","THE WOMEN'S HEALTH GROUP PC","9195 GRANT STREET","THORNTON",CO,"802294388",,39.864058,-104.984525,"3032802229","12-70",,,,,,,
,"1396960563","GARDEN GROVE WOMENS HEALTH SPECIALISTS INC","12555 GARDEN GROVE BLVD STE 301","GARDEN GROVE",CA,"928431903",,33.77432186397037,-117.91320515813301,"7147410501","12-70",,,"Y14047",,,,
,"1003878802","LEHIGH VALLEY WOMEN'S MEDICAL SPECIALTIES PC","440 S 15TH ST","ALLENTOWN",PA,"181024618",,40.592245,-75.485546,"6104377000","12-70",,,,,,,
,"1316044936","PITTSBURGH GYNOB INC","3402 WILLIAM FLYNN HWY","PITTSBURGH",PA,"152242156",,40.4416941,-79.9900861,"4124863181","12-70",,,,,,,
,"1699756452","NORTHEAST TEXAS WOMENS HEALTH PA","2015 MULBERRY AVE","MT PLEASANT",TX,"754552391",,33.1570582,-94.9694007,"9035724664","12-70",,,"H82523","00988U",,,
,"1669561189","PACIFIC WOMEN'S CENTER, LLC","10 COBURG RD","EUGENE",OR,"974017479",,44.06020120588235,-123.08186594117647,"5413428616","12-70",,,,"R0000WFBWD",,,
,"1457359556","BEDFORD COMMONS OB GYN PA","201 RIVERWAY PL","WINDHAM",NH,"030872029",,42.8006441,-71.304229,"6036688400","12-70",,,,,,,
,"1992772164","ATLANTA WOMEN'S OBSTETRICS & GYNECOLOGY, PC","275 COLLIER RD NW","ATLANTA",GA,"303091704",,33.80882919248401,-84.39891859126202,"4043523616","12-70",,,,,,,
,"1467453316","WOMENS HEALTHCARE CLINIC OF OREGON PC","10000 SE MAIN ST","PORTLAND",OR,"972162461",,45.51295705,-122.55852203309368,"5032561470","12-70",,,,,,,
,"1407895469","ASSOCIATED OBSTETRICS & GYNECOLOGY PC","2525 S TELEGRAPH RD","CLARKSTON",MI,"483461575",,42.735863,-83.4188304,"2483380100","12-70",,,,"0F36364",,,
,"1437104056","CENTER FOR WOMEN'S HEALTHCARE","204 LOWE AVE SE","HUNTSVILLE",AL,"35801",,34.724962583618705,-86.5785128235077,"2565338787","12-70",,,"H40832",,,,
,"1942421094","WOMEN'S HEALTH ASSOCIATES, P.C.","27 HOSPITAL AVE","SOUTHBURY",CT,"064884238",,41.4814848,-73.2131693,"2037980500","12-70",,,,,,,
,"1881791317","OB-GYN PARTNERS FOR HEALTH MEDICAL GROUP INC","365 HAWTHORNE AVE #301","OAKLAND",CA,"946093113",,37.820745007486096,-122.26337941386124,"5108931700","12-70",,,,,,,
,"1972515799","CASCADE WOMEN'S HEALTH, P.C.","1040 NW 22ND AVE","PORTLAND",OR,"972103097",,45.5302709,-122.696206,"5032749936","12-70",,,,,,,
,"1588651319","LAKESHORE OBSTETRICS AND GYNECOLOGY LLC","680 N LAKE SHORE DR","CHICAGO",IL,"606118702",,41.8946691,-87.61677888499563,"3129433300","12-70",,,,,,,
,"1053374553","PARK WEST WOMEN'S HEALTH, PC","1820 S CLINTON AVE","ROCHESTER",NY,"146182608",,43.1226093,-77.5932779,"5854732846","12-70",,,,"J100000300",,,
,"1134233307","PENFIELD OBSTETRICS AND GYNECOLOGY LLP","43 WILLOW POND WAY","ROCHESTER",NY,"146222450",,43.157285,-77.615214,"5853775420","12-70",,,,"AA0942",,,
,"1447392774","ASSOCIATES FOR WOMENS HEALTH OF SOUTHERN OREGON LLC","3190 STATE ST STE 102","MEDFORD",OR,"975048498",,42.31435112138019,-122.82337605591698,"5417731565","12-70",,,,"R105909",,,
,"1760433361","OBSTETRICAL-GYNECOLOGICAL ASSOCIATES OF THE SOUTHERN TIER, P.C.","24 MADISON AVE","JOHNSON CITY",NY,"137902101",,42.1157038,-75.9587873,"6077549870","12-70",,,,,,,
,"1215132527","ATHENS GYNECOLOGY PC","1270 PRINCE AVENUE","SNELLVILLE",GA,"300782207",,33.857328,-84.0199108,"7065484424","12-70",,,"D40334",,,,
,"1689675233","WOMENS ASSOCIATES PC","1015 E PIKES PEAK AVE","COLORADO SPRINGS",CO,"809035700",,38.833265153952865,-104.80703691724514,"7194732424","12-70",,,,"CS5708",,,
,"1427130442","WOMEN'S HEALTH, INC.","691 MURPHY RD","MEDFORD",OR,"975044311",,42.316664282828285,-122.82872287878787,"5417733018","12-70",,,,,,,
,"1528175437","WOMEN'S HEALTH CENTER OF SOUTHERN OREGON PC","700 RAMSEY AVE","GRANTS PASS",OR,"975275118",,42.41975,-123.345051,"5414798363","12-70",,,,,,,
,"1902880990","ALL WOMEN OB/GYN, PSC","4010 DUPONT CIR","LOUISVILLE",KY,"402074812",,38.2542376,-85.759407,"5028956559","12-70",,,"2697",,,,
,"1043395676","SOUTH BALDWIN OBSTETRICS & GYNECOLOGY, P.C.","1620 N MCKENZIE ST","FOLEY",AL,"365352248",,30.385797,-87.683386,"2519432141","12-70",,,,,,,
,"1437175197","WOMEN'S CENTER OB/GYN","455 WOODVIEW RD STE 230","COATESVILLE",PA,"19320",,39.9831616,-75.8238355,"6108692220","12-70",,,"G98744",,,,
,"1851545057","MATERNAL & FAMILY HEALTH SERVICES INC","15 PUBLIC SQ","WILKES BARRE",PA,"187011704",,41.246082373953165,-75.88250828523917,"5708261777","12-70",,,,,,,
,"1245313154","WOMENS OB/GYN CENTER PA","5119 FAIRMONT PKWY STE A","WEBSTER",TX,"775984229",,29.5351724,-95.1161564,"2819917603","12-70",,,,"00923W",,,
,"1265515852","MISSION OBSTETRICS & GYNECOLOGY P C","11300 E 13 MILE RD","WARREN",MI,"480932500",,42.521242152478116,-83.01308047732765,"5865741313","12-70",,,,,,,
,"1407984024","SEVEN OAKS WOMEN'S CENTER PLLC","7711 LOUIS PASTEUR DR","SAN ANTONIO",TX,"782514404",,29.4246002,-98.4951405,"2106929500","12-70",,,,"00T91W",,,
,"1710002464","LANIER OBSTETRICS AND GYNECOLOGY ASSOCIATES","1285 SIMS ST","GAINESVILLE",GA,"305013851",,34.30501348850508,-83.81217673208144,"7705360149","12-70",,,,,,,
,"1003001066","WOMENS HEALTH SERVICES CHATTANOOGA PC","6845 MOUNTAIN VIEW RD","RINGGOLD",GA,"307362415",,34.91591,-85.1091173,"4239100896","12-70",,,,"3721254",,,
,"1487684734","WYOMING OB-GYN LLC","408 N MAIN ST","WARSAW",NY,"145691567",,42.75596915,-78.1310443,"5857868350","12-70",,,,,,,
,"1912905191","MAGNOLIA WOMEN'S CENTER","3975 JACKSON ST","RIVERSIDE",CA,"925095164",,33.927364890778136,-117.44128190898178,"9513511071","12-70",,,"A28330",,,,
,"1346250537","OB-GYN ASSOCIATES OF ALABAMA P C","800 SAINT VINCENTS DR","GARDENDALE",AL,"350712301",,33.6601033,-86.8127702,"2052711600","12-70",,,,,,,
,"1003899576","LANDRUM-CHESTER OB/GYN ASSOCIATES","222 EAST RIDGE RD","MCALLEN",TX,"785031251",,26.18527352220457,-98.22032904708543,"9566866588","12-70",,,"B21315",,,,
,"1295765634","GYNECOLOGY ASSOCIATES, PC","654 S WALKER ST","BLOOMINGTON",IN,"474032159",,39.160364565008656,-86.54616897577881,"8123396456","12-70",,,,"543350",,,
,"1598853707","FALANY & HULSE WOMENS CENTER PC","900 TOWNE LAKE PKWY","WOODSTOCK",GA,"301891604",,34.1025129,-84.530939,"7709269229","12-70",,,,,,,
,"1205833191","DOYLESTOWN WOMENS HEALTH CENTER","708 N SHADY RETREAT RD","DOYLESTOWN",PA,"189012503",,40.31275197017434,-75.14894552890757,"2153402229","12-70",,,,,,,
,"1942340187","WALNUT LAKE OBGYN PLLC","2300 HAGGERTY RD","WEST BLOOMFIELD",MI,"483232190",,42.5571782,-83.437934,"2489262020","12-70",,,,"0N64200",,,
,"1801976550","OB-GYN ASSOCIATES, LLC","545 N RIVER ST","WILKES BARRE",PA,"187022600",,41.2575753715996,-75.86837160785633,"5702886616","12-70",,,,,,,
,"1366487811","SOUTH ARKANSAS WOMENS CLINIC PLC","706 W GROVE ST","EL DORADO",AR,"717304416",,33.218299459183676,-92.67289867346939,"8708638444","12-70",,,,,,,
,"1376607937","COLTS NECK OBGYN ASSOCIATES, LLC","24 STATE ROUTE 34 S STE D-2","JACKSON",NJ,"085271241",,40.1151766,-74.3647772,"7324311616","12-70",,,,,,,
,"1528091386","JOHNSON CITY OB/GYN ASSOCIATES","2 PROFESSIONAL PARK DR","JOHNSON CITY",TN,"376046584",,36.3051895,-82.3859816,"4239268813","12-70",,,,"3718898",,,
,"1770760001","FRANKLIN HEALTHCARE FOR WOMEN, PLLC","4323 CAROTHERS PKWY","FRANKLIN",TN,"370675916",,35.91766263396896,-86.81703324184978,"6155994465","12-70",,,"E52719","3725315",,,
,"1992768071","WENDOVER OB GYN & INFERTILITY INC","1908 LENDEW ST","GREENSBORO",NC,"274087007",,36.09407959468923,-79.81946751914491,"3362732835","12-70",,,,,,,
,"1508818691","EDGEWATER GYNECOLOGY P A","109 W. KNAPP AVENUE","NEW SMYRNA BEACH",FL,"321695266",,29.0258132,-80.9271271,"3864274544","12-70",,,,,,,
,"1437229945","OB-GYN ASSOCIATES OF ITHACA, LLP","20 ARROWOOD DR","ITHACA",NY,"148501857",,42.437072,-76.54831458600927,"6072667800","12-70",,,,,,,
,"1316983216","OMAHA OBGYN ASSOCIATES PC","119 N 51ST ST STE 200","OMAHA",NE,"681322867",,41.25989246938775,-95.99256036734694,"4029328020","12-70",,,,,,,
