provider_num,npi,name,address,city,state,zip,fips_county,lat,lon,phone,provider_type_code,category,emergency,upin,pin,region_code,bed_count,clia_lab_number
"054547","1891801999","RAPID THERAPY, INC.","14901 RINALDI ST","MISSION HILLS",CA,"913451237",,34.687584,-120.43901754304565,"8183659690","00-02",,,,,,,
"314511","1326117029","NORTHERN NEW JERSEY PAIN AND REHABILITATION CENTER, INC.","37 W CENTURY RD","PARAMUS",NJ,"076521409",,40.9285814,-74.0712213,"2012622244","00-02",,,,"314511",,,
"234526","1316059413","AMERICAN THERAPY CENTERS, LLC","7107 N. WAYNE RD.","WESTLAND",MI,"481852172",,42.33819017566386,-83.38504190556509,"7347285660","00-02",,,"234526",,,,
"454812","1154343291","KASS INC","2817 STARK ST","FORT WORTH",TX,"761126562",,32.7387562,-97.23149199782343,"8174516413","00-02",,,,,,,
"314512","1184621484","QUALCARE THERAPY CENTER INC & SLEEP DIAGNOSTICS NJ","2333 MORRIS AVENUE, SUITE B-210","UNION",NJ,"070835753","039",40.700243,-74.284289,"9086883366","00-02","14-01",true,,,"02",,
"684825","1114077666","KEYSTONE HEALTHCARE AND REHABILITATION SERVICES IN","2040 NE COACHMAN RD","CLEARWATER",FL,"337652610","103",27.9789318,-82.7360972,"7277965478","00-02","14-01",true,,,"04",,
"454829","1235155797","FREEDOM REHAB SPECIALTIES, LP","190 CIVIC CIR STE 100","LEWISVILLE",TX,"750673483",,33.04403238107755,-97.02380318367645,"9722211212","00-02",,,,"454829",,,
,"1942236351","COFORDO, INC","9116 FOOTHILL BLVD","RANCHO CUCAMONGA",CA,"917306564",,34.10681918120805,-117.60571638926174,"9099417177","00-02",,,,,,,
"314514","1649374174","NORTH JERSEY THERAPY CENTER LLC","500 VALLEY RD","WAYNE",NJ,"074703528",,40.929055,-74.2280241,"9735957500","00-02",,,,,,,
"054549","1790706695","VALLEY CORF, INC.","5620 WILBUR AVE","TARZANA",CA,"913561336",,34.17398820408163,-118.54443420408163,"8187582673","00-02",,,,,,,
"454597","1629189246","MILESTONES THERAPEUTIC ASSOCIATES, INC.","7007 N 10TH ST","MCALLEN",TX,"785043104",,26.264667994974875,-98.21969355778894,"9566610475","00-02",,,,,,,
"054550","1013065457","CAL OAKS THERAPY CENTER INC","40974 CALIFORNIA OAKS ROAD","MURRIETA",CA,"925625747","065",33.567509510163475,-117.20584588734,"9516985556","00-02","14-01",true,,,"09",,
"314509","1366425696","SBS THERAPY CENTERS LLC","1001 BRIGGS RD","MOUNT LAUREL",NJ,"080544105",,39.9719642,-74.9000907,"8568400700","00-02",,,,,,,
"684843","1144288986","FLORIDA THERAPY CENTER OF MELBOURNE LLC","1990 W NEW HAVEN AVE STE 105","PALM BAY",FL,"329052805",,27.9946969,-80.6366144,"3217686119","00-02",,,,,,,
"103278","1346273570","SENIOR REHAB SYSTEMS INC","15600 NW 67TH AVE STE 306","MIAMI LAKES",FL,"330142176",,25.9153338,-80.3093718,"7862387660","00-02",,,"103278",,,,
"334533","1477570315","COLUMBUS CENTER FOR MEDICAL REHABILITATION","1221 JEROME AVENUE","BRONX",NY,"104523301","005",40.8366787,-73.9220788,"7185388343","00-02","14-01",true,"417R42","5672660001","02",,
"054553","1750491973","CUZNZ LTD BURBANK THERAPY CENTER","920 W ALAMEDA AVE","BURBANK",CA,"915062802",,34.16350510256295,-118.31202230522773,"8188429277","00-02",,,,,,,
,"1215950621","GH MAP, INC.","1902 B ST","BAKERSFIELD",CA,"933013526",,35.37640940816327,-119.02807091836735,"6616371111","00-02",,,"054554",,,,
"684861","1710930623","ADVANCED PHYSICAL THERAPY & REHAB OF LEE, INC.","6314 WHISKEY CREEK DR","FORT MYERS",FL,"339198710",,26.640628,-81.8723084,"2394320556","00-02",,,,,,,
"394539","1154318509","LIFELINE THERAPY LLC","4000 WATERDAM PLAZA DRIVE","MCMURRAY",PA,"153172494",,40.2791485,-80.08863201727166,"7249415340","00-02",,,,,,,
"454839","1104899509","OPTIMUM KIDS LTD","1240 E US BUSINESS 83","MISSION",TX,"785729600",,26.2159066,-98.3252932,"9566649955","00-02",,,,,,,
"464503","1336249572","PRECISION HEALTH SERVICES","4885 SOUTH 900 EAST, SUITE 107","WEST JORDAN",UT,"840847495","035",40.6061337,-111.9395211,"8012660399","00-02","14-01",true,,,"08",,
"684852","1043233778","POLK THERAPY LLC","295 1ST ST S","WINTER HAVEN",FL,"338814605",,28.012666392440156,-81.73055238212014,"8632918644","00-02",,,,,,,
,"1619940012","OPTIMUM KIDS LTD","508 W GRIFFIN PKWY","MISSION",TX,"785722223",,26.230178937971754,-98.32677112005935,"9565831527","00-02",,,,,,,
"454817","1548345804","STEPPING STONES REHABILITATION SERVICES I LTD","4009 S SUGAR RD","EDINBURG",TX,"785399917",,26.266241919472282,-98.18424942259729,"9566681203","00-02",,,,,,,
"684871","1770508954","PARKER MEDICAL INC","7821 CORAL WAY","MIAMI",FL,"331556542",,25.7491748,-80.3227053,"3052626678","00-02",,,,,,,
"314517","1841292984","NKR, LLC","1527 ROUTE 27 SUITE 1100","SOMERSET",NJ,"088733979",,40.5675084,-74.6189556,"7325457474","00-02",,,"314517",,,,
"054559","1154591691","THERAPY PROFESSIONALS","31309 TEMECULA PKWY","TEMECULA",CA,"925926826",,33.47570991900004,-117.11415805627426,"9513025213","00-02",,,,,,,
"404502","1336173897","ISLAND REHAB CENTER CORP","EXT. HNAS. DAVILA","BAYAMON",PR,"009616906",,18.3990551,-66.1560326,"7877980723","00-02",,,,,,,
"454844","1730254640","KIDS THERAPY","101 W HILLSIDE ROAD SUITE 6B","LAREDO",TX,"780413181","479",27.546805,-99.496594,"9567224444","00-02","14-01",true,,,"06",,
"234532","1346214426","SKYWAY REHAB SERVICES","1523 HIGHWAY US 2","CRYSTAL FALLS",MI,"499209633","071",46.098007,-88.334024,"9068741444","00-02","14-01",true,,,"05",,
"684845","1437293578","ADVANCED REHAB THERAPY CENTER, INC","5315 LAKE WORTH ROAD","LAKE WORTH",FL,"334633353","099",26.6178482,-80.0962854,"5616163532","00-02","14-01",true,,,"04",,
"454555","1235137506","KID'S KORNER AT RENAISSANCE OUTPATIENT REHAB","1002 W SAM HOUSTON, STE 10","WESLACO",TX,"785964346","215",26.1594305,-97.9907362,"9566826900","00-02","14-01",true,,,"06",,
"054511","1316073653","SANTA BARBARA COMPREHENSIVE OUTPATIENT REHABILITATION FACILITY CORP","2320 CALLE REAL","SANTA BARBARA",CA,"931054231",,34.427219,-119.725959,"8056878553","00-02",,,,,,,
"454819","1912000472","WELLNESS CARE CENTER OF DENTON LTD","3200 COLORADO BLVD","DENTON",TX,"762106875",,33.18156745,-97.09675946019107,"9402439500","00-02",,,,,,,
,"1023042066","KIDDING AROUND THERAPY INC","800 EAST DOVE","MCALLEN",TX,"785042263",,26.2510579,-98.2000808,"9566181242","00-02",,,,,,,
,"1861428914","MAJESTIC MEDICAL AND REHAB CENTER INC","7171 CORAL WAY","MIAMI",FL,"331551694",,25.7484598,-80.31045357959724,"3052698383","00-02",,,,,,,
"454860","1508821406","MERCY KIDS REHAB","1145 ROSS STREET STE M","SAN JUAN",TX,"785893721","061",26.1892409,-98.1552872,"9565412102","00-02","14-01",true,,,"06",,
"454857","1174627772","QTP II INC","208 STARR ST","MERCEDES",TX,"785702711",,26.155621349693607,-97.91138337511357,"9565141551","00-02",,,,,,,
"684885","1003901687","ALL CITY FAMILY HEALTH CORP","4721 E MOODY BLVD","BUNNELL",FL,"321107703",,29.473328,-81.2503993,"3865861229","00-02",,,,,,,
"454855","1346399557","SPECTRUM THERAPEUTIC ENTERPRISES, LLP","5013 S MCCOLL RD","EDINBURG",TX,"785398080",,26.2588094,-98.2030109,"9566868485","00-02",,,,,,,
"314521","1831170653","CHERRY HILL CORF LLC AND ADVANTAGE SLEEP CENTERS","1998 ROUTE 70 EAST","CHERRY HILL",NJ,"080031834","007",39.9348351,-75.0307264,"8564242000","00-02","14-01",true,,,"02",,
"454815","1396848859","WELLNESS CARE CENTER OF ROWLETT, LTD","880 E INTERSTATE 30","GARLAND",TX,"750434120",,32.850101,-96.5697629,"2146074000","00-02",,,,,,,
"454863","1063588564","EL PASO PULMONARY REHABILITATION INSTITUTE","7806 GATEWAY EAST, SUITE 100","EL PASO",TX,"799151806","141",31.6189995,-106.2128841,"9155667384","00-02","14-01",true,,,"06",,
"683206","1245262930","ASSOCIATES REHABILITATION SOUTH INC","456 WEST 51 PLACE","HIALEAH",FL,"330123620",,25.8575963,-80.2781057,"3053640337","00-02",,,,"683206",,,
"103240","1528092483","TWO GS OF BROWARD INC","8328 SW 40TH ST","MIAMI",FL,"331734668",,25.7326174,-80.330915,"3055952053","00-02",,,,,,,
"394563","1770579468","LIFELINE THERAPY WARRENDALE, LLC","125 WARRENDALE BAYNE RD","WARRENDALE",PA,"150867586",,40.6543837,-80.0916906,"7249333280","00-02",,,,,,,
"034523","1326091455","ADVANCED MEDICAL THERAPY, LLC","15640 NORTH 7TH STREET, SUITE 6","PHOENIX",AZ,"850223538","013",33.62862385,-112.06617280383799,"6024393800","00-02","14-01",true,,,"09",,
"683212","1114009420","LIFECARE OF CENTRAL FLORIDA LLC","398 FREEMAN ST","LONGWOOD",FL,"327504171","117",28.702221,-81.346505,"4076823600","00-02","14-01",true,,,"04",,
"054526","1033295449","ASIAN NETWORK PHYSICAL THERAPY AND REHABILITATION","821 HARRISON ST","OAKLAND",CA,"946074422",,37.79903874289501,-122.2701827012067,"5102681118","00-02",,,,,,,
"683210","1104964220","SB REHABILITATION, INC","1401 S MILITARY TRAIL","WEST PALM BEACH",FL,"334155720","099",26.715364,-80.0532942,"3052257788","00-02","14-01",true,,,"04",,
"454877","1871699389","MERCY KIDS REHAB","2335 EAST SAUNDERS PLAZA 3","LAREDO",TX,"780434770","479",27.5236998,-99.497352,"9567914800","00-02","14-01",true,,,"06",,
"454866","1427021245","RGV REHAB CENTER, LLC","1900 S. JACKSON RD","MCALLEN",TX,"785046100",,26.18219,-98.207009,"9566304400","00-02",,,,,,,
"074505","1659347300","REHABILITATION ASSOCIATES INC","1931 BLACK ROCK TPKE","FAIRFIELD",CT,"068253506",,41.18046817677125,-73.24859321187444,"2033848681","00-02",,,,,,,
,"1457365421","BE WELL MEDICAL REHAB INC","6363 TAFT ST","HOLLYWOOD",FL,"330245917",,26.024833647957415,-80.21520219579719,"7866631303","00-02",,,,,,,
"454876","1144277674","MEDCARE PEDIATRIC REHAB CENTER, LP","12371 S KIRKWOOD RD","STAFFORD",TX,"774772836",,29.6398783,-95.5819071,"7139959292","00-02",,,"37355",,,,
"683241","1740229103","GOLDEN TOUCH PHYSICAL THERAPY INC.","4161 TAMIAMI TRAIL","PORT CHARLOTTE",FL,"339529283",,26.969737061224492,-82.08274995918367,"9416251110","00-02",,,,,,,
"454810","1518060060","WELLNESS CARE CENTERS, LLC","11882 GREENVILLE AVE","DALLAS",TX,"752430586",,32.91072093331041,-96.74615295938224,"9727630899","00-02",,,,,,,
"683238","1679511364","SPECTRUM REHABILITATION AND WELLNESS INC.","341 N MAITLAND AVE STE 290","MAITLAND",FL,"327514761",,28.6126427,-81.3649931,"3212957170","00-02",,,,,,,
"454585","1891728085","WINTER PEDIATRIC THERAPY","1260 PIN OAK RD, #108","KATY",TX,"774945603","157",29.770582,-95.8174982,"7135283030","00-02","14-01",true,,,"06",,
"454878","1912924846","FIRST STEP PEDIATRIC REHAB SPECIALISTS","1301 EAST FERN STE #D-1","PHARR",TX,"785774962","215",26.2299158,-98.2066904,"9566839339","00-02","14-01",true,,,"06",,
"064517","1073535118","FRONT RANGE THERAPY SYSTEMS INC","802 W DRAKE RD","FORT COLLINS",CO,"805265567",,40.5540376,-105.0914958,"9704926238","00-02",,,,,,,
"074508","1114184157","REHABILTATION ASSOCIATES OF SHELTON","555 BRIDGEPORT AVE","SHELTON",CT,"064844749","001",41.2861545,-73.1152589,"2039221773","00-02","14-01",true,,,"01",,
"364513","1154352482","LIFE LINE PARTNERS, INC","1825 TIBBETTS WICK RD","GIRARD",OH,"444201222",,41.182317,-80.711142,"3307599233","00-02",,,,"9312941",,,
"454587","1013991017","EASTER SEALS CENTRAL TEXAS, INC.","2324 RIDGEPOINT DR STE F1","AUSTIN",TX,"787544552",,30.329723,-97.674254,"5126156800","00-02",,,,"0A4544",,,
"104893","1417945957","THE FLAGLER INSTITUTE FOR REHABILITATION INC","311 GOLF RD","WEST PALM BEACH",FL,"334075509",,26.737347444444445,-80.05219166666667,"5618331747","00-02",,,,,,,
"454831","1548311467","US HEALTH FACILITY DEVELOPMENT CORP","7333 BARLITE BLVD","SAN ANTONIO",TX,"782241324",,29.35550105,-98.54685293441236,"2109243040","00-02",,,,,,,
"054536","1962401398","AIJ INC","8380 CENTER DR","LA MESA",CA,"919422952",,32.7755385,-117.0165667,"6194666077","00-02",,,,,,,
"454509","1316991441","NACOGDOCHES PHYSICAL EXCELLENC","3909 NE STALLING DRIVE","NACOGDOCHES",TX,"759652169",,31.5970503,-94.5927451,"9365647780","00-02",,,,,,,
,"1144228560","TRINITY REHAB LLC","10224 YALE AVE","KEYSTONE HEIGHTS",FL,"326569189",,29.7860769,-82.0314892,"3255929898","00-02",,,,,,,
"534501","1558319392","GOTTSCHE REHABILITATION CENTER","148 E ARAPAHOE ST","THERMOPOLIS",WY,"824432402",,43.647512221554926,-108.20062502645415,"3078642146","00-02",,,,"W9310",,,
"103258","1194832857","HEALTH REHAB PLUS INC","1844 N UNIVERSITY DR","CORAL SPRINGS",FL,"330716031",,26.25413102585959,-80.25261520239125,"9542551515","00-02",,,,,,,
"454880","1780619031","ELSA THERAPY & WELLNESS CENTER, INC.","908 W. EDINBURG AVE","ELSA",TX,"785431769",,26.2933877,-97.9932082,"9562621037","00-02",,,,"45-4880",,,
"104506","1710964887","REHAB CTR FOR CHILDREN AND ADU","300 ROYAL PALM WAY","PALM BEACH",FL,"334804305","099",26.330189,-80.084781,"5616557266","00-02","14-01",true,,,"04",,
"034525","1366641219","SAGUARO REHABILITATION AND AQUATIC THERAPY, LLC","305 NORTH PLAZA DRIVE","APACHE JUNCTION",AZ,"851205505","021",33.41784235,-111.55011031302504,"4809827794","00-02","14-01",true,,,"09",,
"394559","1619973740","DLS HOLDINGS LLC","100 FOREST HILLS PLAZA","PITTSBURGH",PA,"152215211",,40.4416941,-79.9900861,"4128292450","00-02",,,,"394559",,,
"314522","1356524912","WASHINGTON TOWNSHIP CORF, LLC","100 KINGS WAY E STE B4-6","SEWELL",NJ,"080802237",,39.7665029,-75.1443435,"8562560007","00-02",,,,,,,
"294507","1053594937","GOOD SHEPHERD REHAB CENTERS OF LAS VEGAS INC.","2235 E FLAMINGO ROAD","LAS VEGAS",NV,"891195186",,36.1143127,-115.1201605,"7023801060","00-02",,,,"294507",,,
"314516","1740467273","THERAPRO-CORF, LLC","600 PAVONIA AVE","JERSEY CITY",NJ,"073062929",,40.73276453846154,-74.06024315384614,"2014180088","00-02",,,,,,,
"314507","1043497571","THERAPRO-CORF, LLC","9225 KENNEDY BLVD","NORTH BERGEN",NJ,"070475361",,40.810789523809525,-74.00363671428572,"2018692701","00-02",,,,,,,
"184512","1124007414","OWENSBORO HEALTH INC","1006 FORD AVE","OWENSBORO",KY,"423014677",,37.75382251020408,-87.12159134693877,"2706839355","00-02",,,,,,,
"454527","1003842642","BAY AREA REHABILITATION CENTER, INC","5313 DECKER DR","BAYTOWN",TX,"775201413","201",29.7749584,-95.0178148,"2818384477","00-02","14-01",true,,,"06",,
"103296","1295738672","UNIVERSAL THERAPY CENTER INC","7223 CORAL WAY","MIAMI",FL,"331551401",,25.7485141,-80.3122575,"3052640470","00-02",,,,,,,
"684881","1225193915","MERCY OUTPATIENT REHABILITATION CLINIC INC","16459 NE 6TH AVE","MIAMI",FL,"336123675",,25.9266923,-80.1879267,"3059495499","00-02",,,,,,,
"394519","1174522205","SCHUYLKILL REHABILITATION CENTER, INC.","300 SCHUYLKILL MEDICAL PLZ","POTTSVILLE",PA,"179013668",,40.6851324,-76.1953701,"5706219500","00-02",,,,,,,
,"1275764870","LEGACY THERAPY CENTER, INC.","5633 S. STAPLES STREET","CORPUS CHRISTI",TX,"784114646",,27.699291683486074,-97.37532107655602,"3618551352","00-02",,,,,,,
"264534","1598746836","ABILITY KC","3011 BALTIMORE AVE","KANSAS CITY",MO,"641083403",,39.0725063,-94.58585100579973,"8167517790","00-02",,,,"8010000A",,,
"684572","1679517908","REHAB GV INC","124 S FLORIDA ST","LEESBURG",FL,"347486380",,28.810823,-81.8778582,"3527932441","00-02",,,,,,,
"454593","1972654663","TEMPLE MEMORIAL REHABILITATION","1315 WALNUT STREET","TEXARKANA",TX,"755014446","037",33.43307728571429,-94.045903,"9037842705","00-02","14-01",true,,,"06",,
"344508","1619979226","PHYSICIANS TOTAL REHAB","2930 VILLAGE DRIVE","FAYETTEVILLE",NC,"283043815","051",35.031732294117646,-78.9257571764706,"9103239010","00-02","14-01",true,,,"04",,
"454512","1023002425","EAST TEXAS TREATMENT CTR","1200 DUDLEY RD","KILGORE",TX,"756623306",,32.37425785,-94.86604709353048,"9039845571","00-02",,,,,,,
"294504","1447257456","SPRING MOUNTAIN REHAB LLC","7375 PRAIRIE FALCON RD., STE 120","LAS VEGAS",NV,"891280810","003",36.20650482013721,-115.25336214367461,"7028694401","00-02","14-01",true,,,"09",,
"454584","1427376789","P & I REHAB, LLC","8555A KNIGHT RD","HOUSTON",TX,"770543818",,29.6937834,-95.4006257,"7138399473","00-02",,,,"454584",,,
"104833","1558458273","CONCEPTS IN REHAB INC","15751 SAN CARLOS BLVD.","FORT MYERS",FL,"339083315",,26.4546688,-81.9547103,"2393372739","00-02",,,,,,,
,"1194046508","21ST CENTURY REHABILITATION SERVICES","575 AIRPORT RD","GALLATIN",TN,"370664901",,36.39455960654966,-86.4041559721935,"6154529766","00-02",,,"444535",,,,
"103210","1053305748","SOUTHERN THERAPIES OF NORTH FLORIDA INC","6050 SAINT JOHNS AVE","PALATKA",FL,"321776858",,29.648163,-81.68565275031214,"3863120022","00-02",,,,,,,
"684521","1790705101","SOUTH PSYCHOLOGICAL & PHYSICAL REHABILITATION INC","1408 NE 1ST AVE","HOMESTEAD",FL,"330304535",,25.4838467,-80.4751882,"3052421399","00-02",,,,,,,
"334526","1215150230","SITRIN MEDICAL REHABILITATION CENTER","2050 TILDEN AVE # 1000","NEW HARTFORD",NY,"134131000",,43.054563959226066,-75.22921425499538,"3157973114","00-02",,,,,,,
,"1851328082","SPECIAL KIDS, INC.","2208 EAST MAIN STREET","MURFREESBORO",TN,"371305800",,35.83984933333333,-86.354106,"6158901003","00-02",,,,"444527",,,
"184517","1407879349","WENDELL FOSTER'S CAMPUS FOR DEVELOPMENTAL DISABILITIES","815 TRIPLETT ST","OWENSBORO",KY,"423021668",,37.7685628,-87.1035975,"2706834517","00-02",,,,,,,
,"1770552739","HYOX MEDICAL TREATMENT CENTER, INC","2550 WINDY HILL RD SE","MARIETTA",GA,"300678607",,33.9000349,-84.47857305319565,"6783033200","00-02",,,,,,,
"104820","1821214826","RTL REHAB CLINIC INC","2150 S CONGRESS AVE","WEST PALM BEACH",FL,"334067604",,26.7074408,-80.0864932,"5619639001","00-02",,,,,,,
"034509","1265479406","VITAL CARE REHABILITATION, LLC","14545 W GRAND AVE","SURPRISE",AZ,"853747279",,33.6292271,-112.3680189,"6235440300","00-02",,,,,,,
"684563","1285772624","PROFESSIONAL THERAPEUTIC HEALTH CARE INC","2311 10TH AVE N","LAKE WORTH",FL,"334622247","099",26.6279409,-80.0666632,"5619642526","00-02","14-01",true,,,"04",,
,"1154302545","MINNESOTA MEDICAL AND REHABILITATIVE SERVICES, LLC","4201 EXCELSIOR BLVD","ST LOUIS PARK",MN,"554164728",,44.936611400000004,-93.33341980062468,"9525643880","00-02",,,"C05590",,,,
"103246","1730267741","KASHUBA REHABILITATION INC","733 US HIGHWAY 1","NORTH PALM BEACH",FL,"334084513",,26.8237944,-80.05592659756701,"5612404204","00-02",,,,,,,
"683245","1306130281","MORSELIFE HOSPICE INSTITUTE, INC.","4855 FRED GLADSTONE DR","WEST PALM BEACH",FL,"334178023",,26.745534487313012,-80.11544823190059,"5617360294","00-02",,,,,,,
"396616","1972501757","MAHONING PHYSICAL THERAPY INC","405 FRANKLIN ST","MARION CENTER",PA,"157590080",,40.772012000000004,-79.04700151986006,"7242541010","00-02",,,,,,,
"454874","1720364516","BURLEIGH HEALTH CENTER & REHAB PLLC","9740 BARKER CYPRESS ROAD","CYPRESS",TX,"774331974",,29.9194332,-95.6854772,"8322373331","00-02",,,,"454874",,,
,"1376683755","TELESPOND SENIOR SERVICES, INC.","1200 SAGINAW ST","SCRANTON",PA,"185053685",,41.37903084331348,-75.67426875309232,"5709611950","00-02",,,,,,,
"496552","1184774598","MERRITT PHYSICAL THERAPY & REABILITATION INC PC","20716 RIVERSIDE DR","GRUNDY",VA,"246146747",,37.25895965708939,-82.10102640656878,"2769356496","00-02",,,"49-6552",,,,
"194549","1518076629","PELICAN HEALTHCARE INC","3205 NEW HIGHWAY 51 STE B","GRETNA",LA,"70056",,29.9146493,-90.0539604,"9856524136","00-02",,,,"683214",,,
"394568","1750661013","LIFELINE THERAPY WEST MIFFLIN LLC","351 HOFFMAN BLVD","DUQUESNE",PA,"151101441",,40.38453,-79.863339,"4128292450","00-02",,,,,,,
"234500","1982690806","REHABILITATION HEALTH CENTER INC","2008 HOGBACK RD","ANN ARBOR",MI,"481059751",,42.25927940735553,-83.68036720827828,"7349719790","00-02",,,,,,,
"044510","1063711901","COMPLETE PULMONARY REHAB","190 AVIATION PLZ","HOT SPRINGS",AR,"719135531",,34.47437137999077,-93.09787496059914,"5015252770","00-02",,,,,,,
"454886","1932469012","JGGPO CORPORATION","4994 HONDO PASS DR","EL PASO",TX,"799247022",,31.7865623,-106.441207,"9155667584","00-02",,,,,,,
"184528","1932132149","PROACTIVE THERAPY, INC","1004 LEAWOOD DR","FRANKFORT",KY,"406013349",,38.1845814463167,-84.8852161759405,"5022237403","00-02",,,,,,,
,"1427103019","RGV REHAB NORTH LLC","702 N. ED CAREY DRIVE","HARLINGEN",TX,"785507914",,26.16588975510204,-97.67808491836735,"9564401155","00-02",,,,,,,
"104876","1790706984","WITCORF, INC.","1085 KANE CONCOURSE","BAY HARBOR ISLAND",FL,"331542105",,26.489711,-81.857148,"3059627155","00-02",,,,,,,
"294511","1407115546","LAS VEGAS OUTPATIENT REHABILITATION CORPORATION","534 S DECATUR BLVD","LAS VEGAS",NV,"891073931","003",36.16556482334133,-115.20611397170147,"7028225814","00-02","14-01",true,,,"09",,
"454887","1912089962","ANGELINA REHABILITATION CENTER, LLC","402 S JOHN REDDITT DR","LUFKIN",TX,"759043107",,31.32857475,-94.75744076461373,"9366322107","00-02",,,,,,,
"394569","1366783516","LUNG & WELLNESS CENTERS OF WESTERN PENNSYLVANIA, INC.","200 RENAISSANCE DR STE 103","BUTLER",PA,"160017612",,40.86108,-79.895197,"7242569606","00-02",,,,,,,
"464507","1538411293","JORDAN VALLEY PULMONARY REHAB","8785 SOUTH JORDAN VALLEY WAY, SUITE 2","WEST JORDAN",UT,"840889772","035",40.6061337,-111.9395211,"8012808399","00-02","14-01",true,,,"08",,
,"1962557769","RGV REHAB NORTH LLC","4920 N. EXPRESSWAY 77 SUITE C","BROWNSVILLE",TX,"785264334",,25.9140277,-97.4890879,"9563506696","00-02",,,,,,,
"294512","1326485780","PULMONARY REHAB CENTER OF LAS VEGAS, LLC","8645 S EASTERN AVENUE, BUILDING 110, SUITE 100A","LAS VEGAS",CA,"891232839","003",10.3479983,-68.0821038,"7029141398","00-02","14-01",true,,,"09",,
"464509","1497191001","PULMONARY HEALTH SERVICES","1649 WEST ANTELOPE DRIVE, SUITE 220","LAYTON",UT,"840411212","011",41.089074,-111.99610440816326,"8016834499","00-02","14-01",true,,,"08",,
"014543","1952544769","CHOICE REHABILITATION SERVICES INC","7736 HIGHWAY 20 W","MADISON",AL,"357582042",,34.7736807,-86.5675095,"2565035207","00-02",,,,,,,
"394560","1659792596","PINNACLE HEALTH SERVICES LLC","1610 N MAIN STREET EXT","BUTLER",PA,"160017612",,40.86108,-79.895197,"7242820755","00-02",,,,,,,
"394566","1003237793","PINNACLE HEALTH SERVICES LLC","316 1ST AVE","KITTANNING",PA,"162012264",,40.809307528589244,-79.52692359547156,"7245431457","00-02",,,,,,,
"394570","1437420841","LUNG & WELLNESS CENTERS OF WESTERN PENNSYLVANIA, INC.","1830 UNION AVE STE A","NATRONA HEIGHTS",PA,"150652201",,40.6188166,-79.7293332,"7249047794","00-02",,,,,,,
"394571","1114348935","PINNACLE HEALTH SERVICES LLC","2585 FREEPORT RD","PITTSBURGH",PA,"152381425",,40.4872999,-79.8956057,"4127948437","00-02",,,,,,,
"464506","1417399957","SILVERPEAK REHAB","3540 SOUTH MAIN STREET","SALT LAKE CITY",UT,"841154435","035",40.7292448,-111.8910852,"8019179000","00-02","14-01",true,,"464506","08",,
"104565","1619021300","CARDINAL MEDICAL GROUP INC","1401 E 4TH AVE","HIALEAH",FL,"330103504",,25.83501105,-80.27345537401376,"3058890557","00-02",,,,,,,
"234509","1093873549","RAINBOW REHABILITATION CENTERS, INC.","5570 WHITTAKER RD","YPSILANTI",MI,"481979752",,42.207937847775725,-83.61638720524437,"7344821200","00-02",,,,"234509",,,
"684506","1891739124","ASSOCIATES REHABILITATION, INC","11231 NW 20TH ST UNIT 139","MIAMI",FL,"331841134",,25.7741728,-80.19362,"3055529505","00-02",,,,"684506",,,
"444546","1023408135","ADVANCE WELLNESS CENTERS OF MEMPHIS-LLC","2715 KIRBY RD","MEMPHIS",TN,"381198238",,35.07493055875137,-89.84247131380224,"9012076074","00-02",,,,,,,
"M19222","1487024303","PINNACLE PULMONARY STRATEGIES LLC","16125 DIX TOLEDO ROAD","SOUTHGATE",MI,"481952948",,42.2037103,-83.2067556,"7342851070","00-02",,,,,,,
"184533","1912370644","AEGIS THERAPIES, INC","497 TUCKER DRIVE","MAYSVILLE",KY,"410569111","161",38.62524242105677,-83.79458468529899,"8555845845","00-02","14-01",true,,,"04",,
"394573","1427418342","LIFELINE THERAPY MONROEVILLE LLC","1 MONROEVILLE CTR","MONROEVILLE",PA,"151464048",,40.4211798,-79.7881025,"4128713890","00-02",,,,,,,
"114540","1861890022","CENTRAL GEORGIA ADULT DAY HEALTH & REHAB, INC.","770 BACONSFIELD DR","MACON",GA,"312111400",,32.85169153123849,-83.62710556653626,"4877143285","00-02",,,,,,,
"074502","1639177926","EASTER SEALS CAPITOL REGION & EASTERN CONNECTICUT","100 DEERFIELD RD","WINDSOR",CT,"060954252",,41.821566626223,-72.65268131122042,"8607149500","00-02",,,,"C00848",,,
"034526","1538694104","PARAGON PHYSICAL THERAPY AND REHAB LLC","2585 MIRACLE MILE","BULLHEAD CITY",AZ,"864427553",,35.092022335734754,-114.59657185779206,"9284448168","00-02",,,,,,,
"044510","1467906495","COMPLETE PULMONARY REHAB","3 OFFICE PARK DR","LITTLE ROCK",AR,"722075287",,34.74660365773493,-92.39691589344518,"5017448049","00-02",,,,,,,
"454884","1861917734","WELLNESS CARE CENTER OF IRVING LTD","3501 N MACARTHUR BLVD STE 350A","IRVING",TX,"750623651",,32.85241811111111,-96.95914149494949,"9723535437","00-02",,,,,,,
"504508","1508972894","NORTHWEST THERAPY CENTER, LLC","320 NE 97TH ST.","SEATTLE",WA,"981152042",,47.6993407,-122.3247046,"2065251010","00-02",,,,,,,
"454885","1366807075","TEXAS REHABILITATION AND HABILITATION SPECIALISTS, LLC","2660 COMMON ST","NEW BRAUNFELS",TX,"781303585",,29.7125302,-98.1146125,"8302141798","00-02",,,,,,,
"394575","1023540143","LUNG & WELLNESS CENTERS OF WESTERN PENNSYLVANIA, INC.","1701 3RD ST","BEAVER",PA,"150092432",,40.74274014822989,-80.33099289989967,"8782072192","00-02",,,,,,,
"394576","1821502014","LIFELINE THERAPY PENN HILLS LLC","310 RODI RD STE 260","PITTSBURGH",PA,"152353318",,40.4416941,-79.9900861,"4128713890","00-02",,,,,,,
"454504","1881676393","BRAZOS VALLEY REHABILITATION CENTER INC","1318 MEMORIAL DR","BRYAN",TX,"778025215",,30.65144884,-96.34550372,"9797762872","00-02",,,,,,,
"334525","1629148259","ABILITY BEYOND DISABILITY","480 BEDFORD ROAD","CHAPPAQUA",NY,"105141715",,41.165095,-73.760343,"9142428720","00-02",,,,,,,
"424511","1881196186","SHAVAN, LLC","127 S HERLONG AVE","ROCK HILL",SC,"297321100",,34.95542240915383,-81.04881910815388,"8033278655","00-02",,,,,,,
"294515","1679063556","A PLUS REHABILITATION CENTER","926 W OWENS AVE","NORTH LAS VEGAS",NV,"890322484",,36.1884124,-115.1428943,"7024483577","00-02",,,,,,,
,"1285051516","FOX CHASE ADULT DAY CARE INC","7770 DUNGAN RD","PHILADELPHIA",PA,"191112700",,40.063801765306124,-75.07217189795918,"2675384620","00-02",,,,,,,
,"1841790920","HEART AND MIND HEALING CENTER CORP","8399 W OAKLAND PARK BLVD STE A","SUNRISE",FL,"333517311",,26.167673,-80.261895,"7724181156","00-02",,,,,,,
"504512","1154381358","RIVERVIEW LUTHERAN RETIREMENT COMMUNITY OF SPOKANE","1841 E UPRIVER DR","SPOKANE",WA,"992075164",,47.67703247406022,-117.38221354346084,"5094828137","00-02",,,,,,,
"294509","1629138219","GOOD SAMARITAN HEALTHCARE LLC","6825 W RUSSELL RD","LAS VEGAS",NV,"891181892",,36.0846055,-115.2408435,"7028968400","00-02",,,,,,,
,"1467434795","EASTER SEALS - UCP","507 E ARMSTRONG AVE","PEORIA",IL,"616033201",,40.70437894300568,-89.5887015095466,"3096861177","00-02",,,,,,,
"294512","1326485780","PULMONARY REHAB CENTER OF LAS VEGAS, LLC","8645 S EASTERN AVENUE, BUILDING 110, SUITE 100A","LAS VEGAS",NV,"89123","003",36.1672559,-115.148516,"7029141398","00-02","14-01",true,,,"09",,
"454555","1235137506","KID'S KORNER AT RENAISSANCE OUTPATIENT REHAB","1002 W SAM HOUSTON, STE 10","PHARR",TX,"78577","215",26.189618224489795,-98.197153,"9566826900","00-02","14-01",true,,,"06",,
"454585","1891728085","WINTER PEDIATRIC THERAPY","1260 PIN OAK RD, #108","STAFFORD",TX,"77497","157",29.6160671,-95.5577221,"7135283030","00-02","14-01",true,,,"06",,
"454860","1508821406","MERCY KIDS REHAB","1145 ROSS STREET STE M","SAN BENITO",TX,"78586","061",26.1326237,-97.630791,"9565412102","00-02","14-01",true,,,"06",,
"454878","1912924846","FIRST STEP PEDIATRIC REHAB SPECIALISTS","1301 EAST FERN STE #D-1","MCALLEN",TX,"78501","215",26.2299158,-98.2066904,"9566839339","00-02","14-01",true,,,"06",,
"464503","1336249572","PRECISION HEALTH SERVICES","4885 SOUTH 900 EAST, SUITE 107","HOLLADAY",UT,"84117","035",40.6710765,-111.8250278,"8012660399","00-02","14-01",true,,,"08",,
"446652","1104878354","BENCHMARK PHYSICAL THERAPY","6397 LEE HWY STE 300","TELLICO PLAINS",TN,"373853552",,35.3626008,-84.2940223,"4232388923","00-14",,,,,,,
"446631","1396704094","STAR PHYSICAL THERAPY","5505 EDMONDSON PIKE, SUITE 103","WHITE HOUSE",TN,"371888140","037",38.897699700000004,-77.03655315,"6155918480","00-14","08-01",true,,,"04",,
"116725","1518998970","PHYSIOTHERAPY ASSOCIATES, INC","9050 PEIRDOT PARKWAY, STE E","TUCKER",GA,"300846902","151",33.85162905,-84.22374316732959,"7704740540","00-14","08-01",true,,,"04",,
"136528","1831203223","INTERMOUNTAIN PHYSICAL THERAPY","90 E USTICK RD, STE 150","NAMPA",ID,"836514605","001",43.634144,-116.563212,"2088950715","00-14","08-01",true,,,"10",,
"146683","1588705800","PHYSICAL THERAPY ASSOCIATES LTD","6641 WEST OGDEN AVENUE","BERWYN",IL,"604025539","031",41.828453008051525,-87.78941234190714,"7087494460","00-14","08-01",true,,,"05",,
"376609","1538120142","SELECT PHYSICAL THERAPY","200 NORTHWEST 66TH STREET, SUITE 900","OKLAHOMA CITY",OK,"731168223","109",35.53948145454545,-97.51539821212121,"4058401957","00-14","08-01",true,,,"06",,
"076544","1881770360","SPECTRUM PHYSICAL THERAPY, LTD","86 BOSTON POST ROAD, SUITE 1","WATERFORD",CT,"063852434","011",41.3409177,-72.1211373,"8604448713","00-14","08-01",true,,,"01",,
"366686","1649344946","EXCEL PHYSICAL THERAPY, INC.","912 E LINCOLNWAY","MINERVA",OH,"446571214",,40.7297817,-81.1053764,"3308684362","00-14",,,,,,,
"056884","1164464483","SELECT PHYSICAL THERAPY","257 SOUTH FAIR OAKS AVENUE, SUITE 120","PASADENA",CA,"911054123","037",34.14141055,-118.15073189475032,"6265851345","00-14","08-01",true,,,"09",,
"056693","1154325769","NOVACARE OUTPATIENT REHABILITATION","15251 NATIONAL AVENUE, SUITE 203","SANTA CRUZ",CA,"950606602","085",37.050096,-121.9905908,"4083561990","00-14","08-01",true,,,"09",,
"056803","1235133711","VIBRANT CARE","2160 APPIAN WAY SUITE 101","SAN LEANDRO",CA,"945775998","013",37.7249296,-122.1560768,"5107241248","00-14","08-01",true,,,"09",,
"056842","1255338125","VIBRANTCARE OUTPATIENT REHABILITATION OF CA INC","250 ELM AVENUE","ROCKLIN",CA,"956774315","061",38.7907339,-121.2357828,"5308892411","00-14","08-01",true,,,"09",,
"056865","1083618573","VIBRANTCARE REHABILITATION","20996 REDWOOD ROAD","SAN RAMON",CA,"945831671","001",37.7648021,-121.9544387,"5105370272","00-14","08-01",true,,,"09",,
"295077","1770690877","ALTA SKILLED NURSING AND REHABILITATION CENTER","555 HAMMILL LANE","RENO",NV,"895111004","031",39.4726475,-119.7948183,"7758285600","00-14","02-03",true,,,"09",174,
"676542","1457392417","TEAM CARE REHAB SERVICES INC","9910 HUEBNER RD","SAN ANTONIO",TX,"782302246",,29.53532282105263,-98.58815322105264,"2106910039","00-14",,,,,,,
"056879","1790789295","VIBRANTCARE OUTPATIENT REHABILITATION OF CA, INC","1411 OLIVER ROAD, SUITE 200","VACAVILLE",CA,"956874732","095",38.3565773,-121.9877444,"7074281311","00-14","08-01",true,,,"09",,
"366721","1689621427","ARC THERAPY SERVICES LLC","28550 WESTLAKE VILLAGE DR","WESTLAKE",OH,"441457608",,41.439602171976574,-81.94073392226649,"4408924200","00-14",,,,,,,
"266569","1336122266","BRENTWOOD PHYSICAL THERAPY, LIMITED PARTNERSHIP","2558 S. BRENTWOOD BLVD","SAINT LOUIS",MO,"631442309","189",38.614823687962314,-90.34877657781769,"3149618940","00-14","08-01",true,,,"07",,
"366705","1356383707","SUMMIT PHYSICAL THERAPY","108 GLOVER DR","MOUNT ORAB",OH,"451548390",,39.04455813621328,-83.92153735356344,"9374442933","00-14",,,,,,,
"686674","1619936663","OPTIMUM REHABILITATION SPECIALISTS","2718 LEE BLVD #C","LEHIGH ACRES",FL,"339711574",,26.6091509,-81.652407,"2393039100","00-14",,,,,,,
,"1477639201","DAWN M. MURPHY, INC","2201 N CENTRAL EXPY","RICHARDSON",TX,"750802754",,32.9797002,-96.7155165,"2142651819","00-14",,,,,,,
"396803","1306893763","MRS PHYSICAL THERAPY","500 MARKET ST","ROCKWOOD",PA,"155576609",,39.917816,-79.155887,"7247287550","00-14",,,,"396803",,,
"106955","1437258449","YAMATO ORTHOPEDIC AND SPINAL REHABILITATION INC.","9101 LAKERIDGE BLVD","BOCA RATON",FL,"334962147",,26.3586885,-80.0830984,"5614776929","00-14",,,,,,,
"236583","1255391702","NOVACARE REHABILITATION - WESTLAND","1969 NORTH WAYNE ROAD","WESTLAND",MI,"481853773","163",42.32255872889796,-83.38900770105643,"7347279094","00-14","08-01",true,,,"05",,
"016591","1497861926","IMPACT REHABILITATION AND SPORTS MEDICINE, INC.","101 CARRINGTON LN STE C","CALERA",AL,"350405439",,33.162383940242954,-86.77778398012775,"2056213077","00-14",,,,,,,
"446655","1659485936","GRACE REHABILITATION CENTER, I","2435 JACKSBORO PIKE","ONEIDA",TN,"378415885","013",36.4981341,-84.5127162,"4235662250","00-14","08-01",true,,"3729467","04",,
"016593","1689683195","CHAMPION SPORTS MED & REHAB CTR GARDENDALE","592 FIELDSTOWN ROAD, SUITE 114 & 116","PELHAM",AL,"351246301","073",33.285669,-86.8099884,"2050000000","00-14","08-01",true,,,"04",,
"236719","1639187305","ALEXIS REHAB SERVICES PC","13636 DIX TOLEDO RD","SOUTHFIELD",MI,"480754302",,42.4733689,-83.2218731,"7342849021","00-14",,,,,,,
"446645","1386735298","UNIVERSITY OF TENNESSEE","930 MADISON AVE","MEMPHIS",TN,"381632243",,35.1405265,-90.0298286,"9014486438","00-14",,,,"446645",,,
"236821","1467559740","KIDS IN MOTION PEDIATRIC THERAPY SERVICE","2636 SOUTH MILFORD ROAD","HIGHLAND",MI,"483574938","125",42.635563,-83.617382,"2486849610","00-14","08-01",true,,,"05",,
,"1568495083","UNITED REHAB SERVICES PC","620 HAWKSMOORE DR","SHELBY TOWNSHIP",MI,"483171347",,43.60107655,-86.33794306170321,"5862544040","00-14",,,,"0P34760",,,
"166527","1003816026","CENTRAL REHABILITATION","950 OFFICE PARK ROAD","WEST DES MOINES",IA,"502652548","153",41.58934695,-93.71621865020194,"5152240979","00-14","08-01",true,,,"07",,
"236820","1902006158","AXIOM PHYSICAL THERAPY & REHAB","17070 W. 12 MILE ROAD, SUITE E","SOUTHFIELD",MI,"480762116","125",42.50276621348314,-83.21446441573033,"2489055060","00-14","08-01",true,,,"05",,
"496676","1972686780","VIRGINIA HEALTH REHABILITATION AGENCY, LLC","1101 WILLIAM STYRON SQ S","NEWPORT NEWS",VA,"236062877",,36.9775016,-76.42977,"7575940330","00-14",,,,,,,
"166514","1033289749","SPORTS REHAB & PROFESSIONAL THERAPY ASSOC INC","315 W 5TH ST","STORM LAKE",IA,"505881743",,42.6446249,-95.2043115,"7127327724","00-14",,,,,,,
"556548","1871538264","SELECT PHYSICAL THERAPY","1190 BAKER STREET, SUITE 105","COSTA MESA",CA,"926264105","059",33.68058175,-117.90718765,"7149793500","00-14","08-01",true,,,"09",,
"556549","1174568539","START PHYSICAL THERAPY","18785 BROOKHURST ST SUITE 104","FOUNTAIN VALLEY",CA,"927087300","059",33.689885919646905,-117.95392728823619,"7149640727","00-14","08-01",true,,,"09",,
"056831","1154541266","PHYSIOTHERAPY ASSOCIATES","1331 MEDICAL CENTER DR","SANTA ROSA",CA,"954056712",,38.4404925,-122.7141049,"7075843433","00-14",,,,,,,
"346598","1477559771","NOVACARE OUTPATIENT REHABILITATION","2303 WELLINGTON DRIVE, SUITE B","WILSON",NC,"278938620","001",35.71947269387755,-77.94736646938776,"2527585000","00-14","08-01",true,,,"04",,
"686673","1760459762","BONITA COMMUNITY REHAB CENTER","3501 HEALTH CENTER BLVD","ESTERO",FL,"341358127","071",26.4381474,-81.8067537,"2399496109","00-14","08-01",true,,,"04",,
"236812","1033294806","NARAYAN REHABILITATION","968 SOUTH VAN DYKE ROAD","BAD AXE",MI,"484139712","063",43.80224403370823,-83.0297396143125,"9892698700","00-14","08-01",true,,,"05",,
"156572","1780726257","INDIANA PHYSICAL THERAPY INC","1913 NORTH WAYNE STREET SUITE D","KENDALLVILLE",IN,"467551155",,41.4414385,-85.2649754,"2606242288","00-14",,,"156572",,,,
"446607","1659405066","REHAB SOUTH","5000 ALPHA LN","HIXSON",TN,"373434054",,35.1414606,-85.1746774,"4238774599","00-14",,,,,,,
"346600","1568468502","SELECT PHYSICAL THERAPY","8220 UNIVERSITY EXECUTIVE PARK DRIVE STE 140","HUNTERSVILLE",NC,"280784463","119",35.4108278,-80.8429304,"7045471129","00-14","08-01",true,,,"04",,
"016595","1720084767","USA HEALTHCARE - DECATUR HEALTH AND REHAB","2326 MORGAN AVENUE, SW","DECATUR",AL,"356016244","103",34.6240205,-87.05791872812708,"2563405765","00-14","08-01",true,,,"04",,
"676548","1467448522","ROBERT WOOD REHAB SPECIALIST PC","204 S IH 35","LIBERTY HILL",TX,"78642",,30.6649119,-97.9225161,"5128637761","00-14",,,,,,,
"496571","1003869264","H2 HEALTH","800 E MAIN ST STE 310","WYTHEVILLE",VA,"243823311",,36.95336291118883,-81.07550110332596,"2762286200","00-14",,,,,,,
"156508","1316942394","SELECT PHYSICAL THERAPY","3830 SHORE DRIVE STE A","INDIANAPOLIS",IN,"462545657","097",39.82421565908513,-86.28126791619282,"3172989746","00-14","08-01",true,,,"05",,
"396669","1497754378","NOVA CARE OUTPATIENT REHABILITATION","860 LANCASTER AVENUE","WEST CHESTER",PA,"193827705","029",39.9597213,-75.6059638,"6106687776","00-14","08-01",true,,,"03",,
"556563","1548383482","NANCY A SEDAT MS-CCC-SLP","2811 WILSHIRE BLVD","SANTA MONICA",CA,"904034807",,34.037446842592594,-118.47552907407407,"3102648300","00-14",,,,,,,
"306510","1689733768","CPTE - NASHUA INC","522 AMHERT STREET STE 22","NASHUA",NH,"030631048",,42.7656251,-71.4677032,"6038800448","00-14",,,,,,,
"306508","1053470492","CPTE - MANCHESTER, INC.","20 S MAIN ST","WINDHAM",NH,"030871640",,42.8006441,-71.304229,"6036260760","00-14",,,,,,,
"456632","1295816965","SPORTCARE REHABILITATION INC","4750 BRYANT IRVIN RD N","FORT WORTH",TX,"761077641",,32.753177,-97.3327459,"8179239000","00-14",,,,,,,
"396818","1609940014","WILLOW VALLEY COMMUNITIES","900 WILLOW VALLEY LAKES DR","WILLOW STREET",PA,"175849051",,39.9819376,-76.271644,"7174646861","00-14",,,,,,,
"236598","1972592525","IVYREHAB NORTHERN PT, LLC","31 IDA RED AVE","WAYLAND",MI,"493481226",,42.3632063,-71.3606721,"6168878152","00-14",,,,,,,
"456844","1669490629","COPPELL SPINE & SPORTS REHAB LIMITED PARTNERSHIP","413 W BETHEL RD","TROPHY CLUB",TX,"762625307",,33.00467745,-97.20559893106783,"9723049100","00-14",,,,,,,
"056674","1467547794","SELECT PHYSICAL THERAPY","801 COLLEGE AVE","SAN FRANCISCO",CA,"941162740",,37.7349867,-122.4240543,"4152589894","00-14",,,,,,,
"456534","1417086521","THE WEST TEXAS REHABILITATION CENTER","3001 S JACKSON ST","SAN ANGELO",TX,"769045129",,31.43245599560263,-100.45628491755818,"3252236300","00-14",,,,,,,
"396757","1043219934","NOVACARE OUTPATIENT REHABILITATION","721 DRESHER ROAD SUITE 2100","PHILADELPHIA",PA,"191454121","091",39.9527237,-75.1635262,"2156592955","00-14","08-01",true,,,"03",,
,"1619012101","NORTHWEST OHIO SPEECH LANGUAGE AND","3450 W CENTRAL AVE","TOLEDO",OH,"436061418",,41.6777258,-83.6270801,"4195364247","00-14",,,,,,,
"686702","1194758383","CORA REHABILITATION CLINICS - LAKE MARY","934 WILLISTON PARK PT","TAVARES",FL,"327784943",,28.8041579,-81.725632,"4078297311","00-14",,,,,,,
"686676","1104889260","ALL COAST THERAPY SERVICES OUTPATIENT INC","13940 N US HIGHWAY 441","LADY LAKE",FL,"321598953",,28.9174855,-81.9228604,"3527516005","00-14",,,,,,,
"456753","1245397991","APTUS HEALTH CARE, P.L.L.C.","2610 CORNERSTONE BLVD","EDINBURG",TX,"785399122",,26.2630009,-98.199371,"9566681818","00-14",,,,"456753",,,
"366626","1225034366","NOVACARE REHABILITATION","7981 BEECHMONT AVENUE","WEST CHESTER",OH,"450692400","061",39.3303357,-84.408275,"5132321847","00-14","08-01",true,,,"05",,
"496624","1396745063","SELECT PHYSICAL THERAPY","5477 GERMANNA HIGHWAY","LOCUST GROVE",VA,"225082018","137",39.1276717,-77.717527631773,"5409729610","00-14","08-01",true,,,"03",,
"216662","1093734915","REHAB 1ST INC","201 RUSSELL AVE","FROSTBURG",MD,"215321944",,39.667814,-78.928569,"3019876170","00-14",,,,,,,
,"1427172782","EASTER SEALS RIO GRANDE VALLEY","1217 W HOUSTON AVE","MCALLEN",TX,"785015012",,26.2013678,-98.2694289,"9566319171","00-14",,,,,,,
"236599","1154331262","ADVANCED PHYSICAL THERAPY CENTER, INC","10809 S SAGINAW ST","WATERFORD",MI,"483271662",,41.358659,-72.1519367,"8106958700","00-14",,,,,,,
"236795","1194751677","US REHABILITATION HEALTH SERVICE INC","24901 NORTHWESTERN HWY","YPSILANTI",MI,"481971844","125",42.2410562,-83.613055,"9472828575","00-14","08-01",true,,,"05",,
"366569","1386640423","NOVACARE  REHABILITATION","5 SEVERANCE CIRCLE SUITE 115","WILLOUGHBY HILLS",OH,"440948481","035",41.598382,-81.418447,"2163810300","00-14","08-01",true,,,"05",,
"346560","1689679433","NOVACARE OUTPATIENT REHABILITATION","3301 BENSON DRIVE","WAKE FOREST",NC,"275875011","183",35.9803138,-78.5103731,"9198728511","00-14","08-01",true,,,"04",,
"236678","1245235191","NOVACARE OUTPATIENT REHABILIATION EAST","30655 HOOVER RD","WARREN",MI,"480936537","099",42.518996376884424,-83.00762236683417,"5865741200","00-14","08-01",true,,,"05",,
"236832","1639292014","PHYSICAL THERAPY SERVICES INC","26400 W 12 MILE RD STE 25","SOUTHFIELD",MI,"480341774",,42.50067651510191,-83.30687098877296,"2485654000","00-14",,,,"23-6832",,,
"526555","1699711630","SPORT & SPINE CLINIC OF WAUSAU","327 N 17TH AVE","WESTON",WI,"544764191",,44.9055006,-89.5725724,"7158452942","00-14",,,,,,,
,"1346375201","WILLOWBROOK REHABILITATION SERVICES INC","7200 CHALLIS RD","BRIGHTON",MI,"481167411",,42.543408,-83.80857,"8102270119","00-14",,,,,,,
"496687","1649270943","SELECT PHYSICAL THERAPY","320-B CHARLES H DIMMOCK PARKWAY","MIDLOTHIAN",VA,"231132722","041",37.5062673,-77.649268,"8045240533","00-14","08-01",true,,,"03",,
"156514","1649207085","KORT PHYSICAL THERAPY","1730 WILLIAMSBURG DRIVE","JEFFERSONVILLE",IN,"471308065","019",38.32439581818181,-85.74161345454546,"8122840852","00-14","08-01",true,,,"05",,
"686651","1851324032","CORA REHABILITATION CLINICS - SOUTH SEMORAN","5575 S SEMORAN BLVD","ORLANDO",FL,"328377615","095",28.4824567,-81.3071804,"4072810228","00-14","08-01",true,,,"04",,
"056785","1700821626","SELECT PHYSICAL THERAPY","200 TAMAL PLAZA, SUITE 120","CORTE MADERA",CA,"949251195","041",37.93497181437666,-122.52048087218674,"4154618233","00-14","08-01",true,,,"09",,
"556513","1790727402","SELECT PHYSICAL THERAPY","5131 FOOTHILLS BLVD, SUITE 5","ROSEVILLE",CA,"957476527","061",38.75962413964374,-121.30981915847282,"9167972273","00-14","08-01",true,,,"09",,
"456606","1366471450","AVEANNA HEALTHCARE","915 W EXCHANGE PKWY","TYLER",TX,"757031431",,30.7563939,-94.3984613,"2145471571","00-14",,,,,,,
,"1861498362","MICHIGAN NEUROLOGY ASSOCIATES PC","19699 E EIGHT MILE RD","CLINTON TOWNSHIP",MI,"480353737",,42.5869782,-82.9200047,"5864459900","00-14",,,,,,,
"056897","1649206467","SELECT PHYSICAL THERAPY","707 LINCOLN CENTER","STOCKTON",CA,"952072644","077",38.01053489795919,-121.32289748979592,"2094783900","00-14","08-01",true,,,"09",,
,"1871654244","EAST TEXAS PEDIATRIC REHABILITATION ASSOCIATES INC","1121 E SOUTHEAST LOOP 323 STE 200","TYLER",TX,"757019416",,32.303360553066355,-95.2878967031985,"9035091313","00-14",,,,,,,
"466502","1265549372","MOUNTAIN LAND REHAB AGENCY","1952 E 7000 S","NAMPA",ID,"836875507",,43.5737361,-116.559631,"8019423311","00-14",,,,,,,
"176558","1447225305","ADVANCE REHABILITATION","6001 SW 6TH STREET SUITE 230","TOPEKA",KS,"666151004","177",39.049011,-95.677556,"7852329805","00-14","08-01",true,,,"07",,
"426579","1093731176","SELECT PHYSICAL THERAPY","739 GALLERIA BLVD SUITE 126","ROCK HILL",SC,"297305785","091",34.9210316,-80.9756476,"8033664415","00-14","08-01",true,,,"04",,
"046555","1649261942","COULTER PHYSICAL THERAPY INC","115 SKYLINE DRIVE SUITE A","RUSSELLVILLE",AR,"728023310","115",35.288124588311355,-93.16498461753295,"4799675155","00-14","08-01",true,,,"06",,
"046589","1962564039","CARSON PHYSICAL THERAPY, INC","3231 MAIN ST","HENSLEY",AR,"720659256",,34.504406,-92.20845564697323,"5018470500","00-14",,,"046589",,,,
"236619","1629097910","PHYSIOTHERAPY ASSOCIATES","5659 STADIUM DR","PLAINWELL",MI,"490801955",,42.4400357,-85.6489035,"2693759450","00-14",,,,,,,
"316648","1942206065","NOVACARE REHABILITATION","1765 SPRINGDALE ROAD, BLDG A","VOORHEES",NJ,"080434907","007",39.8512162,-74.9619779,"6098661988","00-14","08-01",true,,,"02",,
"496646","1285659789","SELECT PHYSICAL THERAPY - 50133","6035 BURKE CENTRE PKWY","LORTON",VA,"220792645",,38.700202000000004,-77.23953597604464,"7039783300","00-14",,,,,,,
"516525","1902913866","MARDEN REHABILITATION ASSOCIATES OF PORTAGE COUNTY, INC.","832 COOK PARKWAY","WELCH",WV,"24801",,37.4328886,-81.5844357,"3046827100","00-14",,,,,,,
"066515","1235183823","SELECT PHYSICAL THERAPY","400 S COLORADO BLVD","WHEAT RIDGE",CO,"800334634",,39.766098,-105.0772063,"3033204450","00-14",,,,,,,
"046571","1083681530","JORDAN PHYSICAL THERAPY CENTER INC","2278 ALBERT PIKE ROAD","HOT SPRINGS NATIONAL PARK",AR,"719134157",,34.51802,-93.0529422,"5017670808","00-14",,,,,,,
"556504","1548202310","IRVINE START PHYSICAL THERAPY","4870 BARRANCA PARKWAY, SUITE 340","IRVINE",CA,"926041701","059",33.675614350000004,-117.7964082,"9496537878","00-14","08-01",true,,,"09",,
"056886","1710922869","SELECT PHYSICAL THERAPY","750 W ROUTE 66 SUITE N","GLENDORA",CA,"917404164","037",34.1288546,-117.8303634,"6263354077","00-14","08-01",true,,,"09",,
"556541","1043254808","SELECT PHYSICAL THERAPY","2 JOURNEY","ALISO VIEJO",CA,"926563372",,33.5692023,-117.7267943,"9493499555","00-14",,,,,,,
"056882","1427093822","SELECT PHYSICAL THERAPY","1176 N EUCLID ST","ANAHEIM",CA,"928011900","059",33.8496277,-117.94098831788295,"7149999999","00-14","08-01",true,,,"09",,
"056875","1730124116","SELECT PHYSICAL THERAPY","3737 MORAGA AVENUE SUITE B 117","SAN DIEGO",CA,"921175358","073",32.8093114,-117.2101852,"8582700981","00-14","08-01",true,,,"09",,
"556883","1528001369","MATRIX REHABILITATION INC","1111 N BRAND BLVD","GLENDALE",CA,"912023070",,34.161761346938775,-118.25523144897959,"8182440468","00-14",,,,,,,
"556508","1518902667","SELECT PHYSICAL THERAPY","27071 CABOT ROAD, SUITE 114","LAGUNA HILLS",CA,"926537011","059",33.5892618,-117.6743129,"9493671833","00-14","08-01",true,,,"09",,
"556503","1700828571","LAGUNA NIGUEL PHYSICAL THERAPY","30112 CROWN VALLEY PARKWAY","LAGUNA NIGUEL",CA,"926772042","059",33.524927000000005,-117.71243097480627,"9493637716","00-14","08-01",true,,,"09",,
"556520","1053354886","LONG BEACH SPORTS & PHYSICAL THERAPY","2017 PALO VERDE AVENUE SUITE 101","LONG BEACH",CA,"908153300","037",33.79269476923076,-118.10804038461539,"5624935501","00-14","08-01",true,,,"09",,
"056806","1366487282","ALLCARE THERAPY SERVICE","935 EAST RIDGECREST BLVD","RIDGECREST",CA,"935554368","029",35.622364775510206,-117.65134879591837,"7603711411","00-14","08-01",true,,,"09",,
"056895","1558306696","SELECT PHYSICAL THERAPY","6180 BROCKTON AVENUE, SUITE 101","RIVERSIDE",CA,"925062259","065",33.95888300131009,-117.39665526985166,"9517816653","00-14","08-01",true,,,"09",,
"556517","1306872163","BEAR VALLEY PHYSICAL THERAPY S","41945 BIG BEAR BLVD, SUITE 209","BIG BEAR LAKE",CA,"92315","071",34.24326540066347,-116.88778813490592,"9098666200","00-14","08-01",true,,,"09",,
"676519","1053351437","MATRIX REHABILITATION DEER PAR","3710 CENTER ST","DEER PARK",TX,"775366104",,29.677807857142856,-95.12333912244898,"2814765800","00-14",,,,,,,
"496520","1033196746","GENESIS REHABILITATION SERVICES","1401 NORTH HIGH STREET","FRANKLIN",VA,"238511244","620",36.695064,-76.93709,"7575168130","00-14","08-01",true,,,"03",,
"156582","1952434508","SELECT PHYSICAL THERAPY","3075 MIDDLE ROAD STE B","COLUMBUS",IN,"472034483","005",39.229674027662305,-85.89624951860567,"8123727023","00-14","08-01",true,,,"05",,
"086511","1104861913","BLUE HEN PHYSICAL THERAPY, INC","425 NEW LONDON RD","NEWARK",DE,"197117009",,39.69421832872992,-75.76420674921108,"3024531588","00-14",,,,,,,
"116848","1215989413","BENCHMARK PHYSICAL THERAPY","102 HINES RD NE","DALTON",GA,"307208516",,34.7691867,-84.9702475,"7066029655","00-14",,,,"116848",,,
"526594","1205880879","GL REHABILITATION SERVICES","600 2ND AVE","MADISON",WI,"537193511","025",43.074761,-89.3837613,"6085274390","00-14","08-01",true,,,"05",,
"456750","1164421608","LOUIS E. ZUNIGA PTPC","8111 N LOOP DR","EL PASO",TX,"799382610",,31.72780082674253,-106.34670599253705,"9155934985","00-14",,,,"456750",,,
"686688","1063571982","ADVANCED MOTION THERAPEUTIC MASSAGE, INC","2965 20TH STREET","VERO BEACH",FL,"329603097",,27.6377458,-80.4165061,"7725678585","00-14",,,,,,,
"496616","1073573242","DOMINION PHYSICAL THERAPY & ASSOCIATES INC.","304 MARCELLA ROAD","WILLIAMSBURG",VA,"23185",,37.2708788,-76.7074042,"7578259446","00-14",,,,,,,
"456627","1437182037","ACTION PHYSICAL THERAPY","12727 KIMBERLEY LN","HOUSTON",TX,"770244047",,29.775601285714284,-95.55780369387755,"7133659338","00-14",,,,,,,
"686693","1932122298","VISSERS PHYSICAL THERAPY","7601 DELLA DR","ORLANDO",FL,"328197233",,28.45179135,-81.49080004901082,"4079039444","00-14",,,,,,,
"686696","1013983535","INTEGRACARE REHABILITATION AGENCY INC","1801 W HILLSBORO BLVD","TAMPA",FL,"336182143",,27.9477595,-82.458444,"9545311472","00-14",,,,,,,
"236829","1144392465","FAMILY REHAB CARE","14625 TELEGRAPH RD SUITE C","TAYLOR",MI,"481804637","163",42.20050531609195,-83.26788493678161,"7342878009","00-14","08-01",true,,,"05",,
"146678","1598742207","GENESIS REHABILITATION SERVICES - FAIRVIEW RESIDEN","22320 CLASSIC COURT","ST CHARLES",IL,"601745202","097",41.9139808,-88.3128183,"8473821568","00-14","08-01",true,,,"05",,
"136539","1104045392","SAINT ALPHONSUS REGIONAL MEDICAL CENTER INC","3025 W CHERRY LN","NAMPA",ID,"836879291",,43.5737361,-116.559631,"2083678593","00-14",,,,"136539",,,
"156529","1942378641","SELECT PHYSICAL THERAPY","7840 E US 36 SUITE A","INDIANAPOLIS",IN,"462502717","063",39.7683331,-86.1583502,"3172724500","00-14","08-01",true,,,"05",,
"166543","1538385174","PHYSIOTHERAPY ASSOCIATES, INC","1815 FIRST AVENUE SE, SUITE 100","CEDAR RAPIDS",IA,"524025417","113",41.9758872,-91.6704053,"3193981569","00-14","08-01",true,,,"07",,
"346635","1285653329","THE WESTON HEALTH CARE GROUP INC","7745 LITTLE AVE","STATESVILLE",NC,"286259200",,35.7826363,-80.8872959,"7047141324","00-14",,,,,,,
"676555","1447279567","THE WESTON HEALTH CARE GROUP INC","24802 KINGSLAND BLVD","KATY",TX,"774946400",,29.7744171,-95.7994011,"2813713000","00-14",,,,,,,
"676564","1750300885","THE WESTON HEALTH CARE GROUP INC","2603 JONES RD","AUSTIN",TX,"787452696",,30.2246065,-97.80206693421053,"5126443354","00-14",,,,,,,
"116810","1659302966","PHYSIOTHERAPY ASSOCIATES","560 THORNTON RD, STE 200","LITHIA SPRINGS",GA,"301221656","097",33.7938404,-84.6346495,"7707395888","00-14","08-01",true,,,"04",,
"116825","1376574764","PHYSIOTHERAPY ASSOCIATES- CARROLLTON","1004 BANKHEAD HIGHWAY, BUILDING A, SUITE 5","CARROLLTON",GA,"301171848","045",33.59175775510204,-85.046787,"7708345609","00-14","08-01",true,,,"04",,
"236836","1194766808","PERFORMAX PHYSICAL THERAPY","29100 GATEWAY BLVD","WOODHAVEN",MI,"481831075",,42.1370519,-83.2451066,"7343797900","00-14",,,,,,,
"116677","1427089853","PHYSIOTHERAPY ASSOCIATES-MCDONOUGH","234 JONESBORO RD","MCDONOUGH",GA,"302533720",,33.453893666666666,-84.16814483333333,"7709549631","00-14",,,,,,,
"166574","1376597708","MILLENNIUM THERAPY","2700 1ST AVENUE SOUTH","FORT DODGE",IA,"505014300","187",42.50539,-94.16052,"5159556922","00-14","08-01",true,,,"07",,
,"1386625051","PROGRESS IN MOTION, LLC","149 RAYMOND HIRSCH PKWY","WHITE HOUSE",TN,"371884332",,36.46662711211589,-86.6655289920272,"6156722977","00-14",,,,,,,
"236649","1487631966","PHYSICAL THERAPY CENTER","586 S ROCHESTER RD","ROCHESTER HILLS",MI,"483072736",,42.6583661,-83.1499322,"2486514573","00-14",,,,,,,
"686677","1174674451","THERAPIA INC.","700 3RD ST","NEPTUNE BEACH",FL,"322665082",,30.3185852,-81.3978496,"9042495020","00-14",,,,"686677",,,
"436506","1902892409","PRAIRIE REHABILITATION","1720 S CLIFF AVE","WORTHINGTON",SD,"561871722","099",29.6012521,-98.5274124,"6053345630","00-14","08-01",true,,,"08",,
"396658","1487693313","VANTAGE PHYSICAL THERAPY & REHABILITATION INC","336 BLOOMFIELD ST","SIDMAN",PA,"159559998",,40.3306306,-78.7447424,"8142692224","00-14",,,,,,,
"056630","1215063052","SUSAN J. HARRIS, INC","251 LANDIS AVE STE 201","LEMON GROVE",CA,"919453616",,32.7425516,-117.0314172,"6194988450","00-14",,,,,,,
"236814","1316993835","GOLDEN TRIANGLE REHAB INC","4241 MAPLE ST STE 150","MADISON HEIGHTS",MI,"480713016",,38.883604,-90.071321,"3135814760","00-14",,,,,,,
"206530","1720160369","RIVERVIEW PHYSICAL THERAPY","50 FOREST FALLS DR","YARMOUTH",ME,"040966937",,43.8053611,-70.18656829833543,"2078464910","00-14",,,,,,,
"106886","1225061872","CORA REHABILITATION CLINIC - WEST PEMBROKE PINES","12315 PEMBROKE RD","POMPANO BEACH",FL,"330694300",,26.2378597,-80.1247667,"9544355300","00-14",,,,,,,
,"1447208046","BRADLEY PHYSICAL THERAPY CLINIC INC","382 W CHESTNUT ST","WASHINGTON",PA,"153014642",,40.171164,-80.255006,"7242282911","00-14",,,,,,,
"506540","1801989587","PROVIDENCE HEALTH & SERVICES WASHINGTON","1900 COOKS HILL RD","TUMWATER",WA,"985014583",,47.0080655,-122.910368,"3603308627","00-14",,,,,,,
"246546","1205824968","ELIM HOMES, INC.","200 LEWIS AVE S","WATERTOWN",MN,"553884547",,44.9617896,-93.848796,"9529552242","00-14",,,,,,,
"526550","1578570974","SSM HEALTH THERAPY SERVICES","1821 SOUTH STOUGHTON RD","WAUNAKEE",WI,"535971250","025",43.1919623,-89.4548402,"6082606004","00-14","08-01",true,,,"05",,
"076584","1821075458","GENESIS REHABILITATION SERVICES - COLCHESTER","59 HARRINGTON COURT","COLCHESTER",CT,"061451207","011",41.57746235781242,-72.33195258665235,"8605372339","00-14","08-01",true,,,"01",,
"396797","1558477828","CROSSROAD PHYSICAL THERAPY AND REHAB","1798 PLANK RD","MARTINSBURG",PA,"166621014",,40.3111875,-78.3241796,"8146963400","00-14",,,,,,,
"296531","1649285313","CUSTOM PHYSICAL THERAPY LP","1450 EAST PRATER WAY SUITE 103","SPARKS",NV,"894348973","031",39.5434801,-119.7172781,"7753311199","00-14","08-01",true,,,"09",,
"496585","1982610333","MARTINSVILLE PHY THER & INDUST","812 E CHURCH STREET","MARTINSVILLE",VA,"241123109","690",36.69062752010585,-79.85449602424865,"2766384809","00-14","08-01",true,"496585",,"03",,
"086517","1437156635","EASTER SEALS DELAWARE & MARYLAND'S EASTERN SHORE, INC","1336 BELMONT AVE STE 502B","SALISBURY",DE,"218012483",,35.6709727,-80.4742261,"4105462894","00-14",,,,,,,
"236613","1306883848","ADVANCED PHYSICAL THERAPY","23852 MICHIGAN AVE","WEST BLOOMFIELD",MI,"483223587",,42.612858,-83.425326,"3135654222","00-14",,,,,,,
"396749","1720084155","PHOENIX REHABILITATION AND HEALTH SERVICES INC","2000 WESTINGHOUSE DR STE 200","YARDLEY",PA,"190671510",,40.245664,-74.8459972,"7243434060","00-14",,,,,,,
"106763","1942487640","PASCO REHABILITATION","37104 CLINTON AVE","DADE CITY",FL,"335255911","101",28.3283261,-82.1895972,"8137837009","00-14","08-01",true,,,"04",,
"226537","1477631992","FOX HILL VILLAGE REHAB CENTER","10 LONGWOOD DRIVE","WESTWOOD",MA,"020901123","021",42.24048525,-71.2109195,"7813265652","00-14","08-01",true,,,"01",,
"066627","1992732853","AVALANCHE PHYSICAL THERAPY-FRISCO","360 PEAK ONE DRIVE, SUITE 190","SILVERTHORNE",CO,"80498","117",39.657180499999996,-106.08221484402384,"9706680888","00-14","08-01",true,,,"08",,
"016614","1164476644","RESTORE THERAPY SERVICES OUTPATIENT","401 ARNOLD ST NE","CULLMAN",AL,"350551967",,34.1813476,-86.8407069,"2567379495","00-14",,,,,,,
"176508","1952306938","NOVACARE REHABILITATION","234 WEST GREENWAY STREET","WICHITA",KS,"672181021","173",37.6922361,-97.3375448,"3167886734","00-14","08-01",true,,,"07",,
"676560","1164450771","THERA-CARE REHAB SERVICES, PLLC","7600 W EXPRESSWAY 83 STE 4&5","MISSION",TX,"785729561",,26.2060661,-98.3400894,"9565817171","00-14",,,,,,,
"686710","1730259151","AARDS II INC","2801 NE 213TH ST STE 801","AVENTURA",FL,"331801264",,25.972732,-80.145923,"3059325304","00-14",,,,,,,
"686708","1568495752","CORA REHABILITATION CLINICS - LARGO","2130 E BAY DR","VALRICO",FL,"335965682",,27.9484265,-82.23621545220522,"7275870582","00-14",,,,,,,
"106733","1003893637","GENESIS REHABILITATION SERVICES","7955 16TH MANOR","VERO BEACH",FL,"329677224","061",27.6387163,-80.3975399,"4076821057","00-14","08-01",true,,,"04",,
"686515","1720096720","PHYSIO MED INC","2765 S BAY ST","LEESBURG",FL,"347485375",,28.810823,-81.8778582,"3525895955","00-14",,,,,,,
"686684","1184655656","MED DIAGNOSTIC REHAB OF SOUTH FLORIDA INC","2462 N FEDERAL HWY","PLANTATION",FL,"333242012",,26.1275862,-80.2331036,"9549420927","00-14",,,,,,,
"316646","1396741856","NOVACARE OUTPATIENT REHABILITATION","1103 WHITE HORSE PPIKE","OAKLYN",NJ,"081071036","007",39.9009465,-75.0846179,"6098589601","00-14","08-01",true,,,"02",,
"076576","1639148125","SELECT PHYSICAL THERAPY OF CT","9 DOG LANE SUITE 108","STORRS",CT,"062691173","013",41.8054348,-72.2429952,"8604507329","00-14","08-01",true,,,"01",,
,"1245342773","S. POTTS AND PROFESSIONALS, INC.","1248 AUSTIN HWY STE 210","SAN ANTONIO",TX,"782094867",,29.48889116666667,-98.44388966666666,"2106468008","00-14",,,,,,,
"116836","1720199458","BONE REHABILITATION INC","3151 WILLIAMS ROAD STE B","COLUMBUS",GA,"319095625","215",32.5672634,-84.9633989,"7063219000","00-14","08-01",true,,,"04",,
"346581","1457418311","COASTAL REHABILITATION INC","101 MEDICAL DRIVE","MOYOCK",NC,"279588740",,36.5245972,-76.1782677,"2523382114","00-14",,,,"271572B",,,
"316655","1699771170","NOVACARE OUTPATIENT REHABILITATION","6307 VENTNOR AVENUE","VENTNOR",NJ,"084062273","001",39.33865846938776,-74.48142963265306,"6098222628","00-14","08-01",true,,,"02",,
"676504","1861463382","THERAPOOL INC.","8700 MONTANA AVE","EL PASO",TX,"799251221",,31.79252766968052,-106.37365324744783,"9157718523","00-14",,,,,,,
"236629","1891890596","PHYSIOTHERAPY ASSOCIATES","55 NORTH POND DR, SUITE 4","WALLED LAKE",MI,"483903080","125",42.537811,-83.4810481,"2486689355","00-14","08-01",true,,,"05",,
"676521","1407872781","GREEN OAKS PHYSICAL THERAPY","3824 S CARRIER PKWY","WAXAHACHIE",TX,"751655201",,32.3944908,-96.8439365,"9722629972","00-14",,,,,,,
"366533","1174529358","NOVACARE REHABILITATION","8412 OLD TROY PIKE","SPRINGFIELD",OH,"455041920","113",39.9234046,-83.810138,"9372289202","00-14","08-01",true,,,"05",,
"056805","1578658803","SELECT PHYSICAL THERAPY","120 LA CASA VIA SUITE 212","WALNUT CREEK",CA,"945983007","013",37.91265347664529,-122.04300511012987,"5109398710","00-14","08-01",true,,,"09",,
"396813","1952370835","CAWLEY PHYSICAL THERAPY AND REHABILITATION","33 NORTH MAIN STREET, SUITE 100","SCRANTON",PA,"185092259","079",41.4086874,-75.6621294,"5702082787","00-14","08-01",true,,,"03",,
"496687","1649270943","SELECT PHYSICAL THERAPY","320B CHARLES H DIMMOCK PKWY","MCLEAN",VA,"221013862",,38.9318369,-77.1671337963356,"8045240533","00-14",,,,,,,
"046570","1811081268","MCBRIDE REHABILITATION GROUP LLC","978 COLEY DRIVE","MOUNTAIN HOME",AR,"726532524",,36.3506958,-92.3724179,"8704255881","00-14",,,,,,,
"686705","1477647766","GO-PT","900 E INDIANTOWN RD, STE 100","JUPITER",FL,"334775142","099",26.9334496,-80.0762303,"8886272325","00-14","08-01",true,,,"04",,
"106870","1366495533","H2 REHABILITATION SERVICES OF FLORIDA LLC","4711 US HIGHWAY 17 SOUTH SUITE B3","ST AUGUSTINE",FL,"320864233",,29.8946952,-81.3145395,"9042649400","00-14",,,,,,,
"686530","1538137252","ARROW REHABILITATION","31 LUPI COURT, SUITE 150","ST AUGUSTINE",FL,"320807045","035",29.8946952,-81.3145395,"9044470011","00-14","08-01",true,,,"04",,
"126517","1174632897","REHAB AT HILO","76 PUUHONU PLACE","HILO",HI,"967202001","001",19.7163106,-155.097616,"8089615776","00-14","08-01",true,,"126517","09",,
"456608","1104958701","PERMIAN BASIN REHABILITATION CENTER FOR CRIPPLED CHILDREN AND ADULTS","620 N ALLEGHANEY AVE","ODESSA",TX,"797614408",,31.846828,-102.37554818367347,"4323328244","00-14",,,,,,,
"676566","1427005263","BEST CARE PHYSICAL THERAPY ,P.C","4716 S JACKSON","EDINBURG",TX,"785398433",,26.3013982,-98.1624501,"9566181300","00-14",,,,,,,
"316667","1750336053","SUNSPECTRUM OUTPATIENT REHAB","102 KINGS WAY WEST","SEWELL",NJ,"080802235","015",39.7665029,-75.1443435,"6095824500","00-14","08-01",true,,,"02",,
"046563","1477522217","SELECT PHYSICAL THERAPY","2425 DAVE WARD DRIVE, SUITE 103","CONWAY",AR,"720348679","045",35.07055201682693,-92.46551849112447,"5013271730","00-14","08-01",true,,,"06",,
"056845","1417042748","SELECT PHYSICAL THERAPY","5980 STONERIDGE DR STE 100","PLEASANTON",CA,"945882723",,37.6905163,-121.90193670747007,"9258478833","00-14",,,,,,,
"396534","1912949454","NOVACARE REHABILITATION","1265 WAYNE AVE","WEST NEWTON",PA,"150892060",,40.2098343,-79.766983,"7243496214","00-14",,,,,,,
"226521","1346245255","SELECT PHYSICAL THERAPY","9 POND LANE STE 2B & 2F, DAMONMIL SQ","WILBRAHAM",MA,"010951254","017",42.1227601,-72.4286259,"7818930897","00-14","08-01",true,,,"01",,
"046588","1619050176","HOUSLEY PHYSICAL THERAPY SERVICES INC.","200 WEST NOME STREET","MARSHALL",AR,"726500190",,39.854861,-80.6616946,"8704485732","00-14",,,,,,,
"396656","1629077599","NOVACARE OUTPATIENT  REHABILITATION EAST, INC.","50 EAST WYLIE AVENUE","WEST HOMESTEAD",PA,"151201002","125",40.3939581,-79.9119946,"7242297901","00-14","08-01",true,,,"03",,
"106792","1710945704","FARESE PHYSICAL THERAPY CENTER INC","7005 FOURTH STREET NORTH","ST PETERSBURG",FL,"337101126",,27.7703796,-82.6695085,"7272094545","00-14",,,,,,,
"106963","1407943160","H2 REHABILITATION SERVICES OF FLORIDA LLC","4820 DEER LAKE DRIVE WEST","ST AUGUSTINE",FL,"320923046",,29.8946952,-81.3145395,"9049989129","00-14",,,,,,,
"346639","1457332264","CAROLINA THERAPY SERVICES INC","111 S. RAILROAD AVE","WARSAW",NC,"28398",,34.9993329,-78.091101,"9108920027","00-14",,,,,,,
"106690","1366475550","CORA PHYSICAL THERAPY - KISSIMMEE","1207 N CENTRAL AVE","WINTER HAVEN",FL,"338804605",,28.0222435,-81.7328568,"4078705959","00-14",,,,,,,
"686709","1497788046","CORA REHABILITATION CLINICS - LAKE WORTH","1736 S CONGRESS AVE","WEST PALM BEACH",FL,"334115145",,26.7074408,-80.0864932,"5616490321","00-14",,,,,,,
"686637","1952334153","CORA PHYSICAL THERAPY - UNIVERSITY","3451 TECHNOLOGICAL AVE","WINTER PARK",FL,"327897102","095",28.5977707,-81.3510264,"4076812520","00-14","08-01",true,,,"04",,
"686695","1881620037","CORA REHABILITATION CLINICS - DORAL","2600 NW 87TH AVE","MIAMI LAKES",FL,"330165869",,25.9010894,-80.340404,"3055925555","00-14",,,,,,,
"686708","1942352257","CORA REHABILITATION CLINICS - LARGO","11754 MARTIN LUTHER KING BLVD E","WESLEY CHAPEL",FL,"335448832",,28.1866014,-82.36612096903323,"8136618267","00-14",,,,,,,
"686584","1407922735","THE VILLAGES REHABILITATION SERVICES LLC","1400 N US HIGHWAY 441","THE VILLAGES",FL,"321636088",,28.8759024,-81.98457902636167,"3527536999","00-14",,,,,,,
"106610","1730183153","SELECT PHYSICAL THERAPY","2065 AIRPORT BLVD, SUITE 300","PENSACOLA",FL,"325263920","033",30.477670123238738,-87.2056524479955,"9049329223","00-14","08-01",true,,,"04",,
"106773","1841241080","SELECT PHYSICAL THERAPY","3000 E FLETCHER AVE","TAMPA",FL,"336473430",,28.0691611,-82.4077383,"8139100717","00-14",,,,,,,
"686576","1265430003","REHAB RX CORP","600 NORTH BLVD W","TRINITY",FL,"346555363",,28.185724999999998,-82.66114095772059,"3527286636","00-14",,,,,,,
"106811","1932109071","SELECT PHYSICAL THERAPY","3488 E LAKE RD","ZEPHYRHILLS",FL,"335426615",,28.2336196,-82.1811947,"7277861996","00-14",,,,,,,
"216606","1275535940","NOVACARE REHABILITATION","21907 WESTERNPORT ROAD, SW","WESTERNPORT",MD,"215622235","001",39.4854732,-79.0446881,"3017864171","00-14","08-01",true,,,"03",,
"456554","1669475885","NORTH TEXAS REHABILITATION CENTER INC","1005 MIDWESTERN PKWY","WICHITA FALLS",TX,"763022211",,33.9004572,-98.5020777,"9403220771","00-14",,,,,,,
"676537","1093753527","BROOKDALE THERAPY GALLERIA","2929 POST OAK BOULEVARD","WEBSTER",TX,"775984066","201",29.5351724,-95.1161564,"7138305074","00-14","08-01",true,,,"06",,
"236622","1730286931","PHYSIOTHERAPY ASSOCIATES","1016 NORTH SAGINAW, SUITE B","HOLLY",MI,"484421379","125",42.7919727,-83.6277255,"2486344424","00-14","08-01",true,,,"05",,
"236634","1932106945","PRIME REHAB SERVICES INC","33341 DEQUINDRE","TROY",MI,"483283314",,42.5637274,-83.0887704,"2485881388","00-14",,,,,,,
"366724","1609899061","PROGRESSIVE THERAPY ALTERNATIVES, INC","1560 HENTHORNE DR","WHITEHOUSE",OH,"435719648",,41.5189413,-83.8038284,"4198665275","00-14",,,,,,,
"106943","1427133891","RURAL THERAPY SERVICES OF FLORIDA INC","35 OLD KINGS RD N","PALM COAST",FL,"321378227",,29.5610994,-81.2223926,"3864455555","00-14",,,,,,,
"156591","1801891890","HTS OUTPATIENT THERAPY SERVICES","689 PRO-MED LANE","RICHMOND",IN,"473741215","057",39.8286897,-84.8898521,"3172583228","00-14","08-01",true,,,"05",,
"086525","1740210970","NOVACARE REHABILITATION","208 N DUPONT BLVD","SMYRNA",DE,"199771511",,39.3048528127528,-75.60596395932653,"3026538389","00-14",,,,,,,
"676501","1104965185","APTUS HEALTH CARE, P.L.L.C.","5412 BRAND ST.","RIO GRANDE CITY",TX,"785829463",,26.3521115,-98.773007,"9564881818","00-14",,,,"676501",,,
"146688","1891836664","OCCUPATIONAL THERAPY PROVIDERS INC","3849 W 95TH STREET","EVERGREEN PARK",IL,"608052020",,41.72042936660421,-87.71811400112057,"7082299030","00-14",,,,,,,
"496697","1215951843","BUCHANAN THERAPY SERVICES, INC","1103 H PLAZA DRIVE","GRUNDY",VA,"24614","027",37.2778886,-82.0990223,"2769355525","00-14","08-01",true,,,"03",,
"346587","1407893944","CAROLINAS REHABILITATION","16455 STATESVILLE RD  SUITE 300","MONROE",NC,"281124350","119",34.9854275,-80.5495112,"7045444540","00-14","08-01",true,,,"04",,
"396767","1235138124","NOVACARE OUTPATIENT REHABILITATION","412 HUNTINGDON PIKE","YARDLEY",PA,"190677716","091",40.245664,-74.8459972,"2157426219","00-14","08-01",true,,,"03",,
"346638","1104823400","LEGACY HEALTHCARE SERVICES INC","2701 PICKETT RD","YOUNGSVILLE",NC,"275969403",,36.0247769,-78.4767034,"9194245080","00-14",,,,,,,
"226505","1629165634","SELECT PHYSICAL THERAPY","1 AUSTON RD","SOUTH DENNIS",MA,"026602577",,41.6895552,-70.1564077,"5084325760","00-14",,,,,,,
"686715","1033143110","CORA REHABILITATION CLINICS - STUART","2018 SE FEDERAL HWY","STUART",FL,"349943918",,27.180698,-80.239781,"7727811690","00-14",,,,,,,
"396585","1871551028","CORE NETWORK, LLC","625 WALNUT ST","ZELIENOPLE",PA,"160631547",,40.7932668,-80.1446811,"4126736660","00-14",,,,,,,
"256598","1821030198","CROSS CREEK PHYSICAL THERAPY","7501 GOODMAN ROAD, SUITE 1","OLIVE BRANCH",MS,"386541952","033",34.96212072381936,-89.85853343736733,"6628903382","00-14","08-01",true,,,"04",,
"396539","1144262635","PIVOT PHYSICAL THERAPY OF WESTERN PENNSYLVANIA","5770 BAUM BOULEVARD, SUITE 100","YORK",PA,"174042274","003",39.9067499,-76.7008946,"4122654734","00-14","08-01",true,,,"03",,
"236605","1477546729","COMPLETE FITNESS REHABILITATION INC","1380 COOLIDGE HWY STE L200","TROY",MI,"480854100",,42.5452281,-83.1856659,"2486493755","00-14",,,,,,,
"236641","1437142783","COMPLETE REHAB LLC","16655 15 MILE RD","WARREN",MI,"480884330",,38.7535106,-91.1453948,"5867920970","00-14",,,,,,,
"446589","1225199888","HEALTH AND HABILITATION SERVIC","615 DERBY ST ORANGE GROVE CTR POB 3249","CHATTANOOGA",TN,"374041632","065",35.0457219,-85.3094883,"4234932922","00-14","08-01",true,,,"04",,
"396676","1750384988","EAST SUBURBAN SPORTS MEDICINE CENTER LTD","4115 WILLIAM PENN HWY","PITTSBURGH",PA,"15239",,40.4416941,-79.9900861,"7243277099","00-14",,,,,,,
"076579","1558330019","SELECT PHYSICAL THERAPY OF CT","29 NORTH MAIN STREET","WEST HARTFORD",CT,"061171545","003",41.7640464,-72.7424267,"8605613960","00-14","08-01",true,,,"01",,
"216538","1730263302","TIDEWATER PHYSICAL THERAPY","406 MARVEL CT","ST MICHAELS",MD,"216632637","041",38.7865839,-76.2244098,"4107583816","00-14","08-01",true,,,"03",,
"426614","1982623161","THE WESTON GROUP C/O GREENVILLE GLENN","1931 PELHAM RD","YORK",SC,"297451607",,34.9603293,-81.1655408,"8642889450","00-14",,,,,,,
"106898","1912081142","TLC REHAB, LLC","6778 W GULF TO LAKE HWY","INVERNESS",FL,"344533873",,28.8358176,-82.3303715,"5279562253","00-14",,,,,,,
"106822","1376593053","TALLAHASSEE ORTHOPEDIC & SPORTS PHYSICAL THERAPY LLC","1891 CAPITAL CIR NE STE 2","TALLAHASSEE",FL,"323084486",,30.46898862731531,-84.23063878184448,"8508778855","00-14",,,"106822",,,,
"346637","1013912732","PRO ACTIVE THERAPY-MARION","20 WEST MEDICAL COURT","SWANNANOA",NC,"287783052","111",35.600579499999995,-82.38770150253882,"8286598049","00-14","08-01",true,,,"04",,
"376617","1538387725","TOTAL PHYSICAL THERAPY","6933 SOUTH 66TH EAST AVENUE","TULSA",OK,"741331747","143",36.06226409344972,-95.90250379200843,"9184950600","00-14","08-01",true,,,"06",,
"496602","1194725747","SELECT PHYSICAL THERAPY","121 COURTHOUSE LANE - PO BOX 877","BOWLING GREEN",VA,"224279336","033",38.0498524,-77.3469994,"8046331232","00-14","08-01",true,,,"03",,
"426615","1558348185","GENESIS REHABILITATION SERVICES","201 BRIGHTWATER DR","PAWLEYS ISLAND",SC,"295859001","051",33.4293486,-79.1215912,"8432370343","00-14","08-01",true,,,"04",,
"346593","1295793321","GENESIS ELDERCARE REHAB SVCS","2101 HOMESTEAD HILLS DRIVE","WINSTON-SALEM",NC,"271036445","067",36.1579517,-80.2767269,"3367748942","00-14","08-01",true,,,"04",,
"216665","1487760799","FLAGSHIP REHABILITATION INC","18131 SLADE SCHOOL RD","WILLIAMSPORT",MD,"217951104",,39.5993627,-77.8215298,"3012601690","00-14",,,,,,,
"396822","1649311523","FLAGSHIP REHABILITATION","999 W HARRISBURG PIKE","WAYNESBORO",PA,"172681564",,39.7557827,-77.5776512,"7179021000","00-14",,,,,,,
"066561","1942279567","SELECT PHYSICAL THERAPY - WHEAT RIDGE","7777 W 38TH AVE, STE A-124","WHEAT RIDGE",CO,"800336170","059",39.76943704697987,-105.08244182550335,"3039400757","00-14","08-01",true,,,"08",,
"066538","1104895754","SELECT PHYSICAL THERAPY - LAKEWOOD","255 UNION BOULEVARD, SUITE 110","LAKEWOOD",CO,"802281833","059",39.7181457755102,-105.13259928571428,"3032320355","00-14","08-01",true,,,"08",,
"066578","1881663490","SELECT PHYSICAL THERAPY OF DENVER","3102 S PARKER ROAD, SUITE A15","AURORA",CO,"800143108","005",39.6616409,-104.853738,"3033388598","00-14","08-01",true,,,"08",,
"066572","1366411985","SELECT PHYSICAL THERAPY - SOUTH WEBER","15 SOUTH WEBER STREET, SUITE A","MONUMENT",CO,"801329074","041",51.5106328,-0.0861271,"7196307774","00-14","08-01",true,,,"08",,
"236639","1811980162","COMPLETE REHAB SERVICES, INC","51226 ROMEO PLANK","SOUTHFIELD",MI,"480348468",,42.4733689,-83.2218731,"5866772900","00-14",,,,,,,
"116782","1528024387","REGIONAL THERAPY SERVICES, INC","300 SUNSET CIRCLE","VALDOSTA",GA,"316026814","071",30.8327022,-83.2784851,"2299852080","00-14","08-01",true,,,"04",,
,"1932234788","PEDIATRICS PLUS, INC.","4295 CROMWELL RD","CHATTANOOGA",TN,"374061200",,35.06447339618433,-85.19651571432856,"4238944774","00-14",,,,,,,
"236562","1326146077","NOVACARE REHABILITATION","1103 S CEDAR ST","MASON",MI,"488542080",,42.5807372,-84.4528489,"5172447787","00-14",,,,,,,
"256599","1598851222","CROSSROADS REHABILITATION SERVICES, INC","206B OXFORD RD","WALNUT",MS,"386838452",,34.1489999,-90.3989834,"6625344445","00-14",,,,"256599",,,
"046548","1902910151","TRINITY REHABILITATION, INC","2793 E MILLENNIUM DRIVE, SUITE 2","SPRINGDALE",AR,"727625210","143",36.1867442,-94.1288142,"4795212232","00-14","08-01",true,,,"06",,
"676600","1790791127","THE WESTON HEALTH CARE GROUP, INC","20500 HUEBNER RD","SAN ANTONIO",TX,"782583947",,29.626106544296434,-98.49123979080888,"2104954606","00-14",,,,,,,
"456631","1285688440","PHYSICAL THERAPY CLINIC OF PARIS, LP","4005 LAMAR AVENUE","PARIS",TX,"754625212","277",33.661979709697015,-95.50488982940868,"9037853861","00-14","08-01",true,,,"06",,
"316616","1285630228","NOVACARE REHABILITATION","17 WHITE HORSE PIKE, SUITES 5 & 7","WILLIAMSTOWN",NJ,"080941560","007",39.688691,-74.98691910292524,"8565468980","00-14","08-01",true,,,"02",,
"526596","1568440253","GENESIS REHABILITATION SERVICES GREENDALE","5700 MOCKINGBIRD LANE","WAUKESHA",WI,"531883946","079",43.0622536,-88.3123889,"4142359170","00-14","08-01",true,,,"05",,
"186536","1912907924","KORT - GEORGETOWN PHYSICAL THERAPY","101 EASTSIDE DRIVE, SUITE A","GEORGETOWN",KY,"403248763","209",38.2125502,-84.54684892790422,"5028670111","00-14","08-01",true,,,"04",,
"186607","1508867573","KORT - FALMOUTH PHYSICAL THERAPY","1308 WEST SHELBY STREET, SUITE D","FALMOUTH",KY,"410409229","191",38.6794514,-84.3433674,"7179754510","00-14","08-01",true,,,"04",,
"186541","1568462596","KORT - TATES CREEK PHYSICAL THERAPY","4101 TATES CREEK CENTER DRIVE, SUITE 144","LEXINGTON",KY,"405173068","067",38.0464066,-84.4970393,"8592712887","00-14","08-01",true,,,"04",,
"186543","1730189762","KORT - BRYAN STATION PHYSICAL THERAPY","1650 BRYAN STATION ROAD, SUITE 122","PARIS",KY,"403612251","067",38.2097987,-84.2529869,"7179754510","00-14","08-01",true,,,"04",,
"186577","1972504900","KORT PHYSICAL THERAPY - NICHOLASVILLE","102 WILLIAMS ROAD","NICHOLASVILLE",KY,"403568060","113",37.87126369039235,-84.57636527936366,"8598810333","00-14","08-01",true,,,"04",,
"186537","1750381778","KORT - WINCHESTER PHYSICAL THERAPY","1547 BY-PASS ROAD","WINCHESTER",KY,"403912714","049",37.990079,-84.1796503,"8597444411","00-14","08-01",true,,,"04",,
"686729","1205883063","BROOKDALE THERAPY COUNTRYSIDE","3260 MCMULLEN BOOTH RD","SEMINOLE",FL,"337724376","103",28.7225829,-81.2353683,"7277265090","00-14","08-01",true,,,"04",,
"466502","1265549372","MOUNTAIN LAND REHAB AGENCY","1952 E 7000 S","WEST VALLEY",UT,"841201247",,40.70500185,-111.95045669652848,"8019423311","00-14",,,,,,,
"396667","1255330908","AQUAHAB, LP","3600 GRANT AVE","PHILADELPHIA",PA,"191142630",,40.063977,-74.99832,"2156770400","00-14",,,,,,,
"236846","1932208535","INDIVIDUALIZED PHYSICAL THERAPY & REHAB PC","44633 JOY RD","CANTON",MI,"481871732",,42.35110071013875,-83.48135240725412,"7347106600","00-14",,,,"236846",,,
"166509","1679614754","CHILDSERVE THERAPY","5406 MERLE HAY ROAD","JOHNSTON",IA,"501311209","153",41.6596463,-93.69963940884364,"5157278750","00-14","08-01",true,,,"07",,
"456643","1184627531","REHAB MANAGEMENT OF DALLAS","930 W RALPH HALL PKWY","GARLAND",TX,"750425709",,32.912624,-96.6388833,"9727711090","00-14",,,,,,,
"366676","1477540383","CIRCLE REHABILITATION PHYSICAL THERAPY","3000 BELMONT AVE","YOUNGSTOWN",OH,"445055047",,41.1051013,-80.655756,"3307592480","00-14",,,,,,,
"376554","1437110020","SELECT PHYSICAL THERAPY","6729 NORTHWEST 39TH EXPRESSWAY","YUKON",OK,"730994194","109",35.5067259,-97.7625386,"4057176290","00-14","08-01",true,,,"06",,
"346591","1972563484","SELECT PHYSICAL THERAPY","8066 B MARKET STREET","WILMINGTON",NC,"284119384","129",34.2356097,-77.9453101,"9107628184","00-14","08-01",true,,,"04",,
"346584","1689634198","SELECT PHYSICAL THERAPY","120 CHARLOIS BOULEVARD","WINSTON SALEM",NC,"271031562","067",36.08552637564601,-80.30184344216258,"3368542929","00-14","08-01",true,,,"04",,
"346578","1710947213","SELECT PHYSICAL THERAPY","101 SW CARY PARKWAY  SUITE 10","RALEIGH",NC,"276076475","183",35.7803977,-78.6390989,"9198474746","00-14","08-01",true,,,"04",,
"346569","1669432175","SELECT PHYSICAL THERAPY","1630-D CAMPUS PARK DRIVE","MONROE",NC,"281125270","179",34.9740264,-80.5151665,"7042839422","00-14","08-01",true,,,"04",,
"496589","1174591218","SELECT PHYSICAL THERAPY","429 ENGLAND ST","RICHMOND",VA,"232384919","085",37.5385087,-77.43428,"8047474417","00-14","08-01",true,,,"03",,
"496584","1750350872","SELECT PHYSICAL THERAPY","6910 RICHMOND HIGHWAY, SUITE 100","WOODBRIDGE",VA,"221926803","059",38.6661899,-77.2424007,"7037657700","00-14","08-01",true,,,"03",,
"496594","1467420604","SELECT PHYSICAL THERAPY","7900 SUDLEY ROAD, SUITE 803","MANASSAS",VA,"201092876","683",38.7848893,-77.5136683,"7033663948","00-14","08-01",true,,,"03",,
"074505","1659347300","REHABILITATION ASSOCIATES INC","1931 BLACK ROCK TPKE","STRATFORD",CT,"066144946",,41.1845415,-73.1331651,"2033848681","00-14",,,,,,,
"496583","1346218419","SELECT PHYSICAL THERAPY","150 ELDEN STREET, SUITE 250","HERNDON",VA,"201704856","059",38.9670211,-77.3676234,"7034445005","00-14","08-01",true,,,"03",,
"116779","1144212564","ROME REHABILITATION CENTER INC","1801 MARTHA BERRY BLVD NW","ROME",GA,"301651625",,34.257038,-85.1646726,"7068020780","00-14",,,,,,,
"456719","1801859822","SELECT PHYSICAL THERAPY SERVICES","17270 RED OAK ROAD SUITE 180","WILLIS",TX,"773184937","201",30.4241219,-95.4796587,"2814407625","00-14","08-01",true,,,"06",,
"496607","1366410466","SELECT PHYSICAL THERAPY","6850 VERSAR CENTER, SUITE 241","SPRINGFIELD",VA,"221514148","059",38.79437455,-77.18131480298106,"7032563400","00-14","08-01",true,,,"03",,
"496660","1982657433","IVYREHAB SEPT LLC","5301 PROVIDENCE RD","ZION CROSSROADS",VA,"229429604",,37.9709736,-78.2197262,"7574674604","00-14",,,,"496660",,,
"166580","1336193986","MILLENNIUM THERAPY","2300 SWAN LAKE BLVD","SOLON",IA,"523339620","019",41.8072344,-91.4940604,"3193345155","00-14","08-01",true,,,"07",,
"216538","1730263302","TIDEWATER PHYSICAL THERAPY","406 MARVEL CT","SEAFORD",DE,"199733650",,38.6413452,-75.6114584,"4108224613","00-14",,,,,,,
"496658","1821066978","SELECT PHYSICAL THERAPY","7415 LEE DAVIS ROAD","MECHANICSVILLE",VA,"231114405","085",37.60945815,-77.33956355722307,"8045992900","00-14","08-01",true,,,"03",,
"236851","1780775809","CENTRAL MICHIGAN REHABILITATION","1500 W. HIGH STREET","SAINT LOUIS",MI,"488801521",,38.6319657,-90.2428756,"9897720258","00-14",,,,"0P22680",,,
"676582","1497832398","STAR THERAPY SERVICES OF KATY","21707 KINGSLAND BLVD, SUITE 101","KATY",TX,"774502519","201",29.7678322,-95.8319448,"2813988235","00-14","08-01",true,,,"06",,
"016579","1346259801","CHAMPION SPORTS MEDICINE","74240 TALLASSEE HWY","WETUMPKA",AL,"360925504",,32.55159771428571,-86.176823,"3345144488","00-14",,,,,,,
"236589","1851351670","NOVACARE REHABILITATION","228 WEST CHICAGO ROAD","STURGIS",MI,"490912444","149",41.79898,-85.4206317142857,"6166512550","00-14","08-01",true,,,"05",,
"506569","1386683795","SELECT PHYSICAL THERAPY","11212 SUNRISE BOULEVARD, SUITE #202","PUYALLUP",WA,"983748847","053",47.1849009,-122.29214,"2534350360","00-14","08-01",true,,,"10",,
"496692","1891870630","GREENSPRING VILLAGE INC","7430 SPRING VILLAGE DRIVE","SPRINGFIELD",VA,"221504487","059",38.76766774939442,-77.2022091775477,"7039234600","00-14","08-01",true,,,"03",,
"216671","1679520662","RIDERWOOD VILLAGE OUTPATIENT REHABILITATION AGENCY","3120 GRACEFIELD RD","SILVER SPRING",MD,"209045810","031",38.9997621,-77.02403709829767,"3015728372","00-14","08-01",true,,,"03",,
"316702","1144272311","SEABROOK VILLAGE, INC","3004 ESSEX ROAD","TINTON FALLS",NJ,"077537758","025",40.2372259,-74.083804,"7326431200","00-14","08-01",true,,,"02",,
"496695","1508932708","MEDSTAR HEALTH PHYSICAL THERAPY","3833 FAIRFAX DR","WOODBRIDGE",VA,"221923602",,38.6361522,-77.26783643292558,"7037176900","00-14",,,,,,,
"495127","1073541645","WESTMINSTER-CANTERBURY ON CHESAPEAKE BAY","3100 SHORE DRIVE","VIRGINIA BEACH",VA,"234511199","810",36.911284499999994,-76.07854903749089,"7574961158","00-14","03-03",true,,"C09611","03",108,
"216591","1891790721","NOVACARE REHABILITATION","116 DEFENSE HIGHWAY  SUITE 101","ANNAPOLIS",MD,"214017027","003",38.9786401,-76.492786,"4108970120","00-14","08-01",true,,,"03",,
"216590","1184720294","PHYSIOTHERAPY ASSOCIATES","210 E CENTRE ST","MANCHESTER",MD,"211021802",,39.6656092,-76.8781927,"4106595990","00-14",,,,,,,
,"1215060561","BRIGHT AUDIOLOGY AND SPEECH INC","1620 S 3RD ST","SANFORD",NC,"273304010",,35.46853,-79.159723,"9197743277","00-14",,,,"2419002A",,,
"326546","1396851952","THERAPY SERVICES ASSOCIATES, PROFESSIONAL CORP","2700 N GRIMES ST","HOBBS",NM,"882401816",,32.729777,-103.144775,"5753924129","00-14",,,,"326546",,,
"446674","1528064193","FUSION FITNESS & PHYSICAL THERAPY CENTER, LLC","701 CHEROKEE BLVD","CHATTANOOGA",TN,"374053838",,35.069545,-85.317913,"4232679146","00-14",,,,,,,
"216626","1679541809","EAGLE REHAB CORPORATION","10905 FORT WASHINGTON ROAD  SUITE 101","FT WASHINGTON",MD,"207445844","033",38.7210206,-77.0040191,"3012925100","00-14","08-01",true,,,"03",,
"326537","1033115050","NEW MEXICO PHYSICAL THERAPISTS INC","2211 MAIN ST","LOS LUNAS",NM,"870316377",,34.8030173,-106.7123894,"5058851677","00-14",,,,"326537",,,
"396751","1285696179","VALLEY OUTPATIENT REHABILITATION","1027 COUNTRY CLUB RD","MONONGAHELA",PA,"150631553",,40.19029719247823,-79.91863727564869,"7242586211","00-14",,,,,,,
"256597","1568455889","PERFORMANCE REHAB, INC","950 EAST COUNTYLINE ROAD","RIDGELAND",MS,"391571928",,32.4284761,-90.1323087,"6013085117","00-14",,,,,,,
"326524","1306842828","NEW MEXICO PHYSICAL THERAPISTS INC","3301 COORS BLVD NW","ALBUQUERQUE",NM,"871204761",,35.12031735438012,-106.70145218149699,"5058438700","00-14",,,,"32-6524",,,
"446659","1255472403","FULL SPECTRUM REHAB CENTER INC","1842 WILMA RUDOLPH BLVD","CLARKSVILLE",TN,"370431828",,36.55487056868092,-87.32310538776012,"9319060440","00-14",,,,,,,
"496670","1760403877","UNIVERSITY PHYSICAL THERAPY LIMITED PARTNERSHIP","825 DAVIS ST","SALEM",VA,"241535414",,39.2866691,-80.5608836,"5405525100","00-14",,,,,,,
"086529","1659375061","NOVACARE REHABILITATION","3623 SILVERSIDE ROAD","WILMINGTON",DE,"198105101","003",39.7459468,-75.546589,"3025291911","00-14","08-01",true,,,"03",,
"266641","1295899722","REHABILITATION PROFESSIONALS INC","1034 S BRENTWOOD BLVD","TOWN AND COUNTRY",MO,"630178406",,38.6122751,-90.4634532,"3146441978","00-14",,,,,,,
"396620","1760469472","GENESIS REHABILITATION SERVICES","125 HOLLY ROAD","WYOMISSING",PA,"196101240","011",40.329537,-75.9652117,"6105622284","00-14","08-01",true,,,"03",,
"236861","1417203530","BURCHAM HILLS LLC","2700 BURCHAM DR","EAST LANSING",MI,"488233898",,42.74362135,-84.44897891206136,"5173518377","00-14",,,,,,,
"326506","1497751911","VIBRANTCARE REHABILITATION","2607 WYOMING BOULEVARD NE","ALBUQUERQUE",NM,"871121029","001",35.115273416752046,-106.550985806726,"5052969521","00-14","08-01",true,,,"06",,
"396648","1093734279","WESTON GROUP INC, THE","2222 SULLIVAN TRL","NORTHAMPTON",PA,"180672005",,40.72320914554796,-75.225801661978,"6109912034","00-14",,,,,,,
"456501","1922112499","THE WEST TEXAS REHABILITATION CENTER","4601 HARTFORD ST","ABILENE",TX,"796054603",,32.433161,-99.78254,"3257933400","00-14",,,,,,,
"496628","1346320637","SELECT PHYSICAL THERAPY","160 EXETER DR","WINCHESTER",VA,"226016517",,39.1852184,-78.1652404,"5406650104","00-14",,,,,,,
"076559","1750350245","SELECT PHYSICAL THERAPY OF CT","1291 BOSTON POST ROAD","WETHERSFIELD",CT,"061093058","009",41.7142665,-72.6525922,"2032450001","00-14","08-01",true,,,"01",,
"456887","1497718423","SELECT PHYSICAL THERAPY","2008 N STATE HWY 121 SUITE 3000","BONHAM",TX,"754184027","147",33.5822077,-96.1785028,"9035837433","00-14","08-01",true,,,"06",,
"376605","1396706917","SELECT PHYSICAL THERAPY HOLDINGS INC","1202 MERRICK DRIVE","ARDMORE",OK,"734011824",,34.19185540509509,-97.14615424107474,"7179721100","00-14",,,,,,,
"376606","1700847324","SELECT PHYSICAL THERAPY","221 EAST COMANCHE","MCALESTER",OK,"745015845","121",34.92560365306122,-95.76939412244899,"9184231181","00-14","08-01",true,,,"06",,
"376607","1992767867","SELECT PHYSICAL THERAPY","1634 SOUTHWEST 122ND","OKLAHOMA CITY",OK,"731704859","027",35.346180775510206,-97.54627748979591,"4058401957","00-14","08-01",true,,,"06",,
"346616","1659331163","SELECT PHYSICAL THERAPY","615 SOUTH HUGHES BLVD","ELIZABETH CITY",NC,"279094784","139",36.29176130994185,-76.25038322321895,"2523352087","00-14","08-01",true,,,"04",,
"396553","1861491730","NOVACARE OUTPATIENT REHABILITATION","444 NORTH YORK ROAD SUITE A-1","THORNDALE",PA,"193721134","091",39.997333,-75.7502087,"2155431201","00-14","08-01",true,,,"03",,
"426610","1447212634","SELECT PHYSICAL THERAPY","1460 JOHN B WHITE SR BLVD, #1B","SPARTANBURG",SC,"293063996","083",34.92471445,-81.97097560558794,"8645876205","00-14","08-01",true,,,"04",,
"376608","1235190844","SELECT PHYSICAL THERAPY","1106 WEST MAIN STREET","NORMAN",OK,"730696923","027",35.21833459259259,-97.45796898765433,"4053211469","00-14","08-01",true,,,"06",,
"116638","1891854022","PROGRESSIVEHEALTH REHABILITATION SOLUTIONS INC","1777 GEORGIAN PARK","PEACHTREE CITY",GA,"30269",,33.4348353,-84.5921062,"7704871931","00-14",,,,"116638",,,
"456726","1356304323","SELECT PHYSICAL THERAPY","4009 RICHMOND AVE","WEBSTER",TX,"775984042","201",29.5351724,-95.1161564,"7137937600","00-14","08-01",true,,,"06",,
"456644","1114980604","SELECT PHYSICAL THERAPY","9150 HUEBNER RD SUITE 275","SAN ANTONIO",TX,"782401661","029",29.5273648,-98.59498546596578,"2105617000","00-14","08-01",true,,,"06",,
"456661","1912960998","SELECT PHYSICAL THERAPY","606 SW MILITARY DRIVE","SAN ANTONIO",TX,"782211637","029",29.35661967126047,-98.50129799390976,"2105907412","00-14","08-01",true,,,"06",,
"166581","1174783583","INDIANOLA PHYSICAL THERAPY","1507 NORTH FIRST STREET","OSCEOLA",IA,"502131419","181",43.3684613,-95.6299944,"5154617435","00-14","08-01",true,,,"07",,
"216586","1780652917","SELECT PHYSICAL THERAPY","454-C GOVERNOR'S RITCHIE HIGHWAY","SEVERNA PARK",MD,"211462911","003",39.08261925,-76.5719675597392,"4105446988","00-14","08-01",true,,,"03",,
"556562","1811989783","CHAVEZ MANAGEMENT, INC.","24361 EL TORO RD","LAGUNA WOODS",CA,"926372756",,33.6097092,-117.7318627,"9499166321","00-14",,,,"55-6562",,,
"326539","1124089206","SELECT PHYSICAL THERAPY","2113 GOLF COURSE ROAD NW, SUITE #106","RIO RANCHO",NM,"871241656","043",35.269381,-106.632819,"5058989700","00-14","08-01",true,,,"06",,
"456616","1750344727","SELECT PHYSICAL THERAPY","1201 HEWITT DR, STE 202","WACO",TX,"767126163","309",31.4885891,-97.2124538,"2547767864","00-14","08-01",true,,,"06",,
"456640","1245293224","BAYLOR INSTITUTE FOR REHABILITATION OUTPATIENT SER","4901 BRYANT IRVIN ROAD NORTH, SUITE 200","FORT WORTH",TX,"761077673","439",32.753177,-97.3327459,"8173773033","00-14","08-01",true,,,"06",,
"446603","1275596769","(CLOSED) HEALTHSOUTH REHAB CENTER OF MARTIN","164 MT PELIA RD","MARTIN",TN,"382373835","183",36.336160473904236,-88.86680500793568,"9015876460","00-14","08-01",true,,,"04",,
"446599","1316900806","SELECT PHYSICAL THERAPY","331 LANDRUM PLACE","SPRINGFIELD",TN,"371723913","125",36.5092119,-86.8849984,"6153830845","00-14","08-01",true,,,"04",,
"186527","1285694067","SELECT PHYSICAL THERAPY - GOSS","1227 GOSS AVENUE","LOUISVILLE",KY,"402171239","111",38.2259327,-85.7318286,"5026361200","00-14","08-01",true,,,"04",,
"186551","1326008103","SELECT PHYSICAL THERAPY - SHELBYVILLE","12935 SHELBYVILLE ROAD","LOUISVILLE",KY,"402431592","111",38.2387669,-85.4876967,"5024845002","00-14","08-01",true,,,"04",,
"216585","1861460917","SELECT PHYSICAL THERAPY","3 BETHESDA METRO-CENTER, B-001","SILVER SPRING",MD,"209106255","031",38.9997621,-77.02403709829767,"3019869252","00-14","08-01",true,,,"03",,
"446548","1619939766","SELECT PHYSICAL THERAPY - SMYRNA","537 STONECREST PARKWAY, SUITE 105","SMYRNA",TN,"371676884","149",35.9824598,-86.5199492,"6154593500","00-14","08-01",true,,,"04",,
"376524","1386605988","SELECT PHYSICAL THERAPY","2020 ARLINGTON, BUILDING 1, SUITE 3","ADA",OK,"748202822","123",34.78170682722512,-96.64799162827211,"5803325124","00-14","08-01",true,,,"06",,
"376567","1770544371","SELECT PHYSICAL THERAPY","1623 S UTICA AVE","TULSA",OK,"741465823","143",36.1383499,-95.96685494195458,"9189826800","00-14","08-01",true,,,"06",,
"216537","1851378566","GENESIS ELDERCARE REHABILITATION SERVICES","4730 ATRIUM COURT","OWINGS MILLS",MD,"211173556","005",39.400648,-76.790105,"4103634790","00-14","08-01",true,,,"03",,
"056822","1417951047","NOVACARE OUTPATIENT REHABILITATION","690 INDUSTRIAL BOULEVARD","SAN CARLOS",CA,"940703318","081",37.504936,-122.261823,"6505926682","00-14","08-01",true,,,"09",,
"106593","1720039902","SELECT PHYSICAL THERAPY","9250 CORKSCREW RD","NAPLES",FL,"341128716",,26.1421976,-81.7942944,"2393901656","00-14",,,,,,,
"426624","1861454050","SELECT PHYSICAL THERAPY","300 MIDTOWN DRIVE","OKATIE",SC,"299093765","013",32.2446302,-80.9796574,"8435211747","00-14","08-01",true,,,"04",,
"106819","1710968938","STRIVE REHABILITATION","2620 SE MARICAMP RD","WILLISTON",FL,"326962681",,29.3880028,-82.4481694,"3523518883","00-14",,,,,,,
"686734","1740225374","WESTMINSTER SHORES, INC.","125 56TH AVE S","ST. PETERSBURG",FL,"337055400",,27.717300379604662,-82.63338838746695,"7278672131","00-14",,,,,,,
"366730","1790820355","ALLIED HEALTH REHAB CENTERS","35 NORTH CLEVELAND AVENUE","MOGADORE",OH,"442601365","153",41.05201192466284,-81.39300753551775,"3306280736","00-14","08-01",true,,,"05",,
"216605","1457354748","SUBURBAN/NRH REHABILITATION IN","6001 MONTROSE ROAD, SUITE 402","WHEATON",MD,"209021905","031",39.04979325,-77.05228508396917,"3019846594","00-14","08-01",true,,"896176","03",,
"216611","1942206412","NOVACARE OUTPATIENT REHABILITA","12070 OLD LINE CENTRE , SUITE 107","WALDORF",MD,"206022503","017",38.635042999999996,-76.90631608403362,"3013746885","00-14","08-01",true,,,"03",,
"216654","1154324440","NRH CPT ST MARYS REGIONAL REHA","3 POST OFFICE ROAD","WALDORF",MD,"206022756","017",38.619378,-76.899257,"3013732588","00-14","08-01",true,,,"03",,
"116684","1114981669","SOUTHERN THERAPY SERVICES, INC","812 SOUTH PARK STREET","VILLA RICA",GA,"301801263","045",33.732052,-84.9191081,"7708347436","00-14","08-01",true,,,"04",,
"256594","1689772873","SELECT PHYSICAL THERAPY","7900 AIRWAYS BLVD","SOUTHAVEN",MS,"386714113",,34.976219,-89.9888165,"6625364096","00-14",,,,,,,
"426586","1336149848","SELECT PHYSICAL THERAPY","1350 ASHLEY RIVER RD SUITE 600","SUMMERVILLE",SC,"294854102","019",33.0186699,-80.1762704,"8435561745","00-14","08-01",true,,,"04",,
"216512","1760575294","NOVACARE REHABILITATION","810 LANDMARK DR","TOWSON",MD,"212862102",,39.396459050000004,-76.61481481790992,"4107617660","00-14",,,,,,,
"216612","1164427092","NOVACARE REHABILITATION","72 FREDERICK ST","TANEYTOWN",MD,"217872135","013",39.65840561896807,-77.1785377873486,"4107565880","00-14","08-01",true,,,"03",,
"396746","1154454296","AQUASPORT PHYSICAL THERAPY, P.C.","1570 EGYPT RD","PHOENIXVILLE",PA,"194604746",,40.1303822,-75.5149128,"6106760411","00-14",,,,,,,
"216642","1447210463","SHORE REHABILITATION CENTER","10-B MARTIN COURT","QUEENSTOWN",MD,"216581684","041",38.9906679,-76.1577268,"4108223080","00-14","08-01",true,,,"03",,
"396794","1356349237","LAS GERIATRIC CARE SERVICES, INC.","1323 FREEDOM RD","ZELIENOPLE",PA,"160631580",,40.7957622,-80.1370795,"7247761100","00-14",,,,,,,
"166591","1255385852","MILLENNIUM THERAPY","4725 MERLE HAY ROAD","WINTERSET",IA,"502732206","153",41.3347631,-94.0135687,"5152212220","00-14","08-01",true,,,"07",,
"396548","1366439622","WESTARM THERAPY SERVICES","2757 LEECHBURG RD","VANDERGRIFT",PA,"156901125",,40.6028462,-79.5647741,"7243376522","00-14",,,,,,,
"686695","1336175587","CORA REHABILITATION CLINICS - DORAL","5021 W 6TH AVE","PEMBROKE PINES",FL,"330246162",,26.0031465,-80.223937,"3055581203","00-14",,,,,,,
"456655","1952349631","GULF COAST REHABILITATION, PC","5205 JOHN STOCKBAUER DR","VICTORIA",TX,"779041866",,28.82201612920837,-96.94978136123748,"3615724246","00-14",,,,,,,
"396770","1861491755","NOVACARE OUTPATIENT REHAB EAST","20-30 WEST BALTIMORE PIKE","WEST GROVE",PA,"193909198","045",39.82055685,-75.82832725481009,"6106260080","00-14","08-01",true,,,"03",,
"396572","1497754360","NOVACARE OUTPATIENT REHABILITATION EAST, INC.","1034 SECOND STREET PIKE, SUITE 3","WYNCOTE",PA,"190952918","017",40.0906988,-75.14588569222737,"2156741304","00-14","08-01",true,,,"03",,
"686544","1972588069","SKILLED THERAPY SERVICES INC","3603 CRILL AVE","PALATKA",FL,"321778113",,29.641303888417102,-81.67163592238573,"3863251001","00-14",,,,,,,
"186595","1568463412","KORT - PARTNERS IN PHYSICAL THERAPY","616 EXECUTIVE PARK","LOUISVILLE",KY,"402074206","111",38.2542376,-85.759407,"7179754510","00-14","08-01",true,,,"04",,
"266644","1770628620","CHERRY HEALTH CENTER","607 WEST BATTLEFIELD","SPRINGFIELD",MO,"658074123","077",37.160054373335605,-93.29938734687519,"4178692000","00-14","08-01",true,,,"07",,
"286528","1508858291","NYE SQUARE LIMITED PARTNERSHIP","655 W 23RD ST","FREMONT",NE,"680252595",,41.450491,-96.505412,"4027219224","00-14",,,,,,,
"426542","1285699249","ELLIS PHYSICAL THERAPY ASSOCIATES, INC.","1519 TAYLOR STREET","COLUMBIA",SC,"29209",,34.008300925415824,-81.03075843557417,"8037798327","00-14",,,,"42-6542",,,
"166571","1386655272","COMPREHENSIVE REHAB INC","1377 11TH ST NW","MUSCATINE",IA,"527612286",,41.4776121,-91.1210053,"5632414230","00-14",,,,"I7284",,,
"686597","1891790234","SELECT PHYSICAL THERAPY","3156 NORTHSIDE DR","KEY WEST",FL,"330408024","087",24.56708923168639,-81.76704318711923,"3054619700","00-14","08-01",true,,,"04",,
"316682","1194702720","GENESIS REHABILITATION SERVICES","2005 RT 22 W","TENAFLY",NJ,"076701027","035",40.9253766,-73.9629154,"7323024596","00-14","08-01",true,,,"02",,
"196637","1679536247","PADGETT BROOKS, INC.","2409 ARKANSAS RD.","WEST MONROE",LA,"712918611",,32.5286028,-92.1509334,"3183962044","00-14",,,,"196637",,,
"456687","1245335983","PROFESSIONAL HEALTH SERVICES INC.","1949 INDUSTRIAL","ABILENE",TX,"796027833",,32.401288,-99.746781,"3254396144","00-14",,,,,,,
"216643","1922051218","OAK CREST VILLAGE REHAB AGENCY","8800 WALTHER BLVD","PARKVILLE",MD,"212349020","005",39.390879,-76.5104956,"4106651000","00-14","08-01",true,,,"03",,
"186574","1932100971","KORT - BEAUMONT PHYSICAL THERAPY","3070 LAKE CREST CIRCLE, SUITE 700","VERSAILLES",KY,"403831915","067",38.052576,-84.7299464,"7179754510","00-14","08-01",true,,,"04",,
"686564","1013945757","CENTRAL FLORIDA THERAPIST & REHABILITATIVE GROUP, INC.","7380 SW 60TH AVE","OCALA",FL,"344766467",,29.1780737,-82.2185827,"3528400004","00-14",,,,,,,
"106524","1386618064","PHYSICAL THERAPY & REHABILITATION CLINIC INC","2140 KINGSLEY AVE","STARKE",FL,"320913172",,29.9443549,-82.1101114,"9042722830","00-14",,,,,,,
"236747","1386699031","THUNDER BAY THERAPY & SPORTS MEDICINE","348 LONG RAPIDS PLAZA","ROGERS CITY",MI,"497792123","007",45.421391,-83.818185,"9893588086","00-14","08-01",true,,,"05",,
"026531","1932244068","ALASKA AQUATIC THERAPY INC.","MILE 23.4 SPUR HWY","SOLDOTNA",AK,"996699202",,60.4847228,-151.065349,"9072837946","00-14",,,,,,,
"186596","1851391882","KORT - RICHMOND PHYSICAL THERAPY","5006 ATWOOD DRIVE, SUITE 2","RICHMOND",KY,"404758179","151",37.76024431174721,-84.27281995363299,"8596232057","00-14","08-01",true,,,"04",,
"366512","1447259734","R & F INC.","3306 MEIJER DR","TOLEDO",OH,"436173103",,41.6529143,-83.5378173,"4198243434","00-14",,,,"366512",,,
"396761","1821028275","SACRED HEART PHYSICAL THERAPY & REHAB, LLC","4666 ROUTE 309","ORWIGSBURG",PA,"179619314",,40.6548566,-76.1007318,"6107910241","00-14",,,,,,,
"056787","1437224383","EAST BAY PHYSICAL THERAPY, INC.","3571 SAN PABLO DAM RD","RICHMOND",CA,"948032727",,37.9640435,-122.3193285,"5102228080","00-14",,,,,,,
"676590","1710999289","COUNTRYSIDE THERAPY GROUP INC","515 W LINGLEVILLE RD","WEATHERFORD",TX,"760865867","143",32.7589648,-97.7970748,"2549653611","00-14","08-01",true,,,"06",,
,"1619998127","SPEECH COMMUNICATION THERAPIES INC","831 PENDALE RD","EL PASO",TX,"799072719",,31.72212530763932,-106.3211348750369,"9155986816","00-14",,,,,,,
"066600","1275589228","SELECT PHYSICAL THERAPY - 50831","5161 E ARAPAHOE RD","LONGMONT",CO,"805016968",,40.1672117,-105.1019287,"3036946378","00-14",,,,,,,
"676586","1538266085","THERAPY NETWORK","801 E NOLANA","MCALLEN",TX,"785046112",,26.2366249,-98.2020221,"9566649904","00-14",,,,,,,
"236658","1457403727","NORTH SHORE PHYSICAL THERAPY PC","102 S. BRIDGE ST.","CENTRAL LAKE",MI,"496220456",,-37.7934929,175.2862133,"2315336113","00-14",,,,,,,
"236588","1912944893","NEUROSURGERY GROUP PC","43650 GARFIELD RD","CLINTON TWP",MI,"480387419",,42.617327246231156,-82.953021919598,"5862630820","00-14",,,,,,,
"306519","1659358281","GENESIS REHABILITATION SERVICES","319 E DUNSTABLE ROAD","PETERBOROUGH",NH,"034581047","011",42.8776166,-71.949383,"6034665972","00-14","08-01",true,,,"01",,
"346624","1285778779","QUALITY THERAPY SERVICES, INC.","138 MAGNOLIA DR","SMITHFIELD",NC,"275774758",,35.5109518,-78.3195416,"9199896594","00-14",,,,,,,
"456786","1093746034","CLASSIC REHABILITATION INC","504 N CARRIER PARKWAY","GRAND PRAIRIE",TX,"750505428",,32.74581704081633,-97.01700715306123,"9722637042","00-14",,,,,,,
"216633","1750476818","UNIVERSITY OF MARYLAND REHABILITATION","3104 LORD BALTIMORE DRIVE, SUITE 100","WINDSOR MILL",MD,"212445801","005",39.3386323,-76.7522822,"4104487900","00-14","08-01",true,,,"03",,
"446628","1275641490","MEMPHIS PHYSICAL THERAPY","6600 STAGE ROAD","MILLINGTON",TN,"380531632",,35.3414745,-89.8973084,"9013710732","00-14",,,,,,,
"526525","1710071501","MILWAUKEE CENTER FOR INDEPENDENCE INC","2020 W WELLS ST","MILWAUKEE",WI,"532332720",,43.0405777,-87.93858618477785,"4149372020","00-14",,,,"526525",,,
"426552","1487616504","SELECT PHYSICAL THERAPY","201 GRADUATE ROAD UNIT 108","SURFSIDE BEACH",SC,"295756088","051",33.6060031,-78.9730887,"8433477141","00-14","08-01",true,,,"04",,
"146700","1760640262","ADVANCED PHYSICAL THERAPY SERVICES, LTD.","135 N WILLIAMSBURG DR","BLOOMINGTON",IL,"617043528",,40.480900224489794,-88.94615634693878,"3096618823","00-14",,,,"146700",,,
"266526","1033179510","SELECT PHYSICAL THERAPY - KANSAS CITY","9411 NORTH OAK TRAFFICWAY, SUITE 200","PARKVILLE",MO,"641523603","047",-37.7871148,144.9515533,"8164366383","00-14","08-01",true,,,"07",,
"056536","1457333908","BURGER PHYSICAL THERAPY AND REHABILITATION","1301 EAST BIDWELL STREET, SUITE 101","WOODLAND",CA,"956953515","067",38.6786109,-121.7733285,"9169835915","00-14","08-01",true,,,"09",,
"216556","1831168889","NOVACARE REHABILITATION","2711 OCEAN GATEWAY, SUITE C","SALISBURY",MD,"218016845","019",38.3715829,-75.5307236,"4109011100","00-14","08-01",true,,,"03",,
"186533","1821098898","KORT PHYSICAL THERAPY","543 TAYLORSVILLE ROAD, STE 101","CRESTWOOD",KY,"400148679","215",38.3235441,-85.4726215,"5022415597","00-14","08-01",true,,,"04",,
"676593","1083830319","APTUS HEALTH CARE, P.L.L.C.","700 E BRAVO BLVD","ROMA",TX,"785845741",,26.4051487,-99.0158935,"9568491818","00-14",,,,"676593",,,
"186531","1790780617","NOVACARE OUTPATIENT REHABILITATION-CRESTVIEW HILLS","559 CENTRE VIEW BOULEVARD","HIGHLAND HEIGHTS",KY,"410761590","117",39.0330902,-84.4521512,"7179754510","00-14","08-01",true,,,"04",,
"526560","1841245701","SUNDANCE REHABILITATION AGENCY OF WISCONSIN","3933 S PRAIRIE HILL LANE","KENOSHA",WI,"531421437","079",42.5846773,-87.8212263,"4145463371","00-14","08-01",true,,,"05",,
"686750","1497702815","LEGACY PHYSICAL THERAPY & SPORTS TRAINING INC","8175 US HIGHWAY 301 N","SARASOTA",FL,"342392342",,27.3365805,-82.5308545,"9417290003","00-14",,,,,,,
"676518","1639232218","CAPLAND CENTER FOR COMMUNICATION DISORDERS INC","2660 AERO DR","PORT ARTHUR",TX,"776401528",,29.9524574,-94.0102359,"4097292227","00-14",,,,"676518",,,
"076503","1033293691","ACCESS REHAB CENTERS, LLC","22 TOMPKINS STREET","WOLCOTT",CT,"067162427",,41.6023196,-72.9867718,"2034190381","00-14",,,,,,,
"346554","1952359010","PRO PHYSICAL THERAPY, INC","60 SHUFORD RD","SPINDALE",NC,"281601235",,35.3601212,-81.929271,"8288940277","00-14",,,,"6981",,,
"066563","1679529242","PHYSIOTHERAPY ASSOCIATES INC","3470 CENTENNIAL BLVD","COLORADO SPRINGS",CO,"809074091",,38.88086545,-104.84823965052442,"7196326818","00-14",,,,,,,
"446646","1588738157","STAR CENTER, INC.","1119 OLD HUMBOLDT RD","JACKSON",TN,"383051752",,35.704163,-88.8509391,"7316683888","00-14",,,,,,,
"456678","1659353597","CROSS TIMBERS PHYSICAL THERAPY CENTER","3600 W. 7TH ST","FORT WORTH",TX,"761072534",,32.75173615,-97.3701361985864,"8173773422","00-14",,,"456678",,,,
"066628","1114974854","BROOKDALE THERAPY DENVER","2020 SOUTH MONROE ST","LAKEWOOD",CO,"802326700","031",39.7085736,-105.0846694,"3037440915","00-14","08-01",true,,,"08",,
"676530","1669429429","INNOVATIVE SENIOR CARE AT BROADWAY PLAZA","5301 BRYANT IRVIN ROAD","NORTH RICHLAND HILLS",TX,"761805662","439",32.8342952,-97.2289029,"8172942280","00-14","08-01",true,,,"06",,
"676591","1548288202","THERA-CARE REHAB SERVICES, PLLC","2504 E GRIFFIN PKWY","MISSION",TX,"785723348",,26.22378081139717,-98.28138406007305,"9565192700","00-14",,,,,,,
"156613","1336226984","HAND & ORTHOPEDIC REHAB CLINIC THE","619 E SPRINGHILL DR","TERRE HAUTE",IN,"478024448",,39.412288393555585,-87.40798247476806,"8122323504","00-14",,,,,,,
"066605","1346223773","VALLEY-WIDE HEALTH SYSTEMS, INC.","106 BLANCA AVE","SAN LUIS",CO,"811520328",,6.0428128,-74.9944061,"7195895149","00-14",,,,,,,
"676592","1639183973","THERAPY CENTER INC.","5309 N MCCOLL RD","MCALLEN",TX,"785042252",,26.248596406402022,-98.20460481091166,"9566641819","00-14",,,,"676592",,,
"236785","1255403598","MOBILITY PLUS REHAB SERVICES INC.","6905 ROCHESTER RD STE C","TROY",MI,"480851282",,42.6055893,-83.1499304,"2488281100","00-14",,,,,,,
"676594","1417967944","ACTIVE DEVELOPMENT THERAPIES, LLC","23750 FM 1314 RD","PORTER",TX,"773653713",,30.1024397,-95.2296553,"2813543383","00-14",,,,"676594",,,
"466503","1174540058","IHC HEALTH SERVICES INC","1685 W 2200 S","WEST VALLEY CITY",UT,"841208208",,40.7232849,-111.9882323,"8018875455","00-14",,,,,,,
"236673","1992793442","MICHIGAN THERAPY INSTITUTE","2117 ELEVEN MILE RD","WARREN",MI,"480923553","099",38.7535106,-91.1453948,"5865734684","00-14","08-01",true,,,"05",,
